time(millisecond),datetime(utc),latitude,longitude,height_above_takeoff(feet),height_above_ground_at_drone_location(feet),ground_elevation_at_drone_location(feet),altitude_above_seaLevel(feet),height_sonar(feet),speed(mph),distance(feet),mileage(feet),satellites,gpslevel,voltage(v),max_altitude(feet),max_ascent(feet),max_speed(mph),max_distance(feet), xSpeed(mph), ySpeed(mph), zSpeed(mph), compass_heading(degrees), pitch(degrees), roll(degrees),isPhoto,isVideo,rc_elevator,rc_aileron,rc_throttle,rc_rudder,rc_elevator(percent),rc_aileron(percent),rc_throttle(percent),rc_rudder(percent),gimbal_heading(degrees),gimbal_pitch(degrees),gimbal_roll(degrees),battery_percent,voltageCell1,voltageCell2,voltageCell3,voltageCell4,voltageCell5,voltageCell6,current(A),battery_temperature(f),altitude(feet),ascent(feet),flycStateRaw,flycState,message
1800,2026-04-08 12:15:22,39.8653780416924,-76.156481906861,0,Available with any HD 360 subscription,Available with any HD 360 subscription,658.38277730184,0.656168,0,0,0,29,5,0,658.38277730184,0,0,0,0,0,0,255.7, -15.1, 4.8,0,0,1024,1024,1024,1024,0,0,0,0,285,-4.4,0,29,3.559,3.554,0,0,0,0,0,65.48,658.38277730184,0,6,P-GPS,"Flying over vegetation. Propeller rotation not smooth or collision detected. Check if propeller is installed properly or replace propellers (Code: 1612000A). Account not logged in. Flight altitude and distance restricted to 30 m and 50 m. Check and log in (Code: 3000003). A"
1900,2026-04-08 12:15:22,39.8653780214461,-76.1564818868383,0,,,658.38277730184,0.656168,0,0.009273950428,0.009273950428,29,5,0,658.38277730184,0,0,0.009273950428,0,0,0,256, -15.4, 4.6,0,0,1024,1024,1024,1024,0,0,0,0,285.2,-4.4,0,29,3.559,3.554,0,0,0,0,0,65.48,658.38277730184,0,41,Motors_Started,
2000,2026-04-08 12:15:22,39.8653780454962,-76.1564819277253,0,,,658.38277730184,0.656168,0,0.006005413578,0.0236995742492,29,5,0,658.38277730184,0,0,0.009273950428,0,0,0,256.1, -15, 4.8,0,0,1024,1024,1024,1024,0,0,0,0,285.4,-4.4,0,29,3.559,3.554,0,0,0,0,0,65.48,658.38277730184,0,41,Motors_Started,
2100,2026-04-08 12:15:22,39.8653780425475,-76.1564819283634,0,,,658.38277730184,0.328084,0,0.0060296261772,0.0247901582736,29,5,0,658.38277730184,0,0,0.009273950428,0,0,0,256.3, -15.4, 4.2,0,0,1024,1024,1024,1024,0,0,0,0,285.7,-4.4,0,29,3.559,3.554,0,0,0,0,0,65.48,658.38277730184,0,41,Motors_Started,
2200,2026-04-08 12:15:23,39.8653779584482,-76.1564821039666,0,,,658.38277730184,0.328084,0.3131716,0.063001642436,0.082753611572,30,5,0,658.38277730184,0,0.3131716,0.063001642436,-0.223694,-0.223694,0,256.4, -16.4, 3,0,0,1024,1024,1024,1024,0,0,0,0,285.8,-4.4,0,29,3.559,3.554,0,0,0,0,0,65.48,658.38277730184,0,41,Motors_Started,
2300,2026-04-08 12:15:23,39.8653779139895,-76.1564822072204,0,,,658.38277730184,0.328084,0.3131716,0.096155186804,0.115908140192,30,5,7.115,658.38277730184,0,0.3131716,0.096155186804,-0.223694,-0.223694,0,255.5, -17.7, 2.1,0,0,1024,1024,1024,1024,0,0,0,0,285.9,-4.4,0,29,3.559,3.554,0,0,0,0,0.736,65.48,658.38277730184,0,41,Motors_Started,
2400,2026-04-08 12:15:23,39.8653777701679,-76.156482250147,0,,,658.38277730184,0.328084,0,0.138042655336,0.169740490996,30,5,7.115,658.38277730184,0,0.3131716,0.138042655336,0,0,0,255, -18.2, 1.6,0,0,1024,1024,1024,1024,0,0,0,0,286,-4.4,0,29,3.559,3.554,0,0,0,0,0.736,65.48,658.38277730184,0,41,Motors_Started,
2500,2026-04-08 12:15:23,39.8653778801834,-76.1564821441615,0,,,658.38277730184,0.328084,0,0.088816931976,0.219661096268,30,5,7.115,658.38277730184,0,0.3131716,0.138042655336,0,0,0,255.3, -18.1, 0.8,0,0,1024,1024,1024,1024,0,0,0,0,286,-4.4,0,29,3.559,3.554,0,0,0,0,0.736,65.48,658.38277730184,0,41,Motors_Started,
2600,2026-04-08 12:15:23,39.8653779979811,-76.1564819407136,0,,,658.38277730184,0.328084,0,0.018552986158,0.291027568368,31,5,7.115,658.38277730184,0,0.3131716,0.138042655336,0,0,0,254.8, -17.7, 1.1,0,0,1024,1024,1024,1024,0,0,0,0,286,-4.4,0,29,3.559,3.554,0,0,0,0,0.736,65.48,658.38277730184,0,41,Motors_Started,
2700,2026-04-08 12:15:23,39.8653780586937,-76.1564819025211,0,,,658.38277730184,0.328084,0,0.006320866344,0.315625338184,31,5,7.115,658.38277730184,0,0.3131716,0.138042655336,0,0,0,254.7, -18.8, 0,0,0,1024,1024,1024,1024,0,0,0,0,286,-4.4,0,29,3.559,3.554,0,0,0,0,0.736,65.48,658.38277730184,0,41,Motors_Started,"Setting new Return-To-Home altitude to 100m (328 ft). Data Recorder File Index is 10. Setting new Maximum Flight Altitude to 30m (98 ft)"
2800,2026-04-08 12:15:23,39.8653777290934,-76.1564822878331,0,,,658.38277730184,0.328084,0.223694,0.156173233344,0.47719489716,31,5,7.115,658.38277730184,0,0.3131716,0.156173233344,0,-0.223694,0,253.3, -21.4, 0.3,0,0,1024,1024,1024,1024,0,0,0,0,286,-4.4,0,29,3.559,3.554,0,0,0,0,0.736,65.48,658.38277730184,0,41,Motors_Started,
2900,2026-04-08 12:15:23,39.8653777024198,-76.1564824009418,0,,,658.38277730184,0.328084,0.223694,0.185651908828,0.51033138116,31,5,7.115,658.38277730184,0,0.3131716,0.185651908828,0,-0.223694,0,252.1, -23.6, 0.4,0,0,1024,1024,1024,1024,0,0,0,0,286,-4.4,0,29,3.559,3.554,0,0,0,0,0.736,65.48,658.38277730184,0,41,Motors_Started,
3000,2026-04-08 12:15:23,39.8653775276141,-76.1564825103396,0,,,658.38277730184,0.328084,0,0.252467527764,0.58108269576,31,5,7.115,658.38277730184,0,0.3131716,0.252467527764,0,0,-0.223694,251.7, -21.9, 0.7,0,0,1024,1024,1024,1024,0,0,0,0,285.8,-4.4,0,29,3.559,3.554,0,0,0,0,0.736,65.48,658.38277730184,0,41,Motors_Started,
3100,2026-04-08 12:15:23,39.8653774933119,-76.1564825363734,0,,,658.38277730184,0.328084,0,0.26666175394,0.59556760436,31,5,7.115,658.38277730184,0,0.3131716,0.26666175394,0,0,-0.223694,251.2, -20.6, 0.6,0,0,1024,1024,1024,1024,0,0,0,0,285.4,-4.4,0,29,3.559,3.554,0,0,0,0,0.736,65.48,658.38277730184,0,41,Motors_Started,
3200,2026-04-08 12:15:24,39.8653773232209,-76.1564826320818,0,,,658.38277730184,0.328084,0,0.33160434132,0.66316603172,31,5,7.115,658.38277730184,0,0.3131716,0.33160434132,0,0,0,250.5, -20.2, 0.5,0,0,1024,1024,1024,1024,0,0,0,0,285.1,-4.4,0,29,3.559,3.554,0,0,0,0,0.736,65.48,658.38277730184,0,41,Motors_Started,
3300,2026-04-08 12:15:24,39.8653772562678,-76.1564825957304,0,,,658.38277730184,0.328084,0,0.34544620528,0.68962928716,31,5,7.115,658.38277730184,0,0.3131716,0.34544620528,0,0,0,250.1, -20, 0.6,0,0,1024,1024,1024,1024,0,0,0,0,284.8,-4.4,0,29,3.386,3.377,0,0,0,0,0.736,65.48,658.38277730184,0,41,Motors_Started,
3400,2026-04-08 12:15:24,39.8653771591455,-76.1564824753613,0,,,658.38277730184,0.328084,0.223694,0.3592027674,0.73853676904,31,5,7.115,658.38277730184,0,0.3131716,0.3592027674,-0.223694,0,0,248.9, -21, 0.7,0,0,1024,1024,1024,1024,0,0,0,0,284.4,-4.4,0,29,3.386,3.377,0,0,0,0,0.736,65.48,658.38277730184,0,41,Motors_Started,
3500,2026-04-08 12:15:24,39.8653770668055,-76.1564825137376,0,,,658.38277730184,0.328084,0.223694,0.39420276852,0.7739009434,31,5,7.115,658.38277730184,0,0.3131716,0.39420276852,-0.223694,0,0,248, -22.3, 1.1,0,0,1024,1024,1024,1024,0,0,0,0,283.8,-4.4,0,29,3.386,3.377,0,0,0,0,0.736,65.48,658.38277730184,0,41,Motors_Started,
3600,2026-04-08 12:15:24,39.8653770437538,-76.1564827138962,0,,,658.38277730184,0.328084,0,0.42853675912,0.83058073524,31,5,7.115,658.38277730184,0,0.3131716,0.42853675912,0,0,0,247.8, -21.9, 1.2,0,0,1024,1024,1024,1024,0,0,0,0,283.3,-4.4,0,29,3.386,3.377,0,0,0,0,0.736,65.48,658.38277730184,0,41,Motors_Started,
3700,2026-04-08 12:15:24,39.8653769779656,-76.1564827655675,0,,,658.38277730184,0.328084,0,0.4565616944,0.85860567052,31,5,7.115,658.38277730184,0,0.3131716,0.4565616944,0,0,0,247.7, -21.8, 1,0,0,1024,1024,1024,1024,0,0,0,0,282.9,-4.4,0,29,3.386,3.377,0,0,0,0,0.736,65.48,658.38277730184,0,41,Motors_Started,
3800,2026-04-08 12:15:24,39.8653770709932,-76.1564826623196,0,,,658.38277730184,0.328084,0,0.41253610244,0.90319556696,31,5,7.115,658.38277730184,0,0.3131716,0.4565616944,0,0,0,247.3, -21.5, 0.8,0,0,1024,1024,1024,1024,0,0,0,0,282.4,-4.4,0,29,3.386,3.377,0,0,0,0,0.736,65.48,658.38277730184,0,41,Motors_Started,
3900,2026-04-08 12:15:24,39.8653770312102,-76.1564827312718,0,,,658.38277730184,0.328084,0,0.43499673308,0.92734911104,31,5,7.115,658.38277730184,0,0.3131716,0.4565616944,0,0,0,247.2, -20.9, 1.4,0,0,1024,1024,1024,1024,0,0,0,0,282,-4.4,0,29,3.386,3.377,0,0,0,0,0.736,65.48,658.38277730184,0,41,Motors_Started,
4000,2026-04-08 12:15:24,39.8653770275003,-76.1564828771119,0,,,658.38277730184,0.328084,0,0.459071537,0.96821525408,31,5,7.115,658.38277730184,0,0.3131716,0.459071537,0,0,0,247.1, -21.3, 1.1,0,0,1024,1024,1024,1024,0,0,0,0,281.6,-4.4,0,29,3.386,3.377,0,0,0,0,0.736,65.48,658.38277730184,0,41,Motors_Started,
4100,2026-04-08 12:15:25,39.8653770002143,-76.15648289957,0,,,658.38277730184,0.328084,0,0.47082022504,0.97999018884,31,5,7.115,658.38277730184,0,0.3131716,0.47082022504,0,0,0,247.6, -20.6, 0.8,0,0,1024,1024,1024,1024,0,0,0,0,281.3,-4.4,0,29,3.386,3.377,0,0,0,0,0.736,65.48,658.38277730184,0,41,Motors_Started,
4200,2026-04-08 12:15:25,39.8653771874746,-76.156482644719,0,,,658.38277730184,0.328084,0,0.37393701984,1.0787894046,31,5,7.115,658.38277730184,0,0.3131716,0.47082022504,0,0,0,247.8, -20, 0.9,0,0,1024,1024,1024,1024,0,0,0,0,281.1,-4.4,0,29,3.386,3.377,0,0,0,0,0.736,65.48,658.38277730184,0,41,Motors_Started,
4300,2026-04-08 12:15:25,39.8653771951413,-76.1564825821207,0,,,658.38277730184,0.328084,0,0.3621555234,1.09654202984,31,5,6.929,658.38277730184,0,0.3131716,0.47082022504,0,0,0,247.3, -20.1, 1.1,0,0,1024,1024,1024,1024,0,0,0,0,280.8,-4.4,0,29,3.386,3.377,0,0,0,0,2.638,65.48,658.38277730184,0,41,Motors_Started,
4400,2026-04-08 12:15:25,39.8653772103282,-76.1564826580383,0,,,658.38277730184,0.328084,0,0.36913058924,1.11851053448,31,5,6.929,658.38277730184,0,0.3131716,0.47082022504,0,0,0,247.3, -20.5, 1,0,0,1024,1024,1024,1024,0,0,0,0,280.6,-4.4,0,29,3.386,3.377,0,0,0,0,2.638,65.48,658.38277730184,0,41,Motors_Started,
4500,2026-04-08 12:15:25,39.865377234315,-76.156482654473,0,,,658.38277730184,0.328084,0,0.36139108768,1.12731958988,31,5,6.929,658.38277730184,0,0.3131716,0.47082022504,0,0,0,247.3, -19.9, 1.5,0,0,1024,1024,1024,1024,0,0,0,0,280.4,-4.4,0,29,3.386,3.377,0,0,0,0,2.638,65.48,658.38277730184,0,41,Motors_Started,
4600,2026-04-08 12:15:25,39.8653772236271,-76.1564826632001,0,,,658.38277730184,0.328084,0,0.36598754452,1.1319226084,31,5,6.929,658.38277730184,0,0.3131716,0.47082022504,0,0,0,247.6, -19.6, 1.2,0,0,1024,1024,1024,1024,0,0,0,0,280.3,-4.4,0,29,3.386,3.377,0,0,0,0,2.638,65.48,658.38277730184,0,41,Motors_Started,
4700,2026-04-08 12:15:25,39.8653771730553,-76.1564827236599,0,,,658.38277730184,0.328084,0,0.3908464692,1.15696526012,31,5,6.929,658.38277730184,0,0.3131716,0.47082022504,0,0,0,247.8, -20.1, 0.6,0,0,1024,1024,1024,1024,0,0,0,0,280.1,-4.4,0,29,3.386,3.377,0,0,0,0,2.638,65.48,658.38277730184,0,41,Motors_Started,
4800,2026-04-08 12:15:25,39.8653770383643,-76.1564827215937,0,,,658.38277730184,0.328084,0,0.43134515816,1.20610896248,31,5,6.929,658.38277730184,0,0.3131716,0.47082022504,0,0,0,247.7, -20, 0.9,0,0,1024,1024,1024,1024,0,0,0,0,280,-4.4,0,29,3.386,3.377,0,0,0,0,2.638,65.48,658.38277730184,0,41,Motors_Started,
4900,2026-04-08 12:15:25,39.8653770114438,-76.1564827333853,0,,,658.38277730184,0.328084,0,0.44143374116,1.2164698552,31,5,6.929,658.38277730184,0,0.3131716,0.47082022504,0,0,0,247.8, -20.1, 0.6,0,0,1024,1024,1024,1024,0,0,0,0,279.9,-4.4,0,29,3.386,3.377,0,0,0,0,2.638,65.48,658.38277730184,0,41,Motors_Started,
5000,2026-04-08 12:15:25,39.8653769546906,-76.156482681434,0,,,658.38277730184,0.328084,0,0.4520341352,1.24177825496,31,5,6.929,658.38277730184,0,0.3131716,0.47082022504,0,0,0,247.5, -20.1, 0.8,0,0,1024,1024,1024,1024,0,0,0,0,279.8,-4.4,0,29,3.386,3.377,0,0,0,0,2.638,65.48,658.38277730184,0,41,Motors_Started,
5100,2026-04-08 12:15:26,39.8653769436957,-76.1564826915432,0,,,658.38277730184,0.328084,0,0.45691274428,1.2466863916,31,5,6.929,658.38277730184,0,0.3131716,0.47082022504,0,0,0,247.6, -19.9, 0.8,0,0,1024,1024,1024,1024,0,0,0,0,279.7,-4.4,0,29,3.386,3.377,0,0,0,0,2.638,65.48,658.38277730184,0,41,Motors_Started,
5200,2026-04-08 12:15:26,39.8653770100165,-76.1564827186888,0,,,658.38277730184,0.328084,0,0.43973426604,1.27205056564,31,5,6.929,658.38277730184,0,0.3131716,0.47082022504,0,0,0,247.9, -19.8, 0.6,0,0,1024,1024,1024,1024,0,0,0,0,279.7,-4.4,0,29,3.386,3.377,0,0,0,0,2.638,65.48,658.38277730184,0,41,Motors_Started,
5300,2026-04-08 12:15:26,39.8653770221291,-76.1564826771198,0,,,658.38277730184,0.328084,0,0.4300032946,1.28450135344,31,5,6.929,658.38277730184,0,0.3131716,0.47082022504,0,0,0,248, -18, 0.7,0,0,1024,1024,1024,1024,0,0,0,0,279.6,-4.4,0,29,3.489,3.482,0,0,0,0,2.638,65.48,658.38277730184,0,11,AutoTakeoff,"Account not logged in. Flight altitude and distance restricted to 30 m and 50 m. Check and log in (Code: 3000003). Aircraft not in flight. Vision systems and obstacle avoidance disabled (Code: 180059)"
5400,2026-04-08 12:15:26,39.8653770283748,-76.1564826514106,0,,,658.38277730184,0.328084,0,0.42445211332,1.29205384712,31,5,6.929,658.38277730184,0,0.3131716,0.47082022504,0,0,-0.223694,248.3, -15.5, 0.7,0,0,1024,1024,1024,1024,0,0,0,0,279.6,-4.4,0,29,3.489,3.482,0,0,0,0,2.638,65.48,658.38277730184,0,11,AutoTakeoff,
5500,2026-04-08 12:15:26,39.865377032942,-76.1564826002409,0,,,658.38277730184,0.328084,0,0.41612206056,1.3064797006,31,5,6.929,658.38277730184,0,0.3131716,0.47082022504,0,0,-0.223694,248.5, -13.6, 0.4,0,0,1024,1024,1024,1024,0,0,0,0,279.6,-4.4,0,29,3.489,3.482,0,0,0,0,2.638,65.48,658.38277730184,0,11,AutoTakeoff,
5600,2026-04-08 12:15:26,39.8653771286655,-76.1564824633453,0,,,658.38277730184,0.328084,0,0.3677657598,1.35833993848,31,5,6.929,658.38277730184,0,0.3131716,0.47082022504,0,0,-0.447388,248.5, -13.1, 1.6,0,0,1024,1024,1024,1024,0,0,0,0,279.5,-4.4,0,29,3.489,3.482,0,0,0,0,2.638,65.48,658.38277730184,0,11,AutoTakeoff,
5700,2026-04-08 12:15:26,39.8653771521113,-76.1564824699812,0,,,658.38277730184,0.328084,0.223694,0.36084646824,1.3670932196,31,5,6.929,658.38277730184,0,0.3131716,0.47082022504,0,-0.223694,-0.894776,246.1, -13.4, 4.2,0,0,1024,1024,1024,1024,0,0,0,0,279.4,-4.4,0,29,3.489,3.482,0,0,0,0,2.638,65.48,658.38277730184,0,11,AutoTakeoff,"Account not logged in. Flight altitude and distance restricted to 30 m and 50 m. Check and log in (Code: 3000003)"
5800,2026-04-08 12:15:26,39.8653772051987,-76.1564825454626,0.328084,,,658.71086130184,0.328084,0.223694,0.35373032628,1.39576448036,31,5,6.929,658.71086130184,0.328084,0.3131716,0.47082022504,0,-0.223694,-1.342164,244.7, -14.1, 5.6,0,0,1024,1024,1024,1024,0,0,0,0,279.1,-4.4,0,29,3.489,3.482,0,0,0,0,2.638,65.48,658.71086130184,0.328084,11,AutoTakeoff,
5900,2026-04-08 12:15:26,39.8653772241337,-76.1564825963508,0.328084,,,658.71086130184,0.328084,0,0.35532481452,1.41160109504,31,5,6.929,658.71086130184,0.328084,0.3131716,0.47082022504,0,0,-1.789552,245.9, -7.4, 4.6,0,0,1024,1024,1024,1024,0,0,0,0,278.9,-4.4,0,29,3.489,3.482,0,0,0,0,2.638,65.48,658.71086130184,0.328084,11,AutoTakeoff,
6000,2026-04-08 12:15:26,39.8653771736903,-76.1564826324338,0.656168,,,659.03894530184,0.656168,0.223694,0.37626969708,1.4325951902,31,5,6.929,659.03894530184,0.656168,0.3131716,0.47082022504,0.223694,0,-2.460634,249.2, 5.6, -0.9,0,0,1024,1024,1024,1024,0,0,0,0,278.9,-4.4,0,29,3.489,3.482,0,0,0,0,2.638,65.48,659.03894530184,0.656168,11,AutoTakeoff,
6100,2026-04-08 12:15:26,39.8653772304936,-76.1564825936874,0.984252,,,659.36702930184,0.984252,0.223694,0.35297245224,1.45599086024,31,5,6.929,659.36702930184,0.984252,0.3131716,0.47082022504,0,0.223694,-2.013246,249.3, 11.1, -6.7,0,0,1024,1024,1024,1024,0,0,0,0,278.9,-4.4,0,29,3.489,3.482,0,0,0,0,2.638,65.48,659.36702930184,0.984252,11,AutoTakeoff,
6200,2026-04-08 12:15:27,39.8653772587632,-76.1564818256715,1.312336,,,659.69511330184,0.984252,0.671082,0.286554799196,1.67131238944,31,5,6.929,659.69511330184,1.312336,0.671082,0.47082022504,0,0.671082,-1.565858,248.4, 9.5, -8.4,0,0,1024,1024,1024,1024,0,0,0,0,279,-4.4,0,29,3.489,3.482,0,0,0,0,2.638,65.48,659.69511330184,1.312336,11,AutoTakeoff,
6300,2026-04-08 12:15:27,39.8653771629953,-76.1564812540893,1.64042,,,660.02319730184,1.312336,0.9171454,0.36904856824,1.83514769652,31,5,6.992,660.02319730184,1.64042,0.9171454,0.47082022504,-0.223694,0.894776,-1.342164,247.9, 4.4, -5.4,0,0,1024,1024,1024,1024,0,0,0,0,279,-4.4,0,29,3.504,3.493,0,0,0,0,2.159,65.48,660.02319730184,1.64042,11,AutoTakeoff,
6400,2026-04-08 12:15:27,39.8653768219572,-76.1564802085975,1.64042,,,660.02319730184,2.624672,1.2079476,0.65132219932,2.15327106628,31,5,6.992,660.02319730184,1.64042,1.2079476,0.65132219932,-0.447388,1.11847,-1.11847,247.7, -2.8, 0.9,0,0,1024,1024,1024,1024,0,0,0,0,278.9,-4.4,0,29,3.504,3.493,0,0,0,0,2.159,65.48,660.02319730184,1.64042,11,AutoTakeoff,
6500,2026-04-08 12:15:27,39.8653766741741,-76.1564796832231,1.968504,,,660.35128130184,2.624672,0.7158208,0.79793965808,2.30996726552,31,5,6.992,660.35128130184,1.968504,1.2079476,0.79793965808,-0.223694,0.671082,-1.11847,247.1, -9.6, 7.9,0,0,1024,1024,1024,1024,0,0,0,0,278.9,-4.4,0,29,3.504,3.493,0,0,0,0,2.159,65.48,660.35128130184,1.968504,11,AutoTakeoff,
6600,2026-04-08 12:15:27,39.8653765713294,-76.1564799991716,1.968504,,,660.35128130184,2.952756,0.3131716,0.75709648092,2.40607291164,31,5,6.992,660.35128130184,1.968504,1.2079476,0.79793965808,-0.223694,0.223694,-0.894776,247.4, -8.2, 7.4,0,0,1024,1024,1024,1024,0,0,0,0,278.9,-4.4,0,29,3.504,3.493,0,0,0,0,2.159,65.48,660.35128130184,1.968504,11,AutoTakeoff,
6700,2026-04-08 12:15:27,39.8653765280835,-76.1564800268434,2.296588,,,660.67936530184,3.937008,0.223694,0.76298886956,2.42365165236,31,5,6.992,660.67936530184,2.296588,1.2079476,0.79793965808,0,-0.223694,-1.11847,247.7, -3.4, 3.7,0,0,1024,1024,1024,1024,0,0,0,0,278.9,-4.4,0,29,3.504,3.493,0,0,0,0,2.159,65.48,660.67936530184,2.296588,11,AutoTakeoff,
6800,2026-04-08 12:15:27,39.8653764805153,-76.156480828686,2.296588,,,660.67936530184,5.249344,0.223694,0.64467193664,2.64887147584,30,5,6.992,660.67936530184,2.296588,1.2079476,0.79793965808,0,-0.223694,-1.11847,247.5, 0.5, 1.3,0,0,1024,1024,1024,1024,0,0,0,0,278.9,-4.4,0,29,3.504,3.493,0,0,0,0,2.159,65.48,660.67936530184,2.296588,11,AutoTakeoff,
6900,2026-04-08 12:15:27,39.8653764847443,-76.156481326992,2.624672,,,661.00744930184,6.233596,0.447388,0.59080710552,2.78842528608,30,5,6.992,661.00744930184,2.624672,1.2079476,0.79793965808,0,-0.447388,-0.894776,247.6, 3.1, 1,0,0,1024,1024,1024,1024,0,0,0,0,278.9,-4.4,0,29,3.504,3.493,0,0,0,0,2.159,65.48,661.00744930184,2.624672,6,P-GPS,
7000,2026-04-08 12:15:27,39.8653767230456,-76.156481726231,2.624672,,,661.00744930184,6.56168,0.447388,0.483759858,2.93005586804,30,5,6.992,661.00744930184,2.624672,1.2079476,0.79793965808,0,-0.447388,-0.447388,248, 3.7, -0.1,0,0,1024,1024,1024,1024,0,0,0,0,278.9,-4.4,0,29,3.504,3.493,0,0,0,0,2.159,65.48,661.00744930184,2.624672,6,P-GPS,"Home Point updated (Code: 30800)"
7100,2026-04-08 12:15:27,39.865376755121,-76.1564820138987,2.624672,,,661.00744930184,6.56168,0.223694,0.47036090744,3.01146007012,30,5,6.992,661.00744930184,2.624672,1.2079476,0.79793965808,0,-0.223694,-0.223694,248.1, 2.7, -1.2,0,0,1024,1024,1024,1024,0,0,0,0,278.9,-4.4,0,29,3.504,3.493,0,0,0,0,2.159,65.48,661.00744930184,2.624672,6,P-GPS,
7200,2026-04-08 12:15:28,39.8653768420654,-76.1564814733167,2.952756,,,661.33553330184,6.56168,0.223694,0.45420933212,3.16613527192,30,5,6.992,661.33553330184,2.952756,1.2079476,0.79793965808,0,-0.223694,0,248.2, 1.8, -0.7,0,0,1024,1024,1024,1024,0,0,0,0,278.9,-4.4,0,29,3.504,3.493,0,0,0,0,2.159,65.48,661.33553330184,2.952756,6,P-GPS,
7300,2026-04-08 12:15:28,39.865376861236,-76.1564815516404,2.952756,,,661.33553330184,6.56168,0.223694,0.4420275732,3.1891569262,30,5,6.992,661.33553330184,2.952756,1.2079476,0.79793965808,0,-0.223694,0,248.5, 1.4, 0,0,0,1024,1024,1024,1024,0,0,0,0,278.9,-4.4,0,29,3.391,3.38,0,0,0,0,2.159,65.48,661.33553330184,2.952756,6,P-GPS,
7400,2026-04-08 12:15:28,39.8653767643337,-76.156481293918,2.952756,,,661.33553330184,6.56168,0.223694,0.49665027836,3.26952438284,30,5,6.992,661.33553330184,2.952756,1.2079476,0.79793965808,0,-0.223694,0,248.8, 1.4, 0,0,0,1024,1024,1024,1024,0,0,0,0,278.9,-4.4,0,29,3.391,3.38,0,0,0,0,2.159,65.48,661.33553330184,2.952756,6,P-GPS,
7500,2026-04-08 12:15:28,39.8653768353365,-76.1564812704073,2.952756,,,661.33553330184,6.56168,0,0.47485565824,3.296259948,30,5,6.992,661.33553330184,2.952756,1.2079476,0.79793965808,0,0,0,248.8, 0.8, -0.3,0,0,1024,1024,1024,1024,0,0,0,0,278.9,-4.4,0,29,3.391,3.38,0,0,0,0,2.159,65.48,661.33553330184,2.952756,6,P-GPS,
7600,2026-04-08 12:15:28,39.8653769364253,-76.1564813488592,2.952756,,,661.33553330184,6.56168,0,0.43247376712,3.3391733352,30,5,6.992,661.33553330184,2.952756,1.2079476,0.79793965808,0,0,0,248.8, 0.1, -0.5,0,0,1024,1024,1024,1024,0,0,0,0,278.9,-4.4,0,29,3.391,3.38,0,0,0,0,2.159,65.48,661.33553330184,2.952756,6,P-GPS,
7700,2026-04-08 12:15:28,39.865376996315,-76.1564813455642,2.952756,,,661.33553330184,6.56168,0,0.41252625992,3.361056538,30,5,6.992,661.33553330184,2.952756,1.2079476,0.79793965808,0,0,0,248.8, 0, -0.3,0,0,1024,1024,1024,1024,0,0,0,0,278.9,-4.4,0,29,3.391,3.38,0,0,0,0,2.159,65.48,661.33553330184,2.952756,6,P-GPS,
7800,2026-04-08 12:15:28,39.8653769942069,-76.1564815244342,2.952756,,,661.33553330184,6.56168,0,0.39689633816,3.4111549648,30,5,6.992,661.33553330184,2.952756,1.2079476,0.79793965808,0,0,0,248.9, 0.2, 0,0,0,1024,1024,1024,1024,0,0,0,0,278.9,-4.4,0,29,3.391,3.38,0,0,0,0,2.159,65.48,661.33553330184,2.952756,6,P-GPS,
7900,2026-04-08 12:15:28,39.8653770151554,-76.1564815833113,2.624672,,,661.00744930184,6.56168,0,0.385334658,3.4293308184,30,5,6.992,661.33553330184,2.952756,1.2079476,0.79793965808,0,0,0,249, 0.5, 0,0,0,1024,1024,1024,1024,0,0,0,0,278.9,-4.4,0,29,3.391,3.38,0,0,0,0,2.159,65.48,661.00744930184,2.624672,6,P-GPS,
8000,2026-04-08 12:15:28,39.865376812844,-76.1564818361891,2.624672,,,661.00744930184,6.56168,0,0.44878282276,3.5316274096,30,5,6.992,661.33553330184,2.952756,1.2079476,0.79793965808,0,0,0,249, 0.7, -0.1,0,0,1024,1024,1024,1024,0,0,0,0,278.9,-4.4,0,29,3.391,3.38,0,0,0,0,2.159,65.48,661.00744930184,2.624672,6,P-GPS,"Account not logged in"
8100,2026-04-08 12:15:28,39.8653767985649,-76.1564819506105,2.624672,,,661.00744930184,6.56168,0,0.45372048696,3.5640749172,30,5,6.992,661.33553330184,2.952756,1.2079476,0.79793965808,0,0,0,249, 1, -0.1,0,0,1024,1024,1024,1024,0,0,0,0,278.9,-4.4,0,29,3.391,3.38,0,0,0,0,2.159,65.48,661.00744930184,2.624672,6,P-GPS,
8200,2026-04-08 12:15:29,39.8653765684281,-76.1564819916521,2.624672,,,661.00744930184,6.56168,0,0.53804463664,3.6488190144,30,5,6.992,661.33553330184,2.952756,1.2079476,0.79793965808,0,0,0,249.1, 1.3, -0.2,0,0,1024,1024,1024,1024,0,0,0,0,278.9,-4.4,0,29,3.391,3.38,0,0,0,0,2.159,65.48,661.00744930184,2.624672,6,P-GPS,
8300,2026-04-08 12:15:29,39.8653765713655,-76.156482038227,2.624672,,,661.00744930184,6.56168,0,0.53770671012,3.661909566,30,5,6.771,661.33553330184,2.952756,1.2079476,0.79793965808,0,0,-0.223694,249.2, 1.2, -0.4,0,0,1024,1024,1024,1024,0,0,0,0,278.9,-4.4,0,29,3.39,3.381,0,0,0,0,5.735,65.48,661.00744930184,2.624672,6,P-GPS,
8400,2026-04-08 12:15:29,39.8653767943387,-76.1564821687391,2.624672,,,661.00744930184,6.56168,0,0.46096786252,3.7510827972,30,5,6.771,661.33553330184,2.952756,1.2079476,0.79793965808,0,0,-0.223694,249.2, 0.9, -0.4,0,0,1024,1024,1024,1024,0,0,0,0,278.9,-4.4,0,29,3.39,3.381,0,0,0,0,5.735,65.48,661.00744930184,2.624672,6,P-GPS,
8500,2026-04-08 12:15:29,39.8653767901511,-76.1564821779434,2.624672,,,661.00744930184,6.56168,0,0.46289043476,3.75410117,30,5,6.771,661.33553330184,2.952756,1.2079476,0.79793965808,0,0,-0.223694,249.1, 0.9, -0.1,0,0,1024,1024,1024,1024,0,0,0,0,278.9,-4.4,0,29,3.39,3.381,0,0,0,0,5.735,65.48,661.00744930184,2.624672,6,P-GPS,
8600,2026-04-08 12:15:29,39.8653766808212,-76.1564821103845,2.624672,,,661.00744930184,6.56168,0,0.49977363804,3.798228468,29,5,6.771,661.33553330184,2.952756,1.2079476,0.79793965808,0,0,-0.223694,249, 0.7, 0.5,0,0,1024,1024,1024,1024,0,0,0,0,278.9,-4.4,0,29,3.39,3.381,0,0,0,0,5.735,65.48,661.00744930184,2.624672,6,P-GPS,
8700,2026-04-08 12:15:29,39.8653766786535,-76.1564821178505,2.952756,,,661.33553330184,6.56168,0,0.50080054096,3.8004594392,29,5,6.771,661.33553330184,2.952756,1.2079476,0.79793965808,0,0,-0.223694,249.1, 0.9, 0.8,0,0,1024,1024,1024,1024,0,0,0,0,278.9,-4.4,0,29,3.39,3.381,0,0,0,0,5.735,65.48,661.33553330184,2.952756,6,P-GPS,
8800,2026-04-08 12:15:29,39.8653767001855,-76.1564822147218,2.952756,,,661.33553330184,6.56168,0,0.4969816432,3.8287074716,29,5,6.771,661.33553330184,2.952756,1.2079476,0.79793965808,0,0,-0.223694,249.1, 0.8, 0.2,0,0,1024,1024,1024,1024,0,0,0,0,278.9,-4.4,0,29,3.39,3.381,0,0,0,0,5.735,65.48,661.33553330184,2.952756,6,P-GPS,
8900,2026-04-08 12:15:29,39.8653767213138,-76.1564822269118,2.952756,,,661.33553330184,6.56168,0,0.49000657736,3.8371392304,29,5,6.771,661.33553330184,2.952756,1.2079476,0.79793965808,0,0,0,249.1, 0.7, -0.3,0,0,1024,1024,1024,1024,0,0,0,0,278.9,-4.4,0,29,3.39,3.381,0,0,0,0,5.735,65.48,661.33553330184,2.952756,6,P-GPS,
9000,2026-04-08 12:15:29,39.8653767963898,-76.1564824189757,2.952756,,,661.33553330184,6.56168,0,0.4764435848,3.8975066864,29,5,6.771,661.33553330184,2.952756,1.2079476,0.79793965808,0,0,0,249.1, 0.5, -0.1,0,0,1024,1024,1024,1024,0,0,0,0,278.9,-4.4,0,29,3.39,3.381,0,0,0,0,5.735,65.48,661.33553330184,2.952756,6,P-GPS,
9100,2026-04-08 12:15:30,39.8653767693121,-76.1564825774294,2.952756,,,661.33553330184,6.56168,0,0.5007710134,3.9429791288,29,5,6.771,661.33553330184,2.952756,1.2079476,0.79793965808,0,0,0,249.1, 1.2, -0.4,0,0,1024,1024,1024,1024,0,0,0,0,278.9,-4.4,0,29,3.39,3.381,0,0,0,0,5.735,65.48,661.33553330184,2.952756,6,P-GPS,
9200,2026-04-08 12:15:30,39.8653765657602,-76.1564825953978,2.952756,,,661.33553330184,6.56168,0,0.57197508392,4.01738858,29,5,6.771,661.33553330184,2.952756,1.2079476,0.79793965808,0,0,-0.223694,249.1, 1.8, -0.5,0,0,1024,1024,1024,1024,0,0,0,0,278.9,-4.4,0,29,3.39,3.381,0,0,0,0,5.735,65.48,661.33553330184,2.952756,6,P-GPS,
9300,2026-04-08 12:15:30,39.8653765783205,-76.1564826043311,2.952756,,,661.33553330184,6.56168,0,0.56851707856,4.022637924,29,5,6.771,661.33553330184,2.952756,1.2079476,0.79793965808,0,0,-0.223694,249.1, 1.6, -0.2,0,0,1024,1024,1024,1024,0,0,0,0,278.9,-4.4,0,29,3.375,3.365,0,0,0,0,5.735,65.48,661.33553330184,2.952756,6,P-GPS,
9400,2026-04-08 12:15:30,39.8653766312554,-76.1564825962428,2.952756,,,661.33553330184,6.56168,0,0.54961944016,4.0420604968,27,5,6.771,661.33553330184,2.952756,1.2079476,0.79793965808,0,0,-0.223694,249.1, 1, -0.2,0,0,1024,1024,1024,1024,0,0,0,0,278.9,-4.4,0,29,3.375,3.365,0,0,0,0,5.735,65.48,661.33553330184,2.952756,6,P-GPS,
9500,2026-04-08 12:15:30,39.8653766656552,-76.1564825622905,2.952756,,,661.33553330184,6.889764,0,0.5345472612,4.0578085288,27,5,6.771,661.33553330184,2.952756,1.2079476,0.79793965808,0,0,-0.223694,249.1, 0.6, -0.3,0,0,1024,1024,1024,1024,0,0,0,0,278.9,-4.4,0,29,3.375,3.365,0,0,0,0,5.735,65.48,661.33553330184,2.952756,6,P-GPS,
9600,2026-04-08 12:15:30,39.8653766600966,-76.1564824110705,2.952756,,,661.33553330184,6.889764,0,0.52347770704,4.1001969816,30,5,6.771,661.33553330184,2.952756,1.2079476,0.79793965808,0,0,-0.223694,249, 0.4, -0.3,0,0,1024,1024,1024,1024,0,0,0,0,278.9,-4.4,0,29,3.375,3.365,0,0,0,0,5.735,65.48,661.33553330184,2.952756,6,P-GPS,
9700,2026-04-08 12:15:30,39.8653767156146,-76.1564823341992,2.952756,,,661.33553330184,6.889764,0,0.49839896608,4.12975735,30,5,6.771,661.33553330184,2.952756,1.2079476,0.79793965808,0,0,-0.223694,249, 0.5, -0.1,0,0,1024,1024,1024,1024,0,0,0,0,278.9,-4.4,0,29,3.375,3.365,0,0,0,0,5.735,65.48,661.33553330184,2.952756,6,P-GPS,
9800,2026-04-08 12:15:30,39.8653767934214,-76.1564822546189,2.952756,,,661.33553330184,6.889764,0,0.46572836136,4.16584659,29,5,6.771,661.33553330184,2.952756,1.2079476,0.79793965808,0,0,-0.223694,249, 0.3, -0.4,0,0,1024,1024,1024,1024,0,0,0,0,278.9,-4.4,0,29,3.375,3.365,0,0,0,0,5.735,65.48,661.33553330184,2.952756,6,P-GPS,
9900,2026-04-08 12:15:30,39.8653768357886,-76.1564822083314,2.952756,,,661.33553330184,6.889764,0,0.447998702,4.186023756,29,5,6.771,661.33553330184,2.952756,1.2079476,0.79793965808,0,0,-0.223694,248.9, 0.1, -0.5,0,0,1024,1024,1024,1024,0,0,0,0,278.9,-4.4,0,29,3.375,3.365,0,0,0,0,5.735,65.48,661.33553330184,2.952756,6,P-GPS,
10000,2026-04-08 12:15:30,39.8653767542848,-76.1564822316216,2.952756,,,661.33553330184,6.889764,0,0.47843505468,4.2164699512,29,5,6.771,661.33553330184,2.952756,1.2079476,0.79793965808,0,0,0,248.9, 0.1, -0.1,0,0,1024,1024,1024,1024,0,0,0,0,278.9,-4.4,0,29,3.375,3.365,0,0,0,0,5.735,65.48,661.33553330184,2.952756,6,P-GPS,
10100,2026-04-08 12:15:31,39.8653767614388,-76.1564822339563,2.952756,,,661.33553330184,6.889764,0,0.47599739056,4.21916024,29,5,6.771,661.33553330184,2.952756,1.2079476,0.79793965808,0,0,0,249, 0.4, 0,0,0,1024,1024,1024,1024,0,0,0,0,278.9,-4.4,0,29,3.375,3.365,0,0,0,0,5.735,65.48,661.33553330184,2.952756,6,P-GPS,
10200,2026-04-08 12:15:31,39.8653766789644,-76.1564823386572,2.952756,,,661.33553330184,6.889764,0,0.51168308724,4.2611878004,29,5,6.771,661.33553330184,2.952756,1.2079476,0.79793965808,0,0,0,248.9, 0.7, -0.3,0,0,1024,1024,1024,1024,0,0,0,0,278.9,-4.4,0,29,3.375,3.365,0,0,0,0,5.735,65.48,661.33553330184,2.952756,6,P-GPS,
10300,2026-04-08 12:15:31,39.8653766450198,-76.1564823940707,2.952756,,,661.33553330184,6.889764,0,0.5275262636,4.2810368824,29,5,6.716,661.33553330184,2.952756,1.2079476,0.79793965808,0,0,0,248.8, 0.9, -0.2,0,0,1024,1024,1024,1024,0,0,0,0,278.9,-4.4,0,28,3.373,3.36,0,0,0,0,6.708,65.66,661.33553330184,2.952756,6,P-GPS,
10400,2026-04-08 12:15:31,39.865376513636,-76.1564826117263,2.952756,,,661.33553330184,6.889764,0,0.59142390344,4.35859594,29,5,6.716,661.33553330184,2.952756,1.2079476,0.79793965808,0,0,0,248.7, 1.6, 0.1,0,0,1024,1024,1024,1024,0,0,0,0,278.9,-4.4,0,28,3.373,3.36,0,0,0,0,6.708,65.66,661.33553330184,2.952756,6,P-GPS,
10500,2026-04-08 12:15:31,39.8653764666195,-76.1564826757534,2.952756,,,661.33553330184,6.889764,0,0.613681122,4.3833990904,29,5,6.716,661.33553330184,2.952756,1.2079476,0.79793965808,0,0,0,248.7, 2.1, 0.5,0,0,1024,1024,1024,1024,0,0,0,0,278.9,-4.4,0,28,3.373,3.36,0,0,0,0,6.708,65.66,661.33553330184,2.952756,6,P-GPS,
10600,2026-04-08 12:15:31,39.8653765071841,-76.1564827904717,2.952756,,,661.33553330184,6.889764,0,0.61210959964,4.4187665456,30,5,6.716,661.33553330184,2.952756,1.2079476,0.79793965808,0,0,0,248.8, 2, 0,0,0,1024,1024,1024,1024,0,0,0,0,278.9,-4.4,0,28,3.373,3.36,0,0,0,0,6.708,65.66,661.33553330184,2.952756,6,P-GPS,
10700,2026-04-08 12:15:31,39.8653764830706,-76.1564827790974,2.952756,,,661.33553330184,6.889764,0,0.61890421928,4.4281169396,30,5,6.716,661.33553330184,2.952756,1.2079476,0.79793965808,0,0,0,248.7, 1, 0,0,0,1024,1024,1024,1024,0,0,0,0,278.9,-4.4,0,28,3.373,3.36,0,0,0,0,6.708,65.66,661.33553330184,2.952756,6,P-GPS,
10800,2026-04-08 12:15:31,39.8653764506091,-76.1564826668089,2.952756,,,661.33553330184,6.889764,0,0.61828742136,4.4617127412,30,5,6.716,661.33553330184,2.952756,1.2079476,0.79793965808,0,0,0,248.7, 0.6, 0.8,0,0,1024,1024,1024,1024,0,0,0,0,278.9,-4.4,0,28,3.373,3.36,0,0,0,0,6.708,65.66,661.33553330184,2.952756,6,P-GPS,
10900,2026-04-08 12:15:31,39.865376454552,-76.1564826370078,2.952756,,,661.33553330184,6.889764,0,0.6141076312,4.4701773084,30,5,6.716,661.33553330184,2.952756,1.2079476,0.79793965808,0,0,0,248.8, 1, 0.6,0,0,1024,1024,1024,1024,0,0,0,0,278.9,-4.4,0,28,3.373,3.36,0,0,0,0,6.708,65.66,661.33553330184,2.952756,6,P-GPS,
11000,2026-04-08 12:15:31,39.8653766064048,-76.1564825191521,2.952756,,,661.33553330184,6.889764,0,0.55102035884,4.5346786228,30,5,6.716,661.33553330184,2.952756,1.2079476,0.79793965808,0,0,0,248.8, 0.8, -0.2,0,0,1024,1024,1024,1024,0,0,0,0,278.9,-4.4,0,28,3.373,3.36,0,0,0,0,6.708,65.66,661.33553330184,2.952756,6,P-GPS,
11100,2026-04-08 12:15:32,39.865376609535,-76.1564824590901,2.952756,,,661.33553330184,6.889764,0,0.54492783896,4.5515421404,30,5,6.716,661.33553330184,2.952756,1.2079476,0.79793965808,0,0,0,248.8, 0.4, -0.2,0,0,1024,1024,1024,1024,0,0,0,0,278.9,-4.4,0,28,3.373,3.36,0,0,0,0,6.708,65.66,661.33553330184,2.952756,6,P-GPS,
11200,2026-04-08 12:15:32,39.8653764961038,-76.1564825932396,2.952756,,,661.33553330184,6.889764,0,0.5957677356,4.607447654,31,5,6.733,661.33553330184,2.952756,1.2079476,0.79793965808,0,0,0,248.7, 0.4, 0.4,0,0,1024,1024,1024,1024,0,0,0,0,278.9,-4.4,0,28,3.367,3.357,0,0,0,0,6.156,65.66,661.33553330184,2.952756,6,P-GPS,
11300,2026-04-08 12:15:32,39.8653765204175,-76.1564825483137,2.952756,,,661.33553330184,6.889764,0,0.58337928376,4.6228347936,31,5,6.733,661.33553330184,2.952756,1.2079476,0.79793965808,0,0,0,248.7, 0.5, 0.8,0,0,1024,1024,1024,1024,0,0,0,0,278.9,-4.4,0,28,3.367,3.357,0,0,0,0,6.156,65.66,661.33553330184,2.952756,6,P-GPS,
11400,2026-04-08 12:15:32,39.8653765656813,-76.1564827966945,2.952756,,,661.33553330184,6.889764,0,0.59338256492,4.6943242972,31,5,6.733,661.33553330184,2.952756,1.2079476,0.79793965808,0,0,0,248.7, 0.6, 0,0,0,1024,1024,1024,1024,0,0,0,0,278.9,-4.4,0,28,3.367,3.357,0,0,0,0,6.156,65.66,661.33553330184,2.952756,6,P-GPS,
11500,2026-04-08 12:15:32,39.8653766018779,-76.1564827538751,2.952756,,,661.33553330184,6.889764,0,0.57638453288,4.7121720668,31,5,6.733,661.33553330184,2.952756,1.2079476,0.79793965808,0,0,0,248.6, 0.5, -0.5,0,0,1024,1024,1024,1024,0,0,0,0,278.9,-4.4,0,28,3.367,3.357,0,0,0,0,6.156,65.66,661.33553330184,2.952756,6,P-GPS,
11600,2026-04-08 12:15:32,39.8653764340915,-76.1564829451009,2.952756,,,661.33553330184,6.889764,0,0.6546424094,4.7935040904,31,5,6.733,661.33553330184,2.952756,1.2079476,0.79793965808,0,0,0,248.6, 0.4, -0.2,0,0,1024,1024,1024,1024,0,0,0,0,278.9,-4.4,0,28,3.367,3.357,0,0,0,0,6.156,65.66,661.33553330184,2.952756,6,P-GPS,
11700,2026-04-08 12:15:32,39.8653764364556,-76.156482959743,2.952756,,,661.33553330184,6.889764,0,0.65570212072,4.7976707572,31,5,6.733,661.33553330184,2.952756,1.2079476,0.79793965808,0,0,0,248.8, 1, 0.2,0,0,1024,1024,1024,1024,0,0,0,0,278.9,-4.4,0,28,3.367,3.357,0,0,0,0,6.156,65.66,661.33553330184,2.952756,6,P-GPS,
11800,2026-04-08 12:15:32,39.8653763994372,-76.1564831308946,2.952756,,,661.33553330184,6.889764,0,0.69029529768,4.8474739084,31,5,6.733,661.33553330184,2.952756,1.2079476,0.79793965808,0,0,0,248.8, 1.4, 0.2,0,0,1024,1024,1024,1024,0,0,0,0,278.9,-4.4,0,28,3.367,3.357,0,0,0,0,6.156,65.66,661.33553330184,2.952756,6,P-GPS,
11900,2026-04-08 12:15:32,39.8653764079365,-76.1564831525906,2.952756,,,661.33553330184,6.889764,0,0.69065619008,4.8542980556,31,5,6.733,661.33553330184,2.952756,1.2079476,0.79793965808,0,0,0,248.7, 1.2, 0.1,0,0,1024,1024,1024,1024,0,0,0,0,278.9,-4.4,0,28,3.367,3.357,0,0,0,0,6.156,65.66,661.33553330184,2.952756,6,P-GPS,
12000,2026-04-08 12:15:32,39.8653764192154,-76.1564832223661,2.952756,,,661.33553330184,6.889764,0,0.69723099344,4.8742783712,31,5,6.733,661.33553330184,2.952756,1.2079476,0.79793965808,0,0,0,248.7, 0.9, 0.3,0,0,1024,1024,1024,1024,0,0,0,0,278.9,-4.4,0,28,3.367,3.357,0,0,0,0,6.156,65.66,661.33553330184,2.952756,6,P-GPS,
12100,2026-04-08 12:15:32,39.8653764394295,-76.1564832295189,2.952756,,,661.33553330184,6.889764,0,0.69205054708,4.8819227284,31,5,6.733,661.33553330184,2.952756,1.2079476,0.79793965808,0,0,0,248.7, 0.8, 0,0,0,1024,1024,1024,1024,0,0,0,0,278.9,-4.4,0,28,3.367,3.357,0,0,0,0,6.156,65.66,661.33553330184,2.952756,6,P-GPS,
12200,2026-04-08 12:15:33,39.865376435732,-76.1564833107502,2.952756,,,661.33553330184,6.889764,0,0.70560697796,4.904691758,31,5,6.733,661.33553330184,2.952756,1.2079476,0.79793965808,0,0,0,248.7, 0.8, -0.4,0,0,1024,1024,1024,1024,0,0,0,0,278.9,-4.4,0,28,3.367,3.357,0,0,0,0,6.156,65.66,661.33553330184,2.952756,6,P-GPS,
12300,2026-04-08 12:15:33,39.865376467917,-76.1564833102466,2.952756,,,661.33553330184,6.889764,0,0.69580710888,4.9164371652,31,5,6.713,661.33553330184,2.952756,1.2079476,0.79793965808,0,0,0,248.7, 0.7, -0.5,0,0,1024,1024,1024,1024,0,0,0,0,278.9,-4.4,0,28,3.364,3.353,0,0,0,0,6.568,65.84,661.33553330184,2.952756,6,P-GPS,
12400,2026-04-08 12:15:33,39.8653765569791,-76.1564831002485,2.952756,,,661.33553330184,6.889764,0,0.63649280252,4.9836287684,31,5,6.713,661.33553330184,2.952756,1.2079476,0.79793965808,0,0,0,248.7, 0.4, -0.6,0,0,1024,1024,1024,1024,0,0,0,0,278.9,-4.4,0,28,3.364,3.353,0,0,0,0,6.568,65.84,661.33553330184,2.952756,6,P-GPS,
12500,2026-04-08 12:15:33,39.865376581769,-76.1564831090014,2.952756,,,661.33553330184,6.889764,0,0.6301181304,4.9930119708,31,5,6.713,661.33553330184,2.952756,1.2079476,0.79793965808,0,0,0,248.6, 0.5, -0.8,0,0,1024,1024,1024,1024,0,0,0,0,278.9,-4.4,0,28,3.364,3.353,0,0,0,0,6.568,65.84,661.33553330184,2.952756,6,P-GPS,
12600,2026-04-08 12:15:33,39.8653765273376,-76.1564830096358,2.952756,,,661.33553330184,6.889764,0,0.63296261868,5.0271983236,31,5,6.713,661.33553330184,2.952756,1.2079476,0.79793965808,0,0,0,248.6, 0.8, -0.4,0,0,1024,1024,1024,1024,0,0,0,0,278.9,-4.4,0,28,3.364,3.353,0,0,0,0,6.568,65.84,661.33553330184,2.952756,6,P-GPS,
12700,2026-04-08 12:15:33,39.8653765338195,-76.1564830116532,2.952756,,,661.33553330184,6.889764,0,0.63117456088,5.0296261452,31,5,6.713,661.33553330184,2.952756,1.2079476,0.79793965808,0,0,0,248.7, 1, 0,0,0,1024,1024,1024,1024,0,0,0,0,278.9,-4.4,0,28,3.364,3.353,0,0,0,0,6.568,65.84,661.33553330184,2.952756,6,P-GPS,
12800,2026-04-08 12:15:33,39.8653766042936,-76.1564828980008,2.952756,,,661.33553330184,6.889764,0,0.5933563182,5.07053822,31,5,6.713,661.33553330184,2.952756,1.2079476,0.79793965808,0,0,0,248.8, 1, -0.2,0,0,1024,1024,1024,1024,0,0,0,0,278.9,-4.4,0,28,3.364,3.353,0,0,0,0,6.568,65.84,661.33553330184,2.952756,6,P-GPS,
12900,2026-04-08 12:15:33,39.8653766012939,-76.1564828964808,2.952756,,,661.33553330184,6.889764,0,0.59412403476,5.0717193224,31,5,6.713,661.33553330184,2.952756,1.2079476,0.79793965808,0,0,0,248.6, 0.8, -0.5,0,0,1024,1024,1024,1024,0,0,0,0,278.9,-4.4,0,28,3.364,3.353,0,0,0,0,6.568,65.84,661.33553330184,2.952756,6,P-GPS,
13000,2026-04-08 12:15:33,39.8653765793083,-76.1564830015788,2.952756,,,661.33553330184,6.889764,0,0.61535106956,5.102198326,31,5,6.713,661.33553330184,2.952756,1.2079476,0.79793965808,0,0,0,248.7, 0.8, 0,0,0,1024,1024,1024,1024,0,0,0,0,278.9,-4.4,0,28,3.364,3.353,0,0,0,0,6.568,65.84,661.33553330184,2.952756,6,P-GPS,
13100,2026-04-08 12:15:33,39.8653765685721,-76.1564830246123,2.952756,,,661.33553330184,6.889764,0,0.62197180468,5.109744258,31,5,6.713,661.33553330184,2.952756,1.2079476,0.79793965808,0,0,0,248.7, 1.1, 0,0,0,1024,1024,1024,1024,0,0,0,0,278.9,-4.4,0,28,3.364,3.353,0,0,0,0,6.568,65.84,661.33553330184,2.952756,6,P-GPS,
13200,2026-04-08 12:15:34,39.8653765761733,-76.1564830418716,2.952756,,,661.33553330184,6.889764,0,0.62203414064,5.115321686,31,5,6.713,661.33553330184,2.952756,1.2079476,0.79793965808,0,0,0,248.8, 1.3, 0,0,0,1024,1024,1024,1024,0,0,0,0,278.9,-4.4,0,28,3.364,3.353,0,0,0,0,6.568,65.84,661.33553330184,2.952756,6,P-GPS,
13300,2026-04-08 12:15:34,39.8653765727597,-76.1564830466524,2.952756,,,661.33553330184,6.889764,0,0.62378939004,5.1171589564,31,5,6.716,661.33553330184,2.952756,1.2079476,0.79793965808,0,0,0,248.7, 1.4, -0.3,0,0,1024,1024,1024,1024,0,0,0,0,278.9,-4.4,0,28,3.364,3.353,0,0,0,0,6.385,65.84,661.33553330184,2.952756,6,P-GPS,
13400,2026-04-08 12:15:34,39.865376481013,-76.1564831075259,2.952756,,,661.33553330184,6.889764,0,0.66127626788,5.1547245744,31,5,6.716,661.33553330184,2.952756,1.2079476,0.79793965808,0,0,0,248.7, 1.2, -0.4,0,0,1024,1024,1024,1024,0,0,0,0,278.9,-4.4,0,28,3.364,3.353,0,0,0,0,6.385,65.84,661.33553330184,2.952756,6,P-GPS,
13500,2026-04-08 12:15:34,39.8653764716392,-76.1564831103465,2.952756,,,661.33553330184,6.889764,0,0.66462272468,5.1582350732,31,5,6.716,661.33553330184,2.952756,1.2079476,0.79793965808,0,0,0,248.8, 1.1, -0.3,0,0,1024,1024,1024,1024,0,0,0,0,278.9,-4.4,0,28,3.364,3.353,0,0,0,0,6.385,65.84,661.33553330184,2.952756,6,P-GPS,
13600,2026-04-08 12:15:34,39.8653764793274,-76.1564831809301,2.952756,,,661.33553330184,6.889764,0,0.67248361732,5.1782153888,31,5,6.716,661.33553330184,2.952756,1.2079476,0.79793965808,0,0,0,248.8, 1.1, -0.2,0,0,1024,1024,1024,1024,0,0,0,0,278.9,-4.4,0,28,3.364,3.353,0,0,0,0,6.385,65.84,661.33553330184,2.952756,6,P-GPS,
13700,2026-04-08 12:15:34,39.8653764793103,-76.1564831405941,2.952756,,,661.33553330184,6.889764,0,0.66656170112,5.1895014784,31,5,6.716,661.33553330184,2.952756,1.2079476,0.79793965808,0,0,0,248.7, 0.9, -0.1,0,0,1024,1024,1024,1024,0,0,0,0,278.9,-4.4,0,28,3.364,3.353,0,0,0,0,6.385,65.84,661.33553330184,2.952756,6,P-GPS,
13800,2026-04-08 12:15:34,39.8653763801174,-76.1564832301459,2.952756,,,661.33553330184,6.889764,0,0.7105151146,5.2335303512,31,5,6.716,661.33553330184,2.952756,1.2079476,0.79793965808,0,0,0,248.6, 0.7, 0,0,0,1024,1024,1024,1024,0,0,0,0,278.9,-4.4,0,28,3.364,3.353,0,0,0,0,6.385,65.84,661.33553330184,2.952756,6,P-GPS,
13900,2026-04-08 12:15:34,39.865376356472,-76.1564832267735,2.952756,,,661.33553330184,6.889764,0,0.7174048786,5.2421917688,31,5,6.716,661.33553330184,2.952756,1.2079476,0.79793965808,0,0,0,248.7, 1, 0,0,0,1024,1024,1024,1024,0,0,0,0,278.9,-4.4,0,28,3.364,3.353,0,0,0,0,6.385,65.84,661.33553330184,2.952756,6,P-GPS,
14000,2026-04-08 12:15:34,39.865376341451,-76.1564834020511,2.952756,,,661.33553330184,6.889764,0,0.74842193996,5.2916012192,31,5,6.716,661.33553330184,2.952756,1.2079476,0.79793965808,0,0,0,248.6, 1.3, 0.6,0,0,1024,1024,1024,1024,0,0,0,0,278.9,-4.4,0,28,3.364,3.353,0,0,0,0,6.385,65.84,661.33553330184,2.952756,6,P-GPS,
14100,2026-04-08 12:15:34,39.8653763230819,-76.1564834032221,2.952756,,,661.33553330184,6.889764,0,0.7541666908,5.2982941328,31,5,6.716,661.33553330184,2.952756,1.2079476,0.79793965808,0,0,0,248.6, 1.2, 0.7,0,0,1024,1024,1024,1024,0,0,0,0,278.9,-4.4,0,28,3.364,3.353,0,0,0,0,6.385,65.84,661.33553330184,2.952756,6,P-GPS,
14200,2026-04-08 12:15:35,39.865376301713,-76.1564834906519,2.952756,,,661.33553330184,6.889764,0,0.77441931612,5.32398311,31,5,6.716,661.33553330184,2.952756,1.2079476,0.79793965808,0,0,0,248.6, 0.8, 0.8,0,0,1024,1024,1024,1024,0,0,0,0,278.9,-4.4,0,28,3.364,3.353,0,0,0,0,6.385,65.84,661.33553330184,2.952756,6,P-GPS,
14300,2026-04-08 12:15:35,39.8653763411106,-76.1564834907871,2.952756,,,661.33553330184,6.889764,0,0.76270343648,5.3383859976,31,5,6.707,661.33553330184,2.952756,1.2079476,0.79793965808,0,0,0,248.8, 1.1, -0.8,0,0,1024,1024,1024,1024,0,0,0,0,278.9,-4.4,0,28,3.363,3.353,0,0,0,0,6.458,66.02,661.33553330184,2.952756,6,P-GPS,
14400,2026-04-08 12:15:35,39.8653764467967,-76.1564835978579,2.952756,,,661.33553330184,6.889764,0,0.75023624448,5.3872048968,31,5,6.707,661.33553330184,2.952756,1.2079476,0.79793965808,0,0,0,248.7, 1.4, -1.4,0,0,1024,1024,1024,1024,0,0,0,0,278.9,-4.4,0,28,3.363,3.353,0,0,0,0,6.458,66.02,661.33553330184,2.952756,6,P-GPS,
14500,2026-04-08 12:15:35,39.8653764550845,-76.1564835847539,2.952756,,,661.33553330184,6.889764,0,0.74557417084,5.3919621148,31,5,6.707,661.33553330184,2.952756,1.2079476,0.79793965808,0,0,0,248.6, 1.2, -0.3,0,0,1024,1024,1024,1024,0,0,0,0,278.9,-4.4,0,28,3.363,3.353,0,0,0,0,6.458,66.02,661.33553330184,2.952756,6,P-GPS,
14600,2026-04-08 12:15:35,39.8653763232381,-76.1564835664566,2.952756,,,661.33553330184,6.889764,0,0.7804462192,5.4403545048,31,5,6.707,661.33553330184,2.952756,1.2079476,0.79793965808,0,0,0,248.8, 0.7, 0,0,0,1024,1024,1024,1024,0,0,0,0,278.9,-4.4,0,28,3.363,3.353,0,0,0,0,6.458,66.02,661.33553330184,2.952756,6,P-GPS,
14700,2026-04-08 12:15:35,39.8653763450648,-76.1564835342731,2.952756,,,661.33553330184,6.889764,0,0.76868768864,5.4523623792,31,5,6.707,661.33553330184,2.952756,1.2079476,0.79793965808,0,0,0,248.9, 0.6, -0.6,0,0,1024,1024,1024,1024,0,0,0,0,278.9,-4.4,0,28,3.363,3.353,0,0,0,0,6.458,66.02,661.33553330184,2.952756,6,P-GPS,
14800,2026-04-08 12:15:35,39.865376313634,-76.1564836302831,2.952756,,,661.33553330184,6.889764,0,0.79399936924,5.4815946636,31,5,6.707,661.33553330184,2.952756,1.2079476,0.79793965808,0,0,0,248.8, 0.6, -0.6,0,0,1024,1024,1024,1024,0,0,0,0,278.9,-4.4,0,28,3.363,3.353,0,0,0,0,6.458,66.02,661.33553330184,2.952756,6,P-GPS,
14900,2026-04-08 12:15:35,39.8653762948065,-76.1564836081294,2.952756,,,661.33553330184,6.889764,0,0.7957349336,5.4908466324,31,5,6.707,661.33553330184,2.952756,1.2079476,0.79793965808,0,0,0,248.7, 0.6, 0.1,0,0,1024,1024,1024,1024,0,0,0,0,278.9,-4.4,0,28,3.363,3.353,0,0,0,0,6.458,66.02,661.33553330184,2.952756,6,P-GPS,
15000,2026-04-08 12:15:35,39.8653761603505,-76.1564837733403,2.952756,,,661.33553330184,6.889764,0,0.8627624948,5.5583007028,31,5,6.707,661.33553330184,2.952756,1.2079476,0.8627624948,0,0,0,248.8, 0.5, 0.5,0,0,1024,1024,1024,1024,0,0,0,0,278.9,-4.4,0,28,3.363,3.353,0,0,0,0,6.458,66.02,661.33553330184,2.952756,6,P-GPS,
15100,2026-04-08 12:15:35,39.8653761591003,-76.1564837672087,2.952756,,,661.33553330184,6.889764,0,0.86208664176,5.5600723564,31,5,6.707,661.33553330184,2.952756,1.2079476,0.8627624948,0,0,0,248.8, 0.6, 0.1,0,0,1024,1024,1024,1024,0,0,0,0,278.9,-4.4,0,28,3.363,3.353,0,0,0,0,6.458,66.02,661.33553330184,2.952756,6,P-GPS,
15200,2026-04-08 12:15:36,39.8653761752996,-76.1564838886248,2.952756,,,661.33553330184,6.56168,0,0.8784613142,5.5945867932,32,5,6.707,661.33553330184,2.952756,1.2079476,0.8784613142,0,0,0,248.8, 0.8, -0.1,0,0,1024,1024,1024,1024,0,0,0,0,278.9,-4.4,0,28,3.363,3.353,0,0,0,0,6.458,66.02,661.33553330184,2.952756,6,P-GPS,
15300,2026-04-08 12:15:36,39.8653761563481,-76.1564838883991,2.952756,,,661.33553330184,6.889764,0,0.8837926792,5.6015093656,32,5,6.707,661.33553330184,2.952756,1.2079476,0.8837926792,0,0,0,248.8, 0.9, -0.3,0,0,1024,1024,1024,1024,0,0,0,0,278.9,-4.4,0,28,3.358,3.348,0,0,0,0,6.458,66.02,661.33553330184,2.952756,6,P-GPS,
15400,2026-04-08 12:15:36,39.8653761693367,-76.1564839979074,2.952756,,,661.33553330184,6.889764,0,0.89976052748,5.6325133036,32,5,6.707,661.33553330184,2.952756,1.2079476,0.89976052748,0,0,0,248.7, 0.8, 0,0,0,1024,1024,1024,1024,0,0,0,0,278.9,-4.4,0,28,3.358,3.348,0,0,0,0,6.458,66.02,661.33553330184,2.952756,6,P-GPS,
15500,2026-04-08 12:15:36,39.8653761858973,-76.1564839729345,2.952756,,,661.33553330184,6.889764,0,0.89062010724,5.6417652724,32,5,6.707,661.33553330184,2.952756,1.2079476,0.89976052748,0,0,0,248.7, 0.4, 0.1,0,0,1024,1024,1024,1024,0,0,0,0,278.9,-4.4,0,28,3.358,3.348,0,0,0,0,6.458,66.02,661.33553330184,2.952756,6,P-GPS,
15600,2026-04-08 12:15:36,39.8653761230562,-76.156484044779,2.952756,,,661.33553330184,6.889764,0,0.92112207672,5.6722770844,32,5,6.707,661.33553330184,2.952756,1.2079476,0.92112207672,0,0,0,248.7, 0, 0.1,0,0,1024,1024,1024,1024,0,0,0,0,278.9,-4.4,0,28,3.358,3.348,0,0,0,0,6.458,66.02,661.33553330184,2.952756,6,P-GPS,
15700,2026-04-08 12:15:36,39.8653761268922,-76.1564840299752,2.952756,,,661.33553330184,6.889764,0,0.91736551492,5.6766406016,32,5,6.707,661.33553330184,2.952756,1.2079476,0.92112207672,0,0,0,248.5, 0.3, 0.1,0,0,1024,1024,1024,1024,0,0,0,0,278.9,-4.4,0,28,3.358,3.348,0,0,0,0,6.458,66.02,661.33553330184,2.952756,6,P-GPS,
15800,2026-04-08 12:15:36,39.8653761021958,-76.1564838707859,2.952756,,,661.33553330184,6.889764,0,0.89622050112,5.7221458524,32,5,6.707,661.33553330184,2.952756,1.2079476,0.92112207672,0,0,0,248.5, 0.5, 0.1,0,0,1024,1024,1024,1024,0,0,0,0,278.9,-4.4,0,28,3.358,3.348,0,0,0,0,6.458,66.02,661.33553330184,2.952756,6,P-GPS,
15900,2026-04-08 12:15:36,39.8653761145166,-76.1564838718733,2.952756,,,661.33553330184,6.889764,0,0.89286092096,5.7266406032,32,5,6.707,661.33553330184,2.952756,1.2079476,0.92112207672,0,0,0,248.6, 0.6, -0.2,0,0,1024,1024,1024,1024,0,0,0,0,278.9,-4.4,0,28,3.358,3.348,0,0,0,0,6.458,66.02,661.33553330184,2.952756,6,P-GPS,
16000,2026-04-08 12:15:36,39.8653760215937,-76.1564840968361,2.952756,,,661.33553330184,6.889764,0,0.95881892832,5.7981629152,32,5,6.707,661.33553330184,2.952756,1.2079476,0.95881892832,0,0,0,248.7, 0.8, -0.2,0,0,1024,1024,1024,1024,0,0,0,0,278.9,-4.4,0,28,3.358,3.348,0,0,0,0,6.458,66.02,661.33553330184,2.952756,6,P-GPS,
16100,2026-04-08 12:15:36,39.8653760460594,-76.1564840816646,2.952756,,,661.33553330184,6.889764,0,0.94924215636,5.808071052,32,5,6.707,661.33553330184,2.952756,1.2079476,0.95881892832,0,0,0,248.8, 0.5, 0,0,0,1024,1024,1024,1024,0,0,0,0,278.9,-4.4,0,28,3.358,3.348,0,0,0,0,6.458,66.02,661.33553330184,2.952756,6,P-GPS,
16200,2026-04-08 12:15:37,39.865376037333,-76.1564841659276,2.952756,,,661.33553330184,6.889764,0,0.96695869236,5.8318899504,32,5,6.707,661.33553330184,2.952756,1.2079476,0.96695869236,0,0,0,248.9, 0.2, -0.3,0,0,1024,1024,1024,1024,0,0,0,0,278.9,-4.4,0,28,3.358,3.348,0,0,0,0,6.458,66.02,661.33553330184,2.952756,6,P-GPS,
16300,2026-04-08 12:15:37,39.8653760571284,-76.1564841380902,2.952756,,,661.33553330184,6.889764,0,0.95639438756,5.8424870636,32,5,6.708,661.33553330184,2.952756,1.2079476,0.96695869236,0,0,0,248.9, 0.2, -0.9,0,0,1024,1024,1024,1024,0,0,0,0,278.9,-4.4,0,28,3.357,3.347,0,0,0,0,6.266,66.02,661.33553330184,2.952756,6,P-GPS,
16400,2026-04-08 12:15:37,39.8653759196385,-76.1564841355051,2.952756,,,661.33553330184,6.889764,0,0.99445869324,5.8926839156,32,5,6.708,661.33553330184,2.952756,1.2079476,0.99445869324,0,0,0,248.8, 0.1, -0.3,0,0,1024,1024,1024,1024,0,0,0,0,278.9,-4.4,0,28,3.357,3.347,0,0,0,0,6.266,66.02,661.33553330184,2.952756,6,P-GPS,
16500,2026-04-08 12:15:37,39.8653759226156,-76.1564841050715,2.952756,,,661.33553330184,6.889764,0,0.98828087152,5.901246908,32,5,6.708,661.33553330184,2.952756,1.2079476,0.99445869324,0,0,0,248.7, -0.2, 0.6,0,0,1024,1024,1024,1024,0,0,0,0,278.9,-4.4,0,28,3.357,3.347,0,0,0,0,6.266,66.02,661.33553330184,2.952756,6,P-GPS,
16600,2026-04-08 12:15:37,39.8653760037362,-76.156484253852,2.952756,,,661.33553330184,6.889764,0,0.99239504488,5.9523623952,32,5,6.708,661.33553330184,2.952756,1.2079476,0.99445869324,0,0,0,248.7, -0.2, 0.7,0,0,1024,1024,1024,1024,0,0,0,0,278.9,-4.4,0,28,3.357,3.347,0,0,0,0,6.266,66.02,661.33553330184,2.952756,6,P-GPS,
16700,2026-04-08 12:15:37,39.8653760209195,-76.1564842550501,2.952756,,,661.33553330184,6.889764,0,0.98792982164,5.958661608,32,5,6.708,661.33553330184,2.952756,1.2079476,0.99445869324,0,0,0,248.8, -0.2, 0.1,0,0,1024,1024,1024,1024,0,0,0,0,278.9,-4.4,0,28,3.357,3.347,0,0,0,0,6.266,66.02,661.33553330184,2.952756,6,P-GPS,
16800,2026-04-08 12:15:37,39.865376026264,-76.1564843152967,2.952756,,,661.33553330184,6.889764,0,0.99779858836,5.9756235508,32,5,6.708,661.33553330184,2.952756,1.2079476,0.99779858836,0,0,0,249, -0.2, -1.9,0,0,1024,1024,1024,1024,0,0,0,0,278.9,-4.4,0,28,3.357,3.347,0,0,0,0,6.266,66.02,661.33553330184,2.952756,6,P-GPS,
16900,2026-04-08 12:15:37,39.8653760319907,-76.1564843551548,2.952756,,,661.33553330184,6.889764,0,1.00385173816,5.9869752572,32,5,6.708,661.33553330184,2.952756,1.2079476,1.00385173816,0,0,0,248.9, 0.2, -2.1,0,0,1024,1024,1024,1024,0,0,0,0,278.9,-4.4,0,28,3.357,3.347,0,0,0,0,6.266,66.02,661.33553330184,2.952756,6,P-GPS,
17000,2026-04-08 12:15:37,39.8653759846805,-76.1564845698621,2.952756,,,661.33553330184,6.889764,0,1.05801184488,6.049540876,32,5,6.708,661.33553330184,2.952756,1.2079476,1.05801184488,0,0,0,248.9, 0.7, -1.1,0,0,1024,1024,1024,1024,0,0,0,0,278.9,-4.4,0,28,3.357,3.347,0,0,0,0,6.266,66.02,661.33553330184,2.952756,6,P-GPS,
17100,2026-04-08 12:15:38,39.86537595081,-76.156484601473,2.952756,,,661.33553330184,6.889764,0.223694,1.07302168788,6.0647311652,32,5,6.708,661.33553330184,2.952756,1.2079476,1.07302168788,-0.223694,0,0,248.9, 1.2, -0.3,0,0,1024,1024,1024,1024,0,0,0,0,278.9,-4.4,0,28,3.357,3.347,0,0,0,0,6.266,66.02,661.33553330184,2.952756,6,P-GPS,
17200,2026-04-08 12:15:38,39.8653758302274,-76.1564846584705,2.952756,,,661.33553330184,6.889764,0,1.11569557376,6.111548752,32,5,6.708,661.33553330184,2.952756,1.2079476,1.11569557376,0,0,0,248.9, 1.5, 0,0,0,1024,1024,1024,1024,0,0,0,0,278.9,-4.4,0,28,3.357,3.347,0,0,0,0,6.266,66.02,661.33553330184,2.952756,6,P-GPS,
17300,2026-04-08 12:15:38,39.8653757967584,-76.1564846903635,2.952756,,,661.33553330184,6.889764,0,1.13069885508,6.1266734244,32,5,6.708,661.33553330184,2.952756,1.2079476,1.13069885508,0,0,0,248.8, 1.6, 0.1,0,0,1024,1024,1024,1024,0,0,0,0,278.9,-4.4,0,28,3.356,3.346,0,0,0,0,6.266,66.02,661.33553330184,2.952756,6,P-GPS,
17400,2026-04-08 12:15:38,39.8653758302585,-76.156484775994,2.952756,,,661.33553330184,6.889764,0.223694,1.13866801544,6.1535763124,32,5,6.708,661.33553330184,2.952756,1.2079476,1.13866801544,0,-0.223694,0,248.8, 1.7, -0.4,0,0,1024,1024,1024,1024,0,0,0,0,278.9,-4.4,0,28,3.356,3.346,0,0,0,0,6.266,66.02,661.33553330184,2.952756,6,P-GPS,
17500,2026-04-08 12:15:38,39.8653758046055,-76.1564848291205,2.952756,,,661.33553330184,6.889764,0.223694,1.15580384276,6.1711616148,32,5,6.708,661.33553330184,2.952756,1.2079476,1.15580384276,0,-0.223694,0,248.8, 1.9, -0.4,0,0,1024,1024,1024,1024,0,0,0,0,278.9,-4.4,0,28,3.356,3.346,0,0,0,0,6.266,66.02,661.33553330184,2.952756,6,P-GPS,
17600,2026-04-08 12:15:38,39.8653757351701,-76.1564848936784,2.952756,,,661.33553330184,6.889764,0,1.18650594348,6.2022967864,32,5,6.708,661.33553330184,2.952756,1.2079476,1.18650594348,0,0,0,248.9, 2.3, 0,0,0,1024,1024,1024,1024,0,0,0,0,278.9,-4.4,0,28,3.356,3.346,0,0,0,0,6.266,66.02,661.33553330184,2.952756,6,P-GPS,
17700,2026-04-08 12:15:38,39.8653756958756,-76.1564849255171,2.952756,,,661.33553330184,6.889764,0,1.20296591776,6.219160304,32,5,6.708,661.33553330184,2.952756,1.2079476,1.20296591776,0,0,0,248.9, 2.5, 0.3,0,0,1024,1024,1024,1024,0,0,0,0,278.9,-4.4,0,28,3.356,3.346,0,0,0,0,6.266,66.02,661.33553330184,2.952756,6,P-GPS,
17800,2026-04-08 12:15:38,39.8653757303807,-76.156484836965,2.952756,,,661.33553330184,6.889764,0,1.17661421088,6.2469818272,32,5,6.708,661.33553330184,2.952756,1.2079476,1.20296591776,0,0,0,248.9, 1.9, 0.3,0,0,1024,1024,1024,1024,0,0,0,0,278.9,-4.4,0,28,3.356,3.346,0,0,0,0,6.266,66.02,661.33553330184,2.952756,6,P-GPS,
17900,2026-04-08 12:15:38,39.8653757165321,-76.1564848389998,2.952756,,,661.33553330184,6.889764,0,1.18063980156,6.2520671292,32,5,6.708,661.33553330184,2.952756,1.2079476,1.20296591776,0,0,0,248.8, 1.5, 0,0,0,1024,1024,1024,1024,0,0,0,0,278.9,-4.4,0,28,3.356,3.346,0,0,0,0,6.266,66.02,661.33553330184,2.952756,6,P-GPS,
18000,2026-04-08 12:15:38,39.8653758667133,-76.1564848988431,2.952756,,,661.33553330184,6.889764,0,1.15401250412,6.3093505956,32,5,6.708,661.33553330184,2.952756,1.2079476,1.20296591776,0,0,0,248.8, 1.7, 0,0,0,1024,1024,1024,1024,0,0,0,0,278.9,-4.4,0,28,3.356,3.346,0,0,0,0,6.266,66.02,661.33553330184,2.952756,6,P-GPS,
18100,2026-04-08 12:15:39,39.8653758726815,-76.1564848830718,2.952756,,,661.33553330184,6.889764,0,1.1493110604,6.314304664,32,5,6.708,661.33553330184,2.952756,1.2079476,1.20296591776,0,0,0,248.9, 1.8, -0.1,0,0,1024,1024,1024,1024,0,0,0,0,278.9,-4.4,0,28,3.356,3.346,0,0,0,0,6.266,66.02,661.33553330184,2.952756,6,P-GPS,
18200,2026-04-08 12:15:39,39.8653758161296,-76.1564849558435,2.952756,,,661.33553330184,6.889764,0,1.17829400096,6.3432744812,32,5,6.708,661.33553330184,2.952756,1.2079476,1.20296591776,0,0,0,248.8, 1.5, -0.1,0,0,1024,1024,1024,1024,0,0,0,0,278.9,-4.4,0,28,3.356,3.346,0,0,0,0,6.266,66.02,661.33553330184,2.952756,6,P-GPS,
18300,2026-04-08 12:15:39,39.8653758377867,-76.1564849390217,2.952756,,,661.33553330184,6.889764,0,1.1694390138,6.3524936416,32,5,6.694,661.33553330184,2.952756,1.2079476,1.20296591776,0,0,0,248.9, 1.3, -0.1,0,0,1024,1024,1024,1024,0,0,0,0,278.9,-4.4,0,28,3.356,3.346,0,0,0,0,6.385,66.2,661.33553330184,2.952756,6,P-GPS,
18400,2026-04-08 12:15:39,39.8653758334965,-76.1564851751142,2.952756,,,661.33553330184,6.889764,0,1.21932746684,6.418635376,32,5,6.694,661.33553330184,2.952756,1.2079476,1.21932746684,0,0,0,248.9, 1.4, -0.4,0,0,1024,1024,1024,1024,0,0,0,0,278.9,-4.4,0,28,3.356,3.346,0,0,0,0,6.385,66.2,661.33553330184,2.952756,6,P-GPS,
18500,2026-04-08 12:15:39,39.8653758621761,-76.1564851608336,2.952756,,,661.33553330184,6.889764,0,1.20942261088,6.4298230404,32,5,6.694,661.33553330184,2.952756,1.2079476,1.21932746684,0,0,0,248.9, 1.5, -0.6,0,0,1024,1024,1024,1024,0,0,0,0,278.9,-4.4,0,28,3.356,3.346,0,0,0,0,6.385,66.2,661.33553330184,2.952756,6,P-GPS,
18600,2026-04-08 12:15:39,39.8653758439879,-76.1564851765207,2.952756,,,661.33553330184,6.889764,0,1.21709977648,6.4377954816,32,5,6.694,661.33553330184,2.952756,1.2079476,1.21932746684,0,0,0,248.8, 1.1, -0.6,0,0,1024,1024,1024,1024,0,0,0,0,278.9,-4.4,0,28,3.356,3.346,0,0,0,0,6.385,66.2,661.33553330184,2.952756,6,P-GPS,
18700,2026-04-08 12:15:39,39.8653758556335,-76.1564851777265,2.952756,,,661.33553330184,6.889764,0,1.21455712548,6.4420605736,32,5,6.694,661.33553330184,2.952756,1.2079476,1.21932746684,0,0,0,248.8, 1.2, -0.3,0,0,1024,1024,1024,1024,0,0,0,0,278.9,-4.4,0,28,3.356,3.346,0,0,0,0,6.385,66.2,661.33553330184,2.952756,6,P-GPS,
18800,2026-04-08 12:15:39,39.8653758098221,-76.1564854049282,2.952756,,,661.33553330184,6.889764,0,1.2738517468,6.5078414156,32,5,6.694,661.33553330184,2.952756,1.2079476,1.2738517468,0,0,0,248.8, 1.3, -0.1,0,0,1024,1024,1024,1024,0,0,0,0,278.9,-4.4,0,28,3.356,3.346,0,0,0,0,6.385,66.2,661.33553330184,2.952756,6,P-GPS,
18900,2026-04-08 12:15:39,39.8653758116505,-76.1564854127839,2.952756,,,661.33553330184,6.889764,0,1.27511815104,6.5101380036,32,5,6.694,661.33553330184,2.952756,1.2079476,1.27511815104,0,0,0,248.9, 1.2, -0.4,0,0,1024,1024,1024,1024,0,0,0,0,278.9,-4.4,0,28,3.356,3.346,0,0,0,0,6.385,66.2,661.33553330184,2.952756,6,P-GPS,
19000,2026-04-08 12:15:39,39.8653756850857,-76.1564854183826,2.952756,,,661.33553330184,6.889764,0,1.30624676096,6.5563322308,32,5,6.694,661.33553330184,2.952756,1.2079476,1.30624676096,0,0,0,248.9, 1.4, -0.5,0,0,1024,1024,1024,1024,0,0,0,0,278.9,-4.4,0,28,3.356,3.346,0,0,0,0,6.385,66.2,661.33553330184,2.952756,6,P-GPS,
19100,2026-04-08 12:15:39,39.8653756759567,-76.1564854329606,2.952756,,,661.33553330184,6.889764,0,1.31151250916,6.5616143832,32,5,6.694,661.33553330184,2.952756,1.2079476,1.31151250916,0,0,0,248.9, 1.7, -0.5,0,0,1024,1024,1024,1024,0,0,0,0,278.9,-4.4,0,28,3.356,3.346,0,0,0,0,6.385,66.2,661.33553330184,2.952756,6,P-GPS,
19200,2026-04-08 12:15:40,39.8653756599458,-76.1564855374491,2.952756,,,661.33553330184,6.889764,0,1.33747051524,6.5914372188,32,5,6.694,661.33553330184,2.952756,1.2079476,1.33747051524,0,0,0,248.9, 1.7, -0.3,0,0,1024,1024,1024,1024,0,0,0,0,278.9,-4.4,0,28,3.356,3.346,0,0,0,0,6.385,66.2,661.33553330184,2.952756,6,P-GPS,
19300,2026-04-08 12:15:40,39.8653756404252,-76.1564855510414,2.952756,,,661.33553330184,6.889764,0,1.3449967622,6.5995080852,32,5,6.694,661.33553330184,2.952756,1.2079476,1.3449967622,0,0,0,248.9, 1.7, -0.1,0,0,1024,1024,1024,1024,0,0,0,0,278.9,-4.4,0,28,3.354,3.34,0,0,0,0,6.385,66.2,661.33553330184,2.952756,6,P-GPS,
19400,2026-04-08 12:15:40,39.8653756623646,-76.1564856084193,2.952756,,,661.33553330184,6.889764,0,1.35207353408,6.61745428,32,5,6.694,661.33553330184,2.952756,1.2079476,1.35207353408,0,0,0,249, 1.5, 0.2,0,0,1024,1024,1024,1024,0,0,0,0,278.9,-4.4,0,28,3.354,3.34,0,0,0,0,6.385,66.2,661.33553330184,2.952756,6,P-GPS,
19500,2026-04-08 12:15:40,39.8653756606544,-76.1564855911287,2.952756,,,661.33553330184,6.889764,0,1.3487697282,6.6223427316,32,5,6.694,661.33553330184,2.952756,1.2079476,1.35207353408,0,0,0,248.9, 1.2, -0.1,0,0,1024,1024,1024,1024,0,0,0,0,278.9,-4.4,0,28,3.354,3.34,0,0,0,0,6.385,66.2,661.33553330184,2.952756,6,P-GPS,
19600,2026-04-08 12:15:40,39.865375591116,-76.1564855682589,2.952756,,,661.33553330184,6.889764,0,1.36041342936,6.6485238348,32,5,6.694,661.33553330184,2.952756,1.2079476,1.36041342936,0,0,0,248.8, 1.2, -0.5,0,0,1024,1024,1024,1024,0,0,0,0,278.9,-4.4,0,28,3.354,3.34,0,0,0,0,6.385,66.2,661.33553330184,2.952756,6,P-GPS,
19700,2026-04-08 12:15:40,39.8653755875784,-76.1564855452065,2.952756,,,661.33553330184,6.889764,0,1.35640752372,6.6550855148,32,5,6.694,661.33553330184,2.952756,1.2079476,1.36041342936,0,0,0,248.8, 1.2, -0.2,0,0,1024,1024,1024,1024,0,0,0,0,278.9,-4.4,0,28,3.354,3.34,0,0,0,0,6.385,66.2,661.33553330184,2.952756,6,P-GPS,
