time(millisecond),datetime(utc),latitude,longitude,height_above_takeoff(feet),height_above_ground_at_drone_location(feet),ground_elevation_at_drone_location(feet),altitude_above_seaLevel(feet),height_sonar(feet),speed(mph),distance(feet),mileage(feet),satellites,gpslevel,voltage(v),max_altitude(feet),max_ascent(feet),max_speed(mph),max_distance(feet), xSpeed(mph), ySpeed(mph), zSpeed(mph), compass_heading(degrees), pitch(degrees), roll(degrees),isPhoto,isVideo,rc_elevator,rc_aileron,rc_throttle,rc_rudder,rc_elevator(percent),rc_aileron(percent),rc_throttle(percent),rc_rudder(percent),gimbal_heading(degrees),gimbal_pitch(degrees),gimbal_roll(degrees),battery_percent,voltageCell1,voltageCell2,voltageCell3,voltageCell4,voltageCell5,voltageCell6,current(A),battery_temperature(f),altitude(feet),ascent(feet),flycStateRaw,flycState,message
0,2026-04-10 18:12:46,39.8654086289906,-76.1560374463698,0,Available with any HD 360 subscription,Available with any HD 360 subscription,658.57641575948,0.328084,0,0,0,26,5,0,658.57641575948,0,0,0,0,0,0,300.5, -2.8, 1.8,0,0,1024,1024,1024,1024,0,0,0,0,302,0,0,99,4.145,4.148,0,0,0,0,0,75.2,658.57641575948,0,6,P-GPS,"Flying over vegetation."
100,2026-04-10 18:12:46,39.8654086300212,-76.1560374480347,0,,,658.57641575948,0.328084,0,0.00059898623964,0.00059898623964,26,5,0,658.57641575948,0,0,0.00059898623964,0,0,0,300.5, -2.8, 1.8,0,0,1024,1024,1024,1024,0,0,0,0,302,0,0,99,4.145,4.148,0,0,0,0,0,75.2,658.57641575948,0,41,Motors_Started,"Aircraft not in flight. Vision systems and obstacle avoidance disabled (Code: 180059). Remote ID functionality normal (Code: 1B080003)"
200,2026-04-10 18:12:47,39.8654086271547,-76.156037243406,0,,,658.57641575948,0.328084,0,0.05684219342,0.057913059596,26,5,0,658.57641575948,0,0,0.05684219342,0,0,0,300.5, -2.8, 1.9,0,0,1024,1024,1024,1024,0,0,0,0,302,0,0,99,4.145,4.148,0,0,0,0,0,75.2,658.57641575948,0,41,Motors_Started,
300,2026-04-10 18:12:47,39.8654086294974,-76.1560371365664,0,,,658.57641575948,0.328084,0,0.086757876792,0.087844491,26,5,0,658.57641575948,0,0,0.086757876792,0,0,0,300.5, -2.8, 1.9,0,0,1024,1024,1024,1024,0,0,0,0,302,0,0,99,4.145,4.148,0,0,0,0,0,75.2,658.57641575948,0,41,Motors_Started,"Setting new Return-To-Home altitude to 100m (328 ft). Data Recorder File Index is 14. Setting new Maximum Flight Altitude to 120m (394 ft)"
400,2026-04-10 18:12:47,39.865408636579,-76.1560371293146,0,,,658.57641575948,0.328084,0,0.088831695756,0.091130908428,26,5,0,658.57641575948,0,0,0.088831695756,0,0,0,300.5, -2.8, 1.8,0,0,1024,1024,1024,1024,0,0,0,0,302,0,0,99,4.145,4.148,0,0,0,0,0,75.2,658.57641575948,0,41,Motors_Started,
500,2026-04-10 18:12:47,39.8654084324259,-76.156037330254,0,,,658.57641575948,0.328084,0,0.078744097008,0.184482289368,26,5,0,658.57641575948,0,0,0.088831695756,0,0,0,300.5, -2.8, 1.8,0,0,1024,1024,1024,1024,0,0,0,0,302,0,0,99,4.145,4.148,0,0,0,0,0,75.2,658.57641575948,0,41,Motors_Started,
600,2026-04-10 18:12:47,39.8654084296087,-76.1560373278994,0,,,658.57641575948,0.328084,0,0.079952758464,0.185703418016,26,5,0,658.57641575948,0,0,0.088831695756,0,0,0,300.5, -2.8, 1.8,0,0,1024,1024,1024,1024,0,0,0,0,302,0,0,99,4.145,4.148,0,0,0,0,0,75.2,658.57641575948,0,41,Motors_Started,
700,2026-04-10 18:12:47,39.865408320909,-76.1560372354156,0,,,658.57641575948,0.328084,0,0.126982287528,0.233070217432,26,5,0,658.57641575948,0,0,0.126982287528,0,0,0,300.5, -2.8, 1.9,0,0,1024,1024,1024,1024,0,0,0,0,302,0,0,99,4.145,4.148,0,0,0,0,0,75.2,658.57641575948,0,41,Motors_Started,
800,2026-04-10 18:12:47,39.8654083178492,-76.1560372336838,0,,,658.57641575948,0.328084,0,0.128195870244,0.234287409072,26,5,0,658.57641575948,0,0,0.128195870244,0,0,0,300.5, -2.8, 1.8,0,0,1024,1024,1024,1024,0,0,0,0,302,0,0,99,4.145,4.148,0,0,0,0,0,75.2,658.57641575948,0,41,Motors_Started,
900,2026-04-10 18:12:47,39.8654082154817,-76.1560371398639,0,,,658.57641575948,0.328084,0,0.173576449124,0.279951780612,25,5,8.293,658.57641575948,0,0,0.173576449124,0,0,0,300.5, -2.8, 1.9,0,0,1024,1024,1024,1024,0,0,0,0,302,0,0,99,4.145,4.148,0,0,0,0,0.68,75.2,658.57641575948,0,41,Motors_Started,
1000,2026-04-10 18:12:47,39.8654082031136,-76.1560371491916,0,,,658.57641575948,0.328084,0,0.176264441336,0.28516569154,25,5,8.293,658.57641575948,0,0,0.176264441336,0,0,0,300.4, -2.8, 1.8,0,0,1024,1024,1024,1024,0,0,0,0,302,0,0,99,4.145,4.148,0,0,0,0,0.68,75.2,658.57641575948,0,41,Motors_Started,
1100,2026-04-10 18:12:48,39.8654081819783,-76.1560371678873,0,,,658.57641575948,0.328084,0,0.180778877176,0.294486229896,25,5,8.293,658.57641575948,0,0,0.180778877176,0,0,0,300.1, -2.9, 1.8,0,0,1024,1024,1024,1024,0,0,0,0,302,0,0,99,4.145,4.148,0,0,0,0,0.68,75.2,658.57641575948,0,41,Motors_Started,
1200,2026-04-10 18:12:48,39.8654079723004,-76.1560371895212,0,,,658.57641575948,0.328084,0,0.250156832152,0.371227046,26,5,8.293,658.57641575948,0,0,0.250156832152,0,0,0,300, -2.9, 1.8,0,0,1024,1024,1024,1024,0,0,0,0,302,0,0,99,4.145,4.148,0,0,0,0,0.68,75.2,658.57641575948,0,41,Motors_Started,
1300,2026-04-10 18:12:48,39.8654079861522,-76.1560372892414,0,,,658.57641575948,0.328084,0,0.238631241232,0.399606312,26,5,8.293,658.57641575948,0,0,0.250156832152,0,0,0,300, -2.9, 1.8,0,0,1024,1024,1024,1024,0,0,0,0,302,0,0,99,4.145,4.148,0,0,0,0,0.68,75.2,658.57641575948,0,41,Motors_Started,
1400,2026-04-10 18:12:48,39.8654079635139,-76.1560373405204,0,,,658.57641575948,0.328084,0,0.24460138578,0.41617127316,26,5,8.293,658.57641575948,0,0,0.250156832152,0,0,0,300, -2.9, 1.8,0,0,1024,1024,1024,1024,0,0,0,0,302,0,0,99,4.145,4.148,0,0,0,0,0.68,75.2,658.57641575948,0,41,Motors_Started,
1500,2026-04-10 18:12:48,39.8654079436476,-76.1560373935675,0,,,658.57641575948,0.328084,0,0.2504839319,0.43270014508,24,5,8.293,658.57641575948,0,0,0.2504839319,0,0,0,300, -3, 1.8,0,0,1024,1024,1024,1024,0,0,0,0,302,0,0,99,4.145,4.148,0,0,0,0,0.68,75.2,658.57641575948,0,41,Motors_Started,
1600,2026-04-10 18:12:48,39.865408071125,-76.1560373640492,0,,,658.57641575948,0.328084,0,0.204838261148,0.47994096024,24,5,8.293,658.57641575948,0,0,0.2504839319,0,0,0,300, -3, 1.8,0,0,1024,1024,1024,1024,0,0,0,0,302,0,0,99,4.145,4.148,0,0,0,0,0.68,75.2,658.57641575948,0,41,Motors_Started,
1700,2026-04-10 18:12:48,39.8654081071128,-76.1560373808711,0,,,658.57641575948,0.328084,0,0.191288391948,0.49389109192,24,5,8.293,658.57641575948,0,0,0.2504839319,0,0,0,300, -3, 1.8,0,0,1024,1024,1024,1024,0,0,0,0,302,0,0,99,4.145,4.148,0,0,0,0,0.68,75.2,658.57641575948,0,41,Motors_Started,
1800,2026-04-10 18:12:48,39.8654081073232,-76.1560373899437,0,,,658.57641575948,0.328084,0,0.190984914248,0.49643046208,24,5,8.104,658.57641575948,0,0,0.2504839319,0,0,0,300, -3, 1.8,0,0,1024,1024,1024,1024,0,0,0,0,302,0,0,99,4.047,4.044,0,0,0,0,5.085,75.38,658.57641575948,0,41,Motors_Started,
1900,2026-04-10 18:12:48,39.8654082350582,-76.1560373448381,0,,,658.57641575948,0.328084,0,0.146511487628,0.5447178652,24,5,8.104,658.57641575948,0,0,0.2504839319,0,0,0,300, -3, 1.8,0,0,1024,1024,1024,1024,0,0,0,0,302,0,0,99,4.047,4.044,0,0,0,0,5.085,75.38,658.57641575948,0,41,Motors_Started,
2000,2026-04-10 18:12:48,39.8654082550318,-76.1560373461477,0,,,658.57641575948,0.328084,0,0.139295280048,0.55201445336,24,5,8.104,658.57641575948,0,0,0.2504839319,0,0,0,300, -3.1, 1.9,0,0,1024,1024,1024,1024,0,0,0,0,302,0,0,99,4.047,4.044,0,0,0,0,5.085,75.38,658.57641575948,0,41,Motors_Started,
2100,2026-04-10 18:12:48,39.8654082832229,-76.1560373508707,0,,,658.57641575948,0.328084,0,0.12895669704,0.5623851886,24,5,8.104,658.57641575948,0,0,0.2504839319,0,0,0,300, -3.1, 1.9,0,0,1024,1024,1024,1024,0,0,0,0,301.9,0,0,99,4.047,4.044,0,0,0,0,5.085,75.38,658.57641575948,0,41,Motors_Started,
2200,2026-04-10 18:12:49,39.8654082956405,-76.1560372779116,0,,,658.57641575948,0.328084,0,0.130451447744,0.58331366696,25,5,8.104,658.57641575948,0,0,0.2504839319,0,0,0,300, -3, 1.9,0,0,1024,1024,1024,1024,0,0,0,0,301.9,0,0,99,4.047,4.044,0,0,0,0,5.085,75.38,658.57641575948,0,41,Motors_Started,
2300,2026-04-10 18:12:49,39.8654081735464,-76.1560373128062,0,,,658.57641575948,0.328084,0,0.170326120936,0.62891734296,25,5,8.104,658.57641575948,0,0,0.2504839319,0,0,0,300, -3.1, 1.9,0,0,1024,1024,1024,1024,0,0,0,0,301.9,0,0,99,4.047,4.044,0,0,0,0,5.085,75.38,658.57641575948,0,41,Motors_Started,
2400,2026-04-10 18:12:49,39.8654081996182,-76.1560373655579,0,,,658.57641575948,0.328084,0,0.15828248538,0.64648624116,25,5,8.104,658.57641575948,0,0,0.2504839319,0,0,0,300, -3.1, 1.9,0,0,1024,1024,1024,1024,0,0,0,0,301.9,0,0,99,4.047,4.044,0,0,0,0,5.085,75.38,658.57641575948,0,41,Motors_Started,
2500,2026-04-10 18:12:49,39.8654081591663,-76.1560373133705,0,,,658.57641575948,0.328084,0,0.175414703776,0.6672572392,24,5,8.104,658.57641575948,0,0,0.2504839319,0,0,0,300, -3.1, 1.8,0,0,1024,1024,1024,1024,0,0,0,0,301.9,0,0,99,4.047,4.044,0,0,0,0,5.085,75.38,658.57641575948,0,41,Motors_Started,
2600,2026-04-10 18:12:49,39.8654081654813,-76.1560373400703,0,,,658.57641575948,0.328084,0,0.1717109635,0.6750820426,24,5,8.104,658.57641575948,0,0,0.2504839319,0,0,0,300, -3.1, 1.8,0,0,1024,1024,1024,1024,0,0,0,0,301.9,0,0,99,4.047,4.044,0,0,0,0,5.085,75.38,658.57641575948,0,41,Motors_Started,
2700,2026-04-10 18:12:49,39.8654081243338,-76.1560372467171,0,,,658.57641575948,0.328084,0,0.192425531092,0.70522968136,23,5,8.104,658.57641575948,0,0,0.2504839319,0,0,0,300, -3.1, 1.8,0,0,1024,1024,1024,1024,0,0,0,0,301.9,0,0,99,4.047,4.044,0,0,0,0,5.085,75.38,658.57641575948,0,41,Motors_Started,
2800,2026-04-10 18:12:49,39.8654081196958,-76.1560372201789,0,,,658.57641575948,0.328084,0,0.19631562308,0.71285107268,23,5,8.104,658.57641575948,0,0,0.2504839319,0,0,0,300, -3, 1.8,0,0,1024,1024,1024,1024,0,0,0,0,301.9,0,0,99,4.047,4.044,0,0,0,0,5.085,75.38,658.57641575948,0,41,Motors_Started,
2900,2026-04-10 18:12:49,39.8654081156289,-76.156037194655,0,,,658.57641575948,0.328084,0,0.200125006404,0.72015094168,24,5,8.206,658.57641575948,0,0,0.2504839319,0,0,0,300, -3, 1.8,0,0,1024,1024,1024,1024,0,0,0,0,301.9,0,0,99,4.105,4.105,0,0,0,0,2.25,75.38,658.57641575948,0,41,Motors_Started,
3000,2026-04-10 18:12:49,39.8654080931752,-76.1560371928355,0,,,658.57641575948,0.328084,0,0.207985899044,0.72835960336,24,5,8.206,658.57641575948,0,0,0.2504839319,0,0,0,300, -3, 1.8,0,0,1024,1024,1024,1024,0,0,0,0,301.9,0,0,99,4.105,4.105,0,0,0,0,2.25,75.38,658.57641575948,0,41,Motors_Started,
3100,2026-04-10 18:12:49,39.8654080510206,-76.1560372237456,0,,,658.57641575948,0.328084,0,0.21989502016,0.74600724172,24,5,8.206,658.57641575948,0,0,0.2504839319,0,0,0,300, -3, 1.8,0,0,1024,1024,1024,1024,0,0,0,0,301.9,0,0,99,4.105,4.105,0,0,0,0,2.25,75.38,658.57641575948,0,41,Motors_Started,
3200,2026-04-10 18:12:50,39.8654080068026,-76.1560373585888,0,,,658.57641575948,0.328084,0,0.228332028304,0.78707023516,23,5,8.206,658.57641575948,0,0,0.2504839319,0,0,0,300, -3, 1.8,0,0,1024,1024,1024,1024,0,0,0,0,301.9,0,0,99,4.105,4.105,0,0,0,0,2.25,75.38,658.57641575948,0,41,Motors_Started,
3300,2026-04-10 18:12:50,39.865407964867,-76.1560374550642,0,,,658.57641575948,0.328084,0,0.242317264972,0.81812010492,24,5,8.206,658.57641575948,0,0,0.2504839319,0,0,0,300, -3, 1.8,0,0,1024,1024,1024,1024,0,0,0,0,301.9,0,0,99,4.105,4.105,0,0,0,0,2.25,75.38,658.57641575948,0,41,Motors_Started,
3400,2026-04-10 18:12:50,39.8654080088166,-76.15603775295,0,,,658.57641575948,0.328084,0,0.242010834516,0.9030676142,24,5,8.206,658.57641575948,0,0,0.2504839319,0,0,0,300, -3, 1.8,0,0,1024,1024,1024,1024,0,0,0,0,301.9,0,0,99,4.105,4.105,0,0,0,0,2.25,75.38,658.57641575948,0,41,Motors_Started,
3500,2026-04-10 18:12:50,39.8654079890084,-76.1560377342946,0,,,658.57641575948,0.328084,0.223694,0.247026582708,0.91198493732,24,5,8.206,658.57641575948,0,0.223694,0.2504839319,0,-0.223694,0,300, -3, 1.8,0,0,1024,1024,1024,1024,0,0,0,0,301.9,0,0,99,4.105,4.105,0,0,0,0,2.25,75.38,658.57641575948,0,41,Motors_Started,
3600,2026-04-10 18:12:50,39.865407950809,-76.1560379529894,0,,,658.57641575948,0.328084,0.223694,0.285222778156,0.97479333828,24,5,8.206,658.57641575948,0,0.223694,0.285222778156,0,-0.223694,0,300.1, -3.1, 1.7,0,0,1024,1024,1024,1024,0,0,0,0,301.9,0,0,99,4.105,4.105,0,0,0,0,2.25,75.38,658.57641575948,0,11,AutoTakeoff,
3700,2026-04-10 18:12:50,39.8654079432272,-76.1560376079818,0,,,658.57641575948,0.328084,0.223694,0.254260834908,1.07145016552,23,5,8.206,658.57641575948,0,0.223694,0.285222778156,0,-0.223694,0,300.6, -3.1, 1.5,0,0,1024,1024,1024,1024,0,0,0,0,301.9,0,0,99,4.105,4.105,0,0,0,0,2.25,75.38,658.57641575948,0,11,AutoTakeoff,
3800,2026-04-10 18:12:50,39.8654079059468,-76.1560377371743,0,,,658.57641575948,0.328084,0.223694,0.276086294924,1.11010174156,23,5,8.206,658.57641575948,0,0.223694,0.285222778156,0,-0.223694,-0.223694,301.8, -0.9, -1,0,0,1024,1024,1024,1024,0,0,0,0,302,0,0,99,4.105,4.105,0,0,0,0,2.25,75.38,658.57641575948,0,11,AutoTakeoff,
3900,2026-04-10 18:12:50,39.8654080875218,-76.1560375432469,0,,,658.57641575948,0.328084,0.223694,0.199408799032,1.19576447396,25,5,8.225,658.57641575948,0,0.223694,0.285222778156,0,-0.223694,-0.671082,301.5, -0.9, -1.7,0,0,1024,1024,1024,1024,0,0,0,0,302,0,0,99,4.113,4.109,0,0,0,0,1.746,75.38,658.57641575948,0,11,AutoTakeoff,"Remote ID functionality normal (Code: 1B080003)"
4000,2026-04-10 18:12:50,39.8654080688109,-76.1560376905902,0.328084,,,658.90449975948,0.656168,0.223694,0.215520676188,1.23758534144,25,5,8.225,658.90449975948,0.328084,0.223694,0.285222778156,0,-0.223694,-1.342164,299.9, -0.7, 0,0,0,1024,1024,1024,1024,0,0,0,0,302,0,0,99,4.113,4.109,0,0,0,0,1.746,75.38,658.90449975948,0.328084,11,AutoTakeoff,
4100,2026-04-10 18:12:50,39.8654080867148,-76.1560378535487,0.328084,,,658.90449975948,0.656168,0.3131716,0.228355650352,1.28368770512,25,5,8.225,658.90449975948,0.328084,0.3131716,0.285222778156,0.223694,-0.223694,-1.565858,299.8, 2.1, 3.1,0,0,1024,1024,1024,1024,0,0,0,0,302,0,0,99,4.113,4.109,0,0,0,0,1.746,75.38,658.90449975948,0.328084,11,AutoTakeoff,
4200,2026-04-10 18:12:51,39.8654083270018,-76.1560378243717,0.656168,,,659.23258375948,0.984252,0.3131716,0.152791343472,1.3717356082,25,5,8.225,659.23258375948,0.656168,0.3131716,0.285222778156,0.223694,-0.223694,-1.565858,300.4, 2.1, 0.9,0,0,1024,1024,1024,1024,0,0,0,0,302,0,0,99,4.113,4.109,0,0,0,0,1.746,75.38,659.23258375948,0.656168,11,AutoTakeoff,
4300,2026-04-10 18:12:51,39.8654086504944,-76.1560376288114,0.984252,,,659.56066775948,1.312336,0.4921268,0.051689962284,1.50184716092,26,5,8.225,659.56066775948,0.984252,0.4921268,0.285222778156,0.447388,-0.223694,-1.565858,300.2, 1.2, -1.8,0,0,1024,1024,1024,1024,0,0,0,0,302,0,0,99,4.113,4.109,0,0,0,0,1.746,75.38,659.56066775948,0.984252,11,AutoTakeoff,
4400,2026-04-10 18:12:51,39.8654088671221,-76.1560377195493,0.984252,,,659.56066775948,1.312336,0.4921268,0.115762470896,1.58486881712,26,5,8.225,659.56066775948,0.984252,0.4921268,0.285222778156,0.447388,-0.223694,-1.342164,300.2, 1.3, -4.1,0,0,1024,1024,1024,1024,0,0,0,0,302,0,0,99,4.113,4.109,0,0,0,0,1.746,75.38,659.56066775948,0.984252,11,AutoTakeoff,
4500,2026-04-10 18:12:51,39.8654092167338,-76.15603719036,1.312336,,,659.88875175948,1.64042,0.4921268,0.226104994112,1.78040031944,26,5,8.225,659.88875175948,1.312336,0.4921268,0.285222778156,0.447388,-0.223694,-1.11847,299.9, 3.5, -3.7,0,0,1024,1024,1024,1024,0,0,0,0,302,0,0,99,4.113,4.109,0,0,0,0,1.746,75.38,659.88875175948,1.312336,11,AutoTakeoff,
4600,2026-04-10 18:12:51,39.8654095324974,-76.1560372181353,1.312336,,,659.88875175948,1.64042,0.4921268,0.33578413148,1.8958662024,26,5,8.225,659.88875175948,1.312336,0.4921268,0.33578413148,0.447388,-0.223694,-1.11847,299.9, 4.9, -3.1,0,0,1024,1024,1054,1024,0,0,5,0,302,0,0,99,4.113,4.109,0,0,0,0,1.746,75.38,659.88875175948,1.312336,11,AutoTakeoff,"Home Point updated (Code: 30800)"
4700,2026-04-10 18:12:51,39.8654098416872,-76.1560370332708,1.64042,,,660.21683575948,1.968504,0.4921268,0.45732613012,2.01998694128,26,5,8.225,660.21683575948,1.64042,0.4921268,0.45732613012,0.447388,-0.223694,-1.11847,299.9, 3.7, -3.2,0,0,1024,1024,1307,1024,0,0,43,0,302,0,0,99,4.113,4.109,0,0,0,0,1.746,75.38,660.21683575948,1.64042,11,AutoTakeoff,
4800,2026-04-10 18:12:51,39.8654100716599,-76.1560370458585,1.64042,,,660.21683575948,1.968504,0.4921268,0.53817587024,2.10396660276,26,5,8.225,660.21683575948,1.64042,0.4921268,0.53817587024,0.447388,-0.223694,-1.11847,299.9, 3.2, -4.6,0,0,1024,1024,1616,1024,0,0,90,0,302,0,0,99,4.113,4.109,0,0,0,0,1.746,75.38,660.21683575948,1.64042,11,AutoTakeoff,
4900,2026-04-10 18:12:51,39.8654102304881,-76.1560374072641,1.968504,,,660.54491975948,2.296588,0.3131716,0.58440946752,2.22059062224,25,5,8.099,660.54491975948,1.968504,0.4921268,0.58440946752,0.223694,-0.223694,-1.342164,299.9, 3.5, -3.4,0,0,1024,1024,1616,1024,0,0,90,0,302,0,0,99,3.99,3.983,0,0,0,0,4.648,75.38,660.54491975948,1.968504,11,AutoTakeoff,
5000,2026-04-10 18:12:51,39.8654103585422,-76.1560374654882,2.296588,,,660.87300375948,2.624672,0.223694,0.63104988896,2.27007553196,25,5,8.099,660.87300375948,2.296588,0.4921268,0.63104988896,0.223694,0,-2.013246,300, 3.9, -2.1,0,0,1024,1024,1684,1024,0,0,100,0,302,0,0,99,3.99,3.983,0,0,0,0,4.648,75.38,660.87300375948,2.296588,11,AutoTakeoff,
5100,2026-04-10 18:12:51,39.8654104571018,-76.1560374868628,2.624672,,,661.20108775948,2.952756,0.223694,0.66708007384,2.3065289452,25,5,8.099,661.20108775948,2.624672,0.4921268,0.66708007384,0.223694,0,-3.131716,301, 3.5, -4.5,0,0,1024,1024,1684,1024,0,0,100,0,302,0,0,99,3.99,3.983,0,0,0,0,4.648,75.38,661.20108775948,2.624672,11,AutoTakeoff,
5200,2026-04-10 18:12:52,39.8654105560492,-76.1560375061696,3.28084,,,661.85725575948,3.28084,0,0.70328414324,2.34303157104,26,5,8.099,661.85725575948,3.28084,0.4921268,0.70328414324,0,0,-4.250186,300.6, 2.5, -7.1,0,0,1024,1024,1684,1024,0,0,100,0,302,0,0,99,3.99,3.983,0,0,0,0,4.648,75.38,661.85725575948,3.28084,11,AutoTakeoff,
5300,2026-04-10 18:12:52,39.8654104778572,-76.1560374751082,3.937008,,,662.51342375948,4.265092,0.447388,0.6746063208,2.37285768748,26,5,8.099,662.51342375948,3.937008,0.4921268,0.70328414324,-0.447388,0,-5.144962,299.7, 3.1, -4.2,0,0,1024,1024,1684,1029,0,0,100,1,302,0,0,99,3.99,3.983,0,0,0,0,4.648,75.38,662.51342375948,3.937008,11,AutoTakeoff,
5400,2026-04-10 18:12:52,39.8654103220359,-76.1560375096454,4.593176,,,663.16959175948,5.249344,0.447388,0.61795933736,2.43052501216,26,5,8.099,663.16959175948,4.593176,0.4921268,0.70328414324,-0.447388,0,-6.263432,299.7, 2.8, 0.7,0,0,1024,1024,1684,1100,0,0,100,12,302,0,0,99,3.99,3.983,0,0,0,0,4.648,75.38,663.16959175948,4.593176,6,P-GPS,
5500,2026-04-10 18:12:52,39.8654102198583,-76.1560376567341,5.577428,,,664.15384375948,6.233596,0.223694,0.58340881132,2.48608275672,27,5,8.099,664.15384375948,5.577428,0.4921268,0.70328414324,-0.223694,0,-7.381902,300.5, 3.1, 1,0,0,1024,1024,1684,1228,0,0,100,31,302,0,0,99,3.99,3.983,0,0,0,0,4.648,75.38,664.15384375948,5.577428,6,P-GPS,
5600,2026-04-10 18:12:52,39.8654101803307,-76.1560375898234,6.889764,,,665.46617975948,7.545932,0.223694,0.56742783968,2.5097277706,27,5,8.099,665.46617975948,6.889764,0.4921268,0.70328414324,0,0.223694,-8.500372,300.7, 1.3, -1.2,0,0,1024,1024,1487,1139,0,0,70,17,302.1,0,0,99,3.99,3.983,0,0,0,0,4.648,75.38,665.46617975948,6.889764,6,P-GPS,
5700,2026-04-10 18:12:52,39.8654105449491,-76.15603774741,8.2021,,,666.77851575948,8.858268,0,0.7041010724,2.6498852554,27,5,8.099,666.77851575948,8.2021,0.4921268,0.7041010724,0,0,-9.395148,300.2, 3, -3.8,0,0,1024,1024,1024,1024,0,0,0,0,302.3,0,0,99,3.99,3.983,0,0,0,0,4.648,75.38,666.77851575948,8.2021,6,P-GPS,
5800,2026-04-10 18:12:52,39.8654105713269,-76.1560377487573,9.84252,,,668.41893575948,10.170604,0,0.71370081024,2.65951780164,27,5,8.099,668.41893575948,9.84252,0.4921268,0.71370081024,0,0,-10.06623,300, 4.5, -5,0,0,1024,1024,1024,1024,0,0,0,0,302.5,0,0,99,3.99,3.983,0,0,0,0,4.648,75.38,668.41893575948,9.84252,6,P-GPS,
5900,2026-04-10 18:12:52,39.8654107741242,-76.1560376829259,11.154856,,,669.73127175948,11.811024,0,0.7854495002,2.73577108492,27,5,7.933,669.73127175948,11.154856,0.4921268,0.7854495002,0,0,-9.618842,300.2, 5.2, -4.5,0,0,1220,998,1024,1024,30,-4,0,0,302.6,0,0,99,3.968,3.965,0,0,0,0,8.306,75.56,669.73127175948,11.154856,6,P-GPS,
6000,2026-04-10 18:12:52,39.8654107862507,-76.1560376973724,12.795276,,,671.37169175948,13.12336,0,0.7902067182,2.7417651796,27,5,7.933,671.37169175948,12.795276,0.4921268,0.7902067182,0,0,-9.171454,300.7, 4, -3.4,0,0,1684,1024,1024,1024,100,0,0,0,302.6,0,0,99,3.968,3.965,0,0,0,0,8.306,75.56,671.37169175948,12.795276,6,P-GPS,
6100,2026-04-10 18:12:52,39.8654108151514,-76.156037703886,14.107612,,,672.68402775948,14.76378,0,0.80087272904,2.75246727968,27,5,7.933,672.68402775948,14.107612,0.4921268,0.80087272904,0,0,-8.724066,301, 2.7, -3.1,0,0,1684,1024,1024,1024,100,0,0,0,302.6,0,0,99,3.968,3.965,0,0,0,0,8.306,75.56,672.68402775948,14.107612,6,P-GPS,
6200,2026-04-10 18:12:53,39.8654109464432,-76.1560373926369,15.419948,,,673.99636375948,15.748032,0.3131716,0.84565619504,2.85192266344,27,5,7.933,673.99636375948,15.419948,0.4921268,0.84565619504,0.223694,-0.223694,-8.052984,301.1, -6.7, -2.6,0,0,1684,1024,1024,1024,100,0,0,0,302.6,0,0,99,3.968,3.965,0,0,0,0,8.306,75.56,673.99636375948,15.419948,6,P-GPS,
6300,2026-04-10 18:12:53,39.8654114364792,-76.1560375488208,16.4042,,,674.98061575948,17.060368,0.9395148,1.02471131888,3.03598434912,27,5,7.933,674.98061575948,16.4042,0.9395148,1.02471131888,0.671082,-0.671082,-7.605596,302.6, -21, -2.6,0,0,1684,1024,1024,1024,100,0,0,0,302.6,0,0,99,3.968,3.965,0,0,0,0,8.306,75.56,674.98061575948,16.4042,6,P-GPS,
6400,2026-04-10 18:12:53,39.8654117627859,-76.1560380623405,17.388452,,,675.96486775948,18.04462,1.9237684,1.15630253044,3.22267726848,27,5,7.933,675.96486775948,17.388452,1.9237684,1.15630253044,1.11847,-1.565858,-6.934514,305.5, -35.6, -3.3,0,0,1629,1024,1024,1024,92,0,0,0,302.6,0,0,99,3.968,3.965,0,0,0,0,8.306,75.56,675.96486775948,17.388452,6,P-GPS,
6500,2026-04-10 18:12:53,39.8654130000517,-76.1560396831653,18.372704,,,676.94911975948,18.700788,3.1764548,1.7133858816,3.8628282076,27,5,7.933,676.94911975948,18.372704,3.1764548,1.7133858816,2.013246,-2.460634,-6.039738,306.9, -35.5, -4.8,0,0,1684,1024,1024,1024,100,0,0,0,302.6,0,0,99,3.968,3.965,0,0,0,0,8.306,75.56,676.94911975948,18.372704,6,P-GPS,
6600,2026-04-10 18:12:53,39.8654139639513,-76.1560411478554,19.356956,,,677.93337175948,19.356956,4.1607084,2.20525925692,4.4031169388,27,5,7.933,677.93337175948,19.356956,4.1607084,2.20525925692,2.460634,-3.35541,-5.368656,306.7, -27.9, -3.9,0,0,1684,1024,1024,1024,100,0,0,0,302.6,0,0,99,3.968,3.965,0,0,0,0,8.306,75.56,677.93337175948,19.356956,6,P-GPS,
6700,2026-04-10 18:12:53,39.8654156724556,-76.1560442450688,20.013124,,,678.58953975948,20.013124,4.7870516,3.19824813384,5.4712272092,27,5,7.933,678.58953975948,20.013124,4.7870516,3.19824813384,2.908022,-3.802798,-4.47388,306.4, -22.1, -4.5,0,0,1684,1024,1024,1024,100,0,0,0,302.6,0,0,99,3.968,3.965,0,0,0,0,8.306,75.56,678.58953975948,20.013124,6,P-GPS,
6800,2026-04-10 18:12:53,39.865417295008,-76.1560466827643,20.669292,,,679.24570775948,20.669292,4.7870516,4.0850066924,6.374836162,27,5,7.933,679.24570775948,20.669292,4.7870516,4.0850066924,3.35541,-4.47388,-3.579104,306.3, -20.8, -4.5,0,0,1684,1024,1024,1024,100,0,0,0,302.6,0,0,99,3.968,3.965,0,0,0,0,8.306,75.56,679.24570775948,20.669292,6,P-GPS,
6900,2026-04-10 18:12:53,39.8654189970795,-76.1560500514832,21.32546,,,679.90187575948,20.997376,6.2186932,5.1739831052,7.5042325236,27,5,8.013,679.90187575948,21.32546,6.2186932,5.1739831052,3.802798,-4.921268,-2.684328,306.1, -19.7, -5,0,0,1684,1024,1024,1024,100,0,0,0,302.6,0,0,99,4.023,4.024,0,0,0,0,5.663,75.74,679.90187575948,21.32546,6,P-GPS,
7000,2026-04-10 18:12:53,39.8654206590044,-76.1560528782147,21.653544,,,680.22995975948,21.32546,6.2186932,6.1595802496,8.5013782248,27,5,8.013,680.22995975948,21.653544,6.2186932,6.1595802496,4.026492,-5.368656,-1.789552,306, -19.2, -5.7,0,0,1684,1024,1024,1024,100,0,0,0,302.6,0,0,99,4.023,4.024,0,0,0,0,5.663,75.74,680.22995975948,21.653544,6,P-GPS,
7100,2026-04-10 18:12:53,39.8654223471081,-76.1560558378658,21.653544,,,680.22995975948,21.32546,7.0239916,7.1816931432,9.5339898064,27,5,8.013,680.22995975948,21.653544,7.0239916,7.1816931432,4.250186,-5.59235,-1.11847,305.7, -19.8, -5,0,0,1684,1024,1024,1024,100,0,0,0,302.6,0,0,99,4.023,4.024,0,0,0,0,5.663,75.74,680.22995975948,21.653544,6,P-GPS,
7200,2026-04-10 18:12:54,39.8654232625882,-76.1560589236545,21.981628,,,680.55804375948,21.653544,7.5161184,8.0423887088,10.460466214,27,5,8.013,680.55804375948,21.981628,7.5161184,8.0423887088,4.47388,-6.039738,-0.447388,305.5, -20.2, -2.9,0,0,1684,1024,1024,1024,100,0,0,0,302.6,0,0,99,4.023,4.024,0,0,0,0,5.663,75.74,680.55804375948,21.981628,6,P-GPS,
7300,2026-04-10 18:12:54,39.8654251775257,-76.1560623430715,21.981628,,,680.55804375948,21.653544,7.5161184,9.2230317912,11.6458008976,27,5,8.013,680.55804375948,21.981628,7.5161184,9.2230317912,4.921268,-6.487126,-0.223694,305.5, -20.6, -1.5,0,0,1684,1024,1024,1024,100,0,0,0,302.6,0,0,99,4.023,4.024,0,0,0,0,5.663,75.74,680.55804375948,21.981628,6,P-GPS,
7400,2026-04-10 18:12:54,39.8654273201809,-76.1560659001945,21.981628,,,680.55804375948,21.653544,8.94776,10.4879924616,12.912073904,27,5,8.013,680.55804375948,21.981628,8.94776,10.4879924616,5.368656,-7.158208,0,305.9, -19.3, -4.8,0,0,1684,1024,1024,1024,100,0,0,0,302.6,0,0,99,4.023,4.024,0,0,0,0,5.663,75.74,680.55804375948,21.981628,6,P-GPS,
7500,2026-04-10 18:12:54,39.86542975209,-76.156070332582,21.981628,,,680.55804375948,21.653544,8.94776,12.00869461,14.4378613544,27,5,8.013,680.55804375948,21.981628,8.94776,12.00869461,5.59235,-7.605596,0,305.6, -18, -7,0,0,1684,1024,1024,1024,100,0,0,0,302.6,0,0,99,4.023,4.024,0,0,0,0,5.663,75.74,680.55804375948,21.981628,6,P-GPS,
7600,2026-04-10 18:12:54,39.8654321686538,-76.1560744503956,21.981628,,,680.55804375948,21.653544,10.1109688,13.4590227404,15.889436204,27,5,8.013,680.55804375948,21.981628,10.1109688,13.4590227404,5.816044,-8.276678,0,305.1, -16.1, -7,0,0,1436,1024,1024,1024,62,0,0,0,302.6,0,0,99,4.023,4.024,0,0,0,0,5.663,75.74,680.55804375948,21.981628,6,P-GPS,
7700,2026-04-10 18:12:54,39.8654348372386,-76.1560791558782,21.981628,,,680.55804375948,21.653544,10.737312,15.0951776484,17.5278548916,27,5,8.013,680.55804375948,21.981628,10.737312,15.0951776484,6.263432,-8.724066,0,304.4, -14.8, -7.3,0,0,1024,1024,1024,1024,0,0,0,0,302.6,0,0,99,4.023,4.024,0,0,0,0,5.663,75.74,680.55804375948,21.981628,6,P-GPS,
7800,2026-04-10 18:12:54,39.8654373966426,-76.1560837371241,21.981628,,,680.55804375948,21.653544,10.9162672,16.679626518,19.1146331576,27,5,8.013,680.55804375948,21.981628,10.9162672,16.679626518,6.263432,-8.94776,0,303.5, -8.4, -9.3,0,0,1024,1024,1024,1024,0,0,0,0,302.6,0,0,99,4.023,4.024,0,0,0,0,5.663,75.74,680.55804375948,21.981628,6,P-GPS,
7900,2026-04-10 18:12:54,39.8654399632436,-76.156088987158,21.981628,,,680.55804375948,21.653544,10.9162672,18.4125990144,20.8577434496,27,5,8.101,680.55804375948,21.981628,10.9162672,18.4125990144,6.039738,-9.171454,0,302.7, 3.4, -8.8,0,0,1024,1024,1024,1024,0,0,0,0,302.6,0,0,99,4.027,4.02,0,0,0,0,3.479,75.74,680.55804375948,21.981628,6,P-GPS,
8000,2026-04-10 18:12:54,39.8654424025155,-76.1560938971889,21.981628,,,680.55804375948,21.653544,10.6702038,20.043635812,22.4956372028,27,5,8.101,680.55804375948,21.981628,10.9162672,20.043635812,5.816044,-8.94776,0,303.1, 14.6, -7.6,0,0,1024,1024,1024,1024,0,0,0,0,302.6,0,0,99,4.027,4.02,0,0,0,0,3.479,75.74,680.55804375948,21.981628,6,P-GPS,
8100,2026-04-10 18:12:55,39.8654446616211,-76.1560986258442,21.981628,,,680.55804375948,21.653544,10.0438606,21.5954075152,24.0554141556,27,5,8.101,680.55804375948,21.981628,10.9162672,21.5954075152,5.368656,-8.500372,0,303.3, 26, -4.3,0,0,1024,1024,1024,1024,0,0,0,0,302.6,0,0,99,4.027,4.02,0,0,0,0,3.479,75.74,680.55804375948,21.981628,6,P-GPS,
8200,2026-04-10 18:12:55,39.8654462808118,-76.1561022928999,21.981628,,,680.55804375948,21.653544,10.0438606,22.7702763192,25.240158288,27,5,8.101,680.55804375948,21.981628,10.9162672,22.7702763192,4.697574,-7.381902,0,303.1, 33.6, -0.5,0,0,1024,1024,1024,1024,0,0,0,0,302.6,0,0,99,4.027,4.02,0,0,0,0,3.479,75.74,680.55804375948,21.981628,6,P-GPS,
8300,2026-04-10 18:12:55,39.8654472692358,-76.1561038863614,21.981628,,,680.55804375948,21.653544,7.2476856,23.3437343428,25.8138787788,27,5,8.101,680.55804375948,21.981628,10.9162672,23.3437343428,4.026492,-6.039738,0,302.5, 31.7, -1.2,0,0,1024,1024,1024,1024,0,0,0,0,302.6,0,0,99,4.027,4.02,0,0,0,0,3.479,75.74,680.55804375948,21.981628,6,P-GPS,
8400,2026-04-10 18:12:55,39.8654487647117,-76.1561066732441,21.981628,,,680.55804375948,21.653544,5.7713052,24.2953091764,26.7661425888,27,5,8.101,680.55804375948,21.981628,10.9162672,24.2953091764,3.35541,-4.697574,0,302.4, 31.7, -4.7,0,0,1024,1024,1024,1024,0,0,0,0,302.6,0,0,99,4.027,4.02,0,0,0,0,3.479,75.74,680.55804375948,21.981628,6,P-GPS,
8500,2026-04-10 18:12:55,39.8654489065669,-76.1561065726866,21.981628,,,680.55804375948,21.981628,5.7713052,24.304134636,26.8250664752,26,5,8.101,680.55804375948,21.981628,10.9162672,24.304134636,2.684328,-3.802798,0,302.1, 30.5, -6,0,0,1024,1024,1024,1024,0,0,0,0,302.6,0,0,99,4.027,4.02,0,0,0,0,3.479,75.74,680.55804375948,21.981628,6,P-GPS,
8600,2026-04-10 18:12:55,39.8654498508993,-76.1561081974846,21.981628,,,680.55804375948,22.309712,3.5343652,24.8748695624,27.3958014016,26,5,8.101,680.55804375948,21.981628,10.9162672,24.8748695624,2.013246,-2.908022,0,302.4, 26.6, -5.2,0,0,1024,1024,1024,1024,0,0,0,0,302.6,0,0,99,4.027,4.02,0,0,0,0,3.479,75.74,680.55804375948,21.981628,6,P-GPS,
8700,2026-04-10 18:12:55,39.8654498211024,-76.1561078902227,21.981628,,,680.55804375948,22.637796,2.7290668,24.7997711348,27.4825468112,26,5,8.101,680.55804375948,21.981628,10.9162672,24.8748695624,1.565858,-2.23694,0,302.7, 21.5, -3.8,0,0,1024,1024,1024,1024,0,0,0,0,302.6,0,0,99,4.027,4.02,0,0,0,0,3.479,75.74,680.55804375948,21.981628,6,P-GPS,
8800,2026-04-10 18:12:55,39.865450459338,-76.1561088560692,21.981628,,,680.55804375948,22.637796,1.9237684,25.1560703588,27.8394365864,26,5,8.101,680.55804375948,21.981628,10.9162672,25.1560703588,1.11847,-1.565858,-0.223694,303, 17.5, -3.5,0,0,1024,1024,1024,1024,0,0,0,0,302.6,0,0,99,4.027,4.02,0,0,0,0,3.479,75.74,680.55804375948,21.981628,6,P-GPS,
8900,2026-04-10 18:12:55,39.8654505177278,-76.1561089223866,21.981628,,,680.55804375948,22.637796,1.6105968,25.1837606484,27.8676846188,27,5,8.002,680.55804375948,21.981628,10.9162672,25.1837606484,0.894776,-1.342164,-0.223694,302.8, 15.3, -4.1,0,0,1024,1024,1024,1024,0,0,0,0,302.6,0,0,99,4.027,4.02,0,0,0,0,6.085,75.74,680.55804375948,21.981628,6,P-GPS,
9000,2026-04-10 18:12:55,39.8654510388575,-76.1561096998074,21.981628,,,680.55804375948,22.637796,1.2974252,25.4721792928,28.1567594312,27,5,8.002,680.55804375948,21.981628,10.9162672,25.4721792928,0.671082,-1.11847,0,302.7, 14.4, -4.8,0,0,1024,1024,1024,1024,0,0,0,0,302.6,0,0,99,4.027,4.02,0,0,0,0,6.085,75.74,680.55804375948,21.981628,6,P-GPS,
9100,2026-04-10 18:12:55,39.8654514301952,-76.1561104787715,21.981628,,,680.55804375948,29.199476,1.006623,25.7321858628,28.4174549776,27,5,8.002,680.55804375948,21.981628,10.9162672,25.7321858628,0.447388,-0.894776,-0.223694,302.9, 12.2, -4.2,0,0,1024,1024,1024,1024,0,0,0,0,302.6,0,0,99,4.027,4.02,0,0,0,0,6.085,75.74,680.55804375948,21.981628,6,P-GPS,
9200,2026-04-10 18:12:56,39.8654510787028,-76.1561104571303,21.981628,,,680.55804375948,29.52756,0.8052984,25.6497383536,28.5458342468,27,5,8.002,680.55804375948,21.981628,10.9162672,25.7321858628,0.447388,-0.671082,-0.223694,303.1, 11.2, -3.2,0,0,1024,1024,1024,1024,0,0,0,0,302.6,0,0,99,4.027,4.02,0,0,0,0,6.085,75.74,680.55804375948,21.981628,6,P-GPS,
9300,2026-04-10 18:12:56,39.8654504517958,-76.1561096996657,21.981628,,,680.55804375948,29.52756,0.4921268,25.3426189212,28.857776514,27,5,8.002,680.55804375948,21.981628,10.9162672,25.7321858628,0.223694,-0.447388,-0.223694,303.4, 9.8, -3.1,0,0,1024,1024,1024,1024,0,0,0,0,302.6,0,0,99,4.027,4.02,0,0,0,0,6.085,75.74,680.55804375948,21.981628,6,P-GPS,
9400,2026-04-10 18:12:56,39.8654504573483,-76.1561099656824,22.309712,,,680.88612775948,29.855644,0.4921268,25.4033472696,28.9323171988,27,5,8.002,680.88612775948,22.309712,10.9162672,25.7321858628,0.223694,-0.447388,-0.223694,303.3, 8.8, -2.3,0,0,1024,1024,1024,1024,0,0,0,0,302.6,0,0,99,4.027,4.02,0,0,0,0,6.085,75.74,680.88612775948,22.309712,6,P-GPS,
9500,2026-04-10 18:12:56,39.8654499416665,-76.1561087187781,22.309712,,,680.88612775948,29.855644,0.3131716,25.0112212728,29.3289707548,27,5,8.002,680.88612775948,22.309712,10.9162672,25.7321858628,0.223694,-0.223694,0,303.3, 8.2, -2.2,0,0,1024,1024,1024,1024,0,0,0,0,302.6,0,0,99,4.027,4.02,0,0,0,0,6.085,75.74,680.88612775948,22.309712,6,P-GPS,
9600,2026-04-10 18:12:56,39.8654497951133,-76.1561085605685,22.309712,,,680.88612775948,29.855644,0.223694,24.9436687772,29.3983933292,27,5,8.002,680.88612775948,22.309712,10.9162672,25.7321858628,0,-0.223694,0,303.5, 8, -2.7,0,0,1024,1024,1024,1024,0,0,0,0,302.6,0,0,99,4.027,4.02,0,0,0,0,6.085,75.74,680.88612775948,22.309712,6,P-GPS,
9700,2026-04-10 18:12:56,39.8654496519125,-76.1561079286125,22.309712,,,680.88612775948,29.855644,0,24.770998168,29.5829405792,27,5,8.002,680.88612775948,22.309712,10.9162672,25.7321858628,0,0,0,303.4, 6.5, -2,0,0,1024,1024,1024,1024,0,0,0,0,302.6,0,0,99,4.027,4.02,0,0,0,0,6.085,75.74,680.88612775948,22.309712,6,P-GPS,
9800,2026-04-10 18:12:56,39.8654494807091,-76.1561076043638,22.309712,,,680.88612775948,29.855644,0,24.6608931776,29.6931439948,27,5,8.002,680.88612775948,22.309712,10.9162672,25.7321858628,0,0,0,303.3, 6.1, -2,0,0,1024,1024,1024,1024,0,0,0,0,302.6,0,0,99,4.027,4.02,0,0,0,0,6.085,75.74,680.88612775948,22.309712,6,P-GPS,
9900,2026-04-10 18:12:56,39.8654496418768,-76.1561073397072,22.309712,,,680.88612775948,29.855644,0,24.6375664052,29.7877634204,27,5,8.02,680.88612775948,22.309712,10.9162672,25.7321858628,0,0,0,303.3, 5.2, -1.5,0,0,1024,1024,1024,1024,0,0,0,0,302.6,0,0,99,3.978,3.975,0,0,0,0,5.262,75.74,680.88612775948,22.309712,6,P-GPS,
10000,2026-04-10 18:12:56,39.8654494883281,-76.1561069177769,22.309712,,,680.88612775948,29.855644,0.223694,24.509679262,29.9185048944,27,5,8.02,680.88612775948,22.309712,10.9162672,25.7321858628,0,0.223694,0,303.5, 2.7, -3.1,0,0,1024,1024,1024,1024,0,0,0,0,302.6,0,0,99,3.978,3.975,0,0,0,0,5.262,75.74,680.88612775948,22.309712,6,P-GPS,
10100,2026-04-10 18:12:56,39.8654493682076,-76.1561065674695,22.309712,,,680.88612775948,29.855644,0,24.4051516996,30.0259524044,27,5,8.02,680.88612775948,22.309712,10.9162672,25.7321858628,0,0,0,303.5, 2.1, -5.4,0,0,1024,1024,1024,1024,0,0,0,0,302.6,0,0,99,3.978,3.975,0,0,0,0,5.262,75.74,680.88612775948,22.309712,6,P-GPS,
10200,2026-04-10 18:12:57,39.8654496347099,-76.156106682077,22.309712,,,680.88612775948,29.855644,0.223694,24.4898957968,30.1283474208,27,5,8.02,680.88612775948,22.309712,10.9162672,25.7321858628,0,-0.223694,0,303.3, 2.7, -4,0,0,1024,1024,1024,1024,0,0,0,0,302.6,0,0,99,3.978,3.975,0,0,0,0,5.262,75.74,680.88612775948,22.309712,6,P-GPS,
10300,2026-04-10 18:12:57,39.8654498239264,-76.156107056705,22.309712,,,680.88612775948,29.855644,0.223694,24.615158268,30.253937976,27,5,8.02,680.88612775948,22.309712,10.9162672,25.7321858628,0,-0.223694,0,303.5, 3.4, -2.4,0,0,1024,1024,1024,1024,0,0,0,0,302.6,0,0,99,3.978,3.975,0,0,0,0,5.262,75.74,680.88612775948,22.309712,6,P-GPS,
10400,2026-04-10 18:12:57,39.8654497790191,-76.1561070466682,22.309712,,,680.88612775948,29.52756,0.3131716,24.6029207348,30.2705718348,27,5,8.02,680.88612775948,22.309712,10.9162672,25.7321858628,0.223694,-0.223694,0.223694,303.5, 5.9, -3,0,0,1024,1024,1024,1024,0,0,0,0,302.6,0,0,99,3.978,3.975,0,0,0,0,5.262,75.74,680.88612775948,22.309712,6,P-GPS,
10500,2026-04-10 18:12:57,39.8654498996636,-76.1561074745059,22.309712,,,680.88612775948,29.52756,0.3131716,24.724738324,30.3981965108,26,5,8.02,680.88612775948,22.309712,10.9162672,25.7321858628,0.223694,-0.223694,0.223694,303.4, 6.5, -2.9,0,0,1024,1024,1024,1024,0,0,0,0,302.6,0,0,99,3.978,3.975,0,0,0,0,5.262,75.74,680.88612775948,22.309712,6,P-GPS,
10600,2026-04-10 18:12:57,39.8654499579525,-76.1561074846041,22.309712,,,680.88612775948,29.199476,0.3131716,24.7399286132,30.4196532044,26,5,8.02,680.88612775948,22.309712,10.9162672,25.7321858628,0.223694,-0.223694,0.223694,303.4, 7.1, -3.5,0,0,1024,1024,1024,1024,0,0,0,0,302.6,0,0,99,3.978,3.975,0,0,0,0,5.262,75.74,680.88612775948,22.309712,6,P-GPS,
10700,2026-04-10 18:12:57,39.8654503534651,-76.156107511065,22.309712,,,680.88612775948,29.199476,0.3131716,24.833990296,30.564141398,27,5,8.02,680.88612775948,22.309712,10.9162672,25.7321858628,0.223694,-0.223694,0.223694,303.3, 7.1, -4.2,0,0,1024,1024,1024,1029,0,0,0,1,302.6,0,0,99,3.978,3.975,0,0,0,0,5.262,75.74,680.88612775948,22.309712,6,P-GPS,
10800,2026-04-10 18:12:57,39.8654504273301,-76.156107483418,22.309712,,,680.88612775948,29.199476,0.3131716,24.8444233672,30.59219258,27,5,8.02,680.88612775948,22.309712,10.9162672,25.7321858628,0.223694,-0.223694,0.223694,303.2, 7.2, -4.9,0,0,1024,1024,1024,1024,0,0,0,0,302.6,0,0,99,3.978,3.975,0,0,0,0,5.262,75.74,680.88612775948,22.309712,6,P-GPS,
10900,2026-04-10 18:12:57,39.8654506589225,-76.156107636261,22.309712,,,680.88612775948,29.199476,0.3131716,24.9300860996,30.6869104308,27,5,8.014,680.88612775948,22.309712,10.9162672,25.7321858628,0.223694,-0.223694,0,303.1, 6.2, -4.4,0,0,1024,1024,1024,1024,0,0,0,0,302.6,0,0,99,4.019,4.019,0,0,0,0,5.151,75.74,680.88612775948,22.309712,6,P-GPS,
11000,2026-04-10 18:12:57,39.865450728974,-76.1561076780244,22.309712,,,680.88612775948,29.199476,0.4921268,24.955053292,30.7150272296,27,5,8.014,680.88612775948,22.309712,10.9162672,25.7321858628,0.223694,-0.447388,0,303.2, 7.2, -4.9,0,0,1024,1024,1024,1105,0,0,0,12,302.6,0,0,99,4.019,4.019,0,0,0,0,5.151,75.74,680.88612775948,22.309712,6,P-GPS,
11100,2026-04-10 18:12:57,39.8654508040843,-76.1561077581462,22.309712,,,680.88612775948,29.199476,0.4921268,24.9896005372,30.7504274932,27,5,8.014,680.88612775948,22.309712,10.9162672,25.7321858628,0.223694,-0.447388,0.223694,303.1, 9.6, -5.3,0,0,1024,1024,1024,1382,0,0,0,54,302.6,0,0,99,4.019,4.019,0,0,0,0,5.151,75.74,680.88612775948,22.309712,6,P-GPS,
11200,2026-04-10 18:12:58,39.8654511454326,-76.1561080852481,22.309712,,,680.88612775948,29.199476,0.4921268,25.1384850564,30.905020674,27,5,8.014,680.88612775948,22.309712,10.9162672,25.7321858628,0.223694,-0.447388,0.223694,303.1, 8.4, -3.7,0,0,1024,1024,1024,1627,0,0,0,91,302.8,0,0,99,4.019,4.019,0,0,0,0,5.151,75.74,680.88612775948,22.309712,6,P-GPS,
11300,2026-04-10 18:12:58,39.8654512777666,-76.1561083766778,22.309712,,,680.88612775948,28.871392,0.4921268,25.2325139308,30.9998697584,27,5,8.014,680.88612775948,22.309712,10.9162672,25.7321858628,0.223694,-0.447388,0,303.3, 7.9, -3.4,0,0,1024,1024,1024,1684,0,0,0,100,304.3,0,0,99,4.019,4.019,0,0,0,0,5.151,75.74,680.88612775948,22.309712,6,P-GPS,
11400,2026-04-10 18:12:58,39.8654513509101,-76.156108524321,22.309712,,,680.88612775948,28.871392,0.4921268,25.2815296804,31.0490823584,27,5,8.014,680.88612775948,22.309712,10.9162672,25.7321858628,0.223694,-0.447388,0,304.1, 8.1, -3.5,0,0,1024,1024,1024,1024,0,0,0,0,308.7,0,0,99,4.019,4.019,0,0,0,0,5.151,75.74,680.88612775948,22.309712,6,P-GPS,
11500,2026-04-10 18:12:58,39.8654514990541,-76.1561088985247,22.309712,,,680.88612775948,28.871392,0.4921268,25.3973433324,31.166995748,26,5,8.014,680.88612775948,22.309712,10.9162672,25.7321858628,0.223694,-0.447388,0,307.4, 9, -2.8,0,0,1024,1024,1024,1024,0,0,0,0,308.7,0,0,99,4.019,4.019,0,0,0,0,5.151,75.74,680.88612775948,22.309712,6,P-GPS,
11600,2026-04-10 18:12:58,39.8654516244269,-76.156109053184,22.309712,,,680.88612775948,28.871392,0.4921268,25.459646484,31.229987876,26,5,8.014,680.88612775948,22.309712,10.9162672,25.7321858628,0.223694,-0.447388,0,313.3, 9.2, -2.5,0,0,1024,1024,1024,1024,0,0,0,0,313.9,0,0,99,4.019,4.019,0,0,0,0,5.151,75.74,680.88612775948,22.309712,6,P-GPS,
11700,2026-04-10 18:12:58,39.8654518522528,-76.1561093347105,22.309712,,,680.88612775948,28.871392,0.3131716,25.5729666976,31.3445220004,26,5,8.014,680.88612775948,22.309712,10.9162672,25.7321858628,0.223694,-0.223694,0,317.6, 9.7, -3.2,0,0,1018,1329,1024,1024,-1,46,0,0,318.2,0,0,99,4.019,4.019,0,0,0,0,5.151,75.74,680.88612775948,22.309712,6,P-GPS,
11800,2026-04-10 18:12:58,39.8654519591679,-76.1561095254377,22.309712,,,680.88612775948,28.543308,0.3131716,25.6390756236,31.4106637348,26,5,8.014,680.88612775948,22.309712,10.9162672,25.7321858628,0.223694,-0.223694,0,319, 10.4, -3.6,0,0,1013,1578,1024,1024,-2,84,0,0,318.5,0,0,99,4.019,4.019,0,0,0,0,5.151,75.74,680.88612775948,22.309712,6,P-GPS,
11900,2026-04-10 18:12:58,39.8654518696,-76.1561098799135,22.309712,,,680.88612775948,28.543308,0.4921268,25.6972121084,31.5151912972,26,5,8.014,680.88612775948,22.309712,10.9162672,25.7321858628,0.223694,-0.447388,0,319.5, 9.6, -0.1,0,0,1013,1598,1024,1024,-2,87,0,0,318.5,0,0,99,3.997,3.994,0,0,0,0,5.151,75.92,680.88612775948,22.309712,6,P-GPS,
12000,2026-04-10 18:12:58,39.8654519020359,-76.1561101784373,22.309712,,,680.88612775948,28.215224,0.3131716,25.770506074,31.5996073104,26,5,8.014,680.88612775948,22.309712,10.9162672,25.770506074,0.223694,-0.223694,0,319.8, 9.2, 3.3,0,0,1024,1641,1024,1024,0,93,0,0,318.5,0,0,99,3.997,3.994,0,0,0,0,5.151,75.92,680.88612775948,22.309712,6,P-GPS,
12100,2026-04-10 18:12:58,39.8654519541449,-76.1561104280701,22.309712,,,680.88612775948,28.215224,0.3131716,25.83743521,31.6720482576,26,5,8.014,680.88612775948,22.309712,10.9162672,25.83743521,0.223694,-0.223694,0,319.8, 8.9, 4.5,0,0,1024,1605,1024,1024,0,88,0,0,318.5,0,0,99,3.997,3.994,0,0,0,0,5.151,75.92,680.88612775948,22.309712,6,P-GPS,
12200,2026-04-10 18:12:59,39.865452144974,-76.1561106779926,22.309712,,,680.88612775948,27.88714,0.447388,25.935368284,31.7707687332,26,5,8.014,680.88612775948,22.309712,10.9162672,25.935368284,0.447388,0,0,319.8, 8.8, 4.7,0,0,1024,1376,1024,1024,0,53,0,0,318.5,0,0,99,3.997,3.994,0,0,0,0,5.151,75.92,680.88612775948,22.309712,6,P-GPS,
12300,2026-04-10 18:12:59,39.8654527689379,-76.1561102783101,22.309712,,,680.88612775948,27.88714,0.7158208,25.9874352148,32.0244760904,27,5,8.014,680.88612775948,22.309712,10.9162672,25.9874352148,0.671082,0.223694,0,319.9, 9.5, 4.5,0,0,1024,1024,1024,489,0,0,0,-81,318.5,0,0,99,3.997,3.994,0,0,0,0,5.151,75.92,680.88612775948,22.309712,6,P-GPS,
12400,2026-04-10 18:12:59,39.8654531027561,-76.1561101498661,22.309712,,,680.88612775948,27.559056,0.8052984,26.034941778,32.1514445984,27,5,8.014,680.88612775948,22.309712,10.9162672,26.034941778,0.671082,0.447388,0,320, 10.1, 3,0,0,1024,1024,1024,364,0,0,0,-100,318.2,0,0,99,3.997,3.994,0,0,0,0,5.151,75.92,680.88612775948,22.309712,6,P-GPS,
12500,2026-04-10 18:12:59,39.8654536527006,-76.1561096913229,22.309712,,,680.88612775948,27.559056,1.006623,26.0606635636,32.3896663908,27,5,8.014,680.88612775948,22.309712,10.9162672,26.0606635636,0.894776,0.447388,0,319.5, 10.3, -0.9,0,0,1024,1024,1024,364,0,0,0,-100,315.5,0,0,99,3.997,3.994,0,0,0,0,5.151,75.92,680.88612775948,22.309712,6,P-GPS,
12600,2026-04-10 18:12:59,39.865454052903,-76.1561094344126,22.309712,,,680.88612775948,27.230972,0.8052984,26.0973105464,32.5524616716,27,5,8.014,680.88612775948,22.309712,10.9162672,26.0973105464,0.671082,0.447388,0,317.2, 9.9, -4.1,0,0,1024,1024,1024,364,0,0,0,-100,315.5,0,0,99,3.997,3.994,0,0,0,0,5.151,75.92,680.88612775948,22.309712,6,P-GPS,
12700,2026-04-10 18:12:59,39.8654541712827,-76.1561091950125,22.309712,,,680.88612775948,27.230972,0.8052984,26.0730651388,32.632218892,27,5,8.014,680.88612775948,22.309712,10.9162672,26.0973105464,0.671082,0.447388,0.223694,312.6, 9.7, -5.5,0,0,1024,1024,1024,364,0,0,0,-100,310.4,0,0,99,3.997,3.994,0,0,0,0,5.151,75.92,680.88612775948,22.309712,6,P-GPS,
12800,2026-04-10 18:12:59,39.8654544789606,-76.1561090279652,22.309712,,,680.88612775948,27.230972,0.7158208,26.1088262948,32.7538068224,27,5,8.014,680.88612775948,22.309712,10.9162672,26.1088262948,0.671082,0.223694,0.223694,306.4, 9.3, -5,0,0,1024,1024,1024,364,0,0,0,-100,297.3,0,0,99,3.997,3.994,0,0,0,0,5.151,75.92,680.88612775948,22.309712,6,P-GPS,
12900,2026-04-10 18:12:59,39.8654545803102,-76.1561090506919,22.309712,,,680.88612775948,26.902888,0.7158208,26.1374024112,32.791339632,27,5,7.941,680.88612775948,22.309712,10.9162672,26.1374024112,0.671082,0.223694,0,299.7, 8.6, -4.3,0,0,1024,1024,1024,364,0,0,0,-100,290.6,0,0,99,4.001,3.995,0,0,0,0,7.062,76.1,680.88612775948,22.309712,6,P-GPS,
13000,2026-04-10 18:12:59,39.8654548338047,-76.1561088968634,22.309712,,,680.88612775948,26.902888,0.7158208,26.16387879,32.893373756,27,5,7.941,680.88612775948,22.309712,10.9162672,26.16387879,0.671082,0.223694,0,293, 8.4, -4.7,0,0,1024,1024,1024,364,0,0,0,-100,283.7,0,0,99,4.001,3.995,0,0,0,0,7.062,76.1,680.88612775948,22.309712,6,P-GPS,
13100,2026-04-10 18:12:59,39.865455157793,-76.1561086616148,22.309712,,,680.88612775948,26.902888,0.7158208,26.1899942764,33.028544364,27,5,7.941,680.88612775948,22.309712,10.9162672,26.1899942764,0.671082,0.223694,0,286.1, 7, -4.9,0,0,1024,1024,1024,364,0,0,0,-100,276.7,0,0,99,4.001,3.995,0,0,0,0,7.062,76.1,680.88612775948,22.309712,6,P-GPS,
13200,2026-04-10 18:13:00,39.865455539645,-76.1561083931125,22.309712,,,680.88612775948,26.574804,0.7158208,26.2234916528,33.187008936,27,5,7.941,680.88612775948,22.309712,10.9162672,26.2234916528,0.671082,0.223694,0,279.2, 6.5, -6.1,0,0,1024,1024,1024,364,0,0,0,-100,269.7,0,0,99,4.001,3.995,0,0,0,0,7.062,76.1,680.88612775948,22.309712,6,P-GPS,
13300,2026-04-10 18:13:00,39.8654560962995,-76.1561080157776,22.309712,,,680.88612775948,26.574804,0.8052984,26.2769365364,33.416011568,27,5,7.941,680.88612775948,22.309712,10.9162672,26.2769365364,0.671082,0.447388,0,272.2, 6.1, -6.8,0,0,1024,1024,1024,364,0,0,0,-100,262.7,0,0,99,4.001,3.995,0,0,0,0,7.062,76.1,680.88612775948,22.309712,6,P-GPS,
13400,2026-04-10 18:13:00,39.8654565373211,-76.1561075493652,22.309712,,,680.88612775948,26.574804,0.8052984,26.2855651456,33.623032572,27,5,7.941,680.88612775948,22.309712,10.9162672,26.2855651456,0.671082,0.447388,0,265.1, 3.9, -5.9,0,0,1024,1024,1024,364,0,0,0,-100,255.7,0,0,99,4.001,3.995,0,0,0,0,7.062,76.1,680.88612775948,22.309712,6,P-GPS,
13500,2026-04-10 18:13:00,39.8654566975219,-76.1561077467405,22.309712,,,680.88612775948,26.24672,0.8052984,26.3657160668,33.703741236,27,5,7.941,680.88612775948,22.309712,10.9162672,26.3657160668,0.671082,0.447388,0,258.1, 2.6, -5.8,0,0,1024,1024,1024,364,0,0,0,-100,248.7,0,0,99,4.001,3.995,0,0,0,0,7.062,76.1,680.88612775948,22.309712,6,P-GPS,
13600,2026-04-10 18:13:00,39.8654571389556,-76.1561074454812,22.309712,,,680.88612775948,26.24672,0.9171454,26.410433916,33.885499772,27,5,7.941,680.88612775948,22.309712,10.9162672,26.410433916,0.894776,0.223694,0,251.1, 1.7, -5.5,0,0,1024,1024,1021,364,0,0,-0,-100,241.8,0,0,99,4.001,3.995,0,0,0,0,7.062,76.1,680.88612775948,22.309712,6,P-GPS,
13700,2026-04-10 18:13:00,39.8654573279333,-76.156108086521,22.309712,,,680.88612775948,25.918636,0.9171454,26.5899614808,34.077756996,27,5,7.941,680.88612775948,22.309712,10.9162672,26.5899614808,0.894776,0.223694,0,244.1, 0, -5.7,0,0,1024,1024,1024,420,0,0,0,-92,234.8,0,0,99,4.001,3.995,0,0,0,0,7.062,76.1,680.88612775948,22.309712,6,P-GPS,
13800,2026-04-10 18:13:00,39.8654578420165,-76.1561079247235,22.309712,,,680.88612775948,25.590552,1.1408394,26.6821530848,34.270670388,27,5,7.941,680.88612775948,22.309712,10.9162672,26.6821530848,1.11847,0.223694,0,237.3, -1, -6.9,0,0,1024,1024,1024,1024,0,0,0,0,228.6,0,0,99,4.001,3.995,0,0,0,0,7.062,76.1,680.88612775948,22.309712,6,P-GPS,
13900,2026-04-10 18:13:00,39.8654582200092,-76.1561084736881,22.309712,,,680.88612775948,25.590552,1.1408394,26.8886491544,34.477363308,27,5,8.024,680.88612775948,22.309712,10.9162672,26.8886491544,1.11847,0,0,230.9, -2.2, -8.4,0,0,1024,1024,1024,1024,0,0,0,0,225.2,0,0,98,4.001,3.995,0,0,0,0,4.818,76.28,680.88612775948,22.309712,6,P-GPS,
14000,2026-04-10 18:13:00,39.8654586803083,-76.1561085209971,22.309712,,,680.88612775948,25.262468,1.11847,27.0117134628,34.6456704,27,5,8.024,680.88612775948,22.309712,10.9162672,27.0117134628,1.11847,0,0,226.5, -2.8, -9.2,0,0,1024,1024,1024,1024,0,0,0,0,223.6,0,0,98,4.001,3.995,0,0,0,0,4.818,76.28,680.88612775948,22.309712,6,P-GPS,
14100,2026-04-10 18:13:01,39.8654590967477,-76.1561086360614,22.309712,,,680.88612775948,25.262468,1.11847,27.1383210784,34.801182216,27,5,8.024,680.88612775948,22.309712,10.9162672,27.1383210784,1.11847,0,0,224.5, -3.5, -9.1,0,0,1024,1024,1024,1024,0,0,0,0,223.2,0,0,98,4.001,3.995,0,0,0,0,4.818,76.28,680.88612775948,22.309712,6,P-GPS,
14200,2026-04-10 18:13:01,39.8654594055198,-76.1561093396071,22.309712,,,680.88612775948,24.934384,1.11847,27.3595481196,35.02788826,26,5,8.024,680.88612775948,22.309712,10.9162672,27.3595481196,0.894776,0,0,223.9, -3.8, -9.3,0,0,1024,1024,1024,1024,0,0,0,0,223.2,0,0,98,4.001,3.995,0,0,0,0,4.818,76.28,680.88612775948,22.309712,6,P-GPS,
14300,2026-04-10 18:13:01,39.8654596906574,-76.1561099391125,22.309712,,,680.88612775948,24.934384,0.9171454,27.5535441888,35.225394828,25,5,8.024,680.88612775948,22.309712,10.9162672,27.5535441888,0.894776,-0.223694,0,223.9, -4.1, -9.3,0,0,1024,1024,1024,1024,0,0,0,0,223.2,0,0,98,4.001,3.995,0,0,0,0,4.818,76.28,680.88612775948,22.309712,6,P-GPS,
14400,2026-04-10 18:13:01,39.8654599538742,-76.1561101963915,22.309712,,,680.88612775948,24.6063,0.9171454,27.6715560036,35.345473572,25,5,8.024,680.88612775948,22.309712,10.9162672,27.6715560036,0.894776,-0.223694,0,223.9, -3.8, -9.2,0,0,1024,1024,1024,1024,0,0,0,0,223.2,0,0,98,4.001,3.995,0,0,0,0,4.818,76.28,680.88612775948,22.309712,6,P-GPS,
14500,2026-04-10 18:13:01,39.8654600398108,-76.1561104055316,22.309712,,,680.88612775948,24.6063,0.9171454,27.7359260844,35.412074624,26,5,8.024,680.88612775948,22.309712,10.9162672,27.7359260844,0.671082,-0.223694,0,223.8, -3.6, -9.5,0,0,1024,1024,1024,1024,0,0,0,0,223.2,0,0,98,4.001,3.995,0,0,0,0,4.818,76.28,680.88612775948,22.309712,6,P-GPS,
14600,2026-04-10 18:13:01,39.8654602453054,-76.1561107774452,22.309712,,,680.88612775948,24.6063,0.7158208,27.86335391,35.540355468,26,5,8.024,680.88612775948,22.309712,10.9162672,27.86335391,0.671082,-0.223694,0,223.7, -3.3, -9.9,0,0,1024,1024,1024,1024,0,0,0,0,223.2,0,0,98,4.001,3.995,0,0,0,0,4.818,76.28,680.88612775948,22.309712,6,P-GPS,
14700,2026-04-10 18:13:01,39.865460351269,-76.1561112913448,22.309712,,,680.88612775948,24.278216,0.7158208,27.9956373788,35.689305604,26,5,8.024,680.88612775948,22.309712,10.9162672,27.9956373788,0.671082,-0.223694,0,223.6, -2.4, -9.5,0,0,1024,1024,1024,1024,0,0,0,0,223.2,0,0,98,4.001,3.995,0,0,0,0,4.818,76.28,680.88612775948,22.309712,6,P-GPS,
14800,2026-04-10 18:13:01,39.8654605420764,-76.1561117067159,22.309712,,,680.88612775948,24.278216,0.8052984,28.1284785904,35.824804296,26,5,8.024,680.88612775948,22.309712,10.9162672,28.1284785904,0.671082,-0.447388,0,223.5, -2.3, -8.7,0,0,1024,1024,1024,1024,0,0,0,0,223.2,0,0,98,4.001,3.995,0,0,0,0,4.818,76.28,680.88612775948,22.309712,6,P-GPS,
14900,2026-04-10 18:13:01,39.8654608750913,-76.1561119001405,22.309712,,,680.88612775948,24.278216,0.8052984,28.2503946048,35.9580064,26,5,8.001,680.88612775948,22.309712,10.9162672,28.2503946048,0.671082,-0.447388,0,223.5, -2.7, -9.2,0,0,1024,1024,1024,1024,0,0,0,0,223.2,0,0,98,4.006,3.999,0,0,0,0,5.211,76.28,680.88612775948,22.309712,6,P-GPS,
15000,2026-04-10 18:13:01,39.8654610257323,-76.1561123743274,22.309712,,,680.88612775948,23.950132,0.8052984,28.3855324044,36.101707192,26,5,8.001,680.88612775948,22.309712,10.9162672,28.3855324044,0.671082,-0.447388,0,223.5, -2.4, -9.8,0,0,1024,1024,1024,1024,0,0,0,0,223.2,0,0,98,4.006,3.999,0,0,0,0,5.211,76.28,680.88612775948,22.309712,6,P-GPS,
15100,2026-04-10 18:13:01,39.8654611810029,-76.1561128608977,22.309712,,,680.88612775948,23.950132,0.6263432,28.52444317,36.249344992,26,5,8.001,680.88612775948,22.309712,10.9162672,28.52444317,0.447388,-0.447388,0,223.4, -1.8, -9.8,0,0,1024,1024,1024,1024,0,0,0,0,223.2,0,0,98,4.006,3.999,0,0,0,0,5.211,76.28,680.88612775948,22.309712,6,P-GPS,
15200,2026-04-10 18:13:02,39.8654612554282,-76.1561130314289,22.309712,,,680.88612775948,23.950132,0.6263432,28.5780520956,36.30413502,25,5,8.001,680.88612775948,22.309712,10.9162672,28.5780520956,0.447388,-0.447388,0,223.4, -1.1, -9.8,0,0,1024,1024,1024,1024,0,0,0,0,223.2,0,0,98,4.006,3.999,0,0,0,0,5.211,76.28,680.88612775948,22.309712,6,P-GPS,
15300,2026-04-10 18:13:02,39.865461661688,-76.1561129483267,22.309712,,,680.88612775948,23.950132,0.8052984,28.6606964552,36.454069408,24,5,8.001,680.88612775948,22.309712,10.9162672,28.6606964552,0.671082,-0.447388,0,223.6, -1.8, -10.2,0,0,1024,1024,1024,1024,0,0,0,0,223.2,0,0,98,4.006,3.999,0,0,0,0,5.211,76.28,680.88612775948,22.309712,6,P-GPS,
15400,2026-04-10 18:13:02,39.8654618745906,-76.1561132912278,22.309712,,,680.88612775948,23.950132,0.8052984,28.783957614,36.577757076,24,5,8.001,680.88612775948,22.309712,10.9162672,28.783957614,0.671082,-0.447388,0,223.8, -2.8, -10.9,0,0,1024,1024,1024,1024,0,0,0,0,223.2,0,0,98,4.006,3.999,0,0,0,0,5.211,76.28,680.88612775948,22.309712,6,P-GPS,
15500,2026-04-10 18:13:02,39.8654622836051,-76.1561133662177,22.309712,,,680.88612775948,23.622048,0.8052984,28.9003290088,36.728347632,25,5,8.001,680.88612775948,22.309712,10.9162672,28.9003290088,0.671082,-0.447388,0,223.8, -2.8, -11.3,0,0,1024,1024,1024,1024,0,0,0,0,223.2,0,0,98,4.006,3.999,0,0,0,0,5.211,76.28,680.88612775948,22.309712,6,P-GPS,
15600,2026-04-10 18:13:02,39.8654624656004,-76.1561136856457,22.309712,,,680.88612775948,23.622048,0.6263432,29.0111229756,36.839896192,25,5,8.001,680.88612775948,22.309712,10.9162672,29.0111229756,0.447388,-0.447388,0,223.5, -1.7, -11.5,0,0,1024,1024,1024,1024,0,0,0,0,223.2,0,0,98,4.006,3.999,0,0,0,0,5.211,76.28,680.88612775948,22.309712,6,P-GPS,
15700,2026-04-10 18:13:02,39.8654626327305,-76.1561139821246,22.309712,,,680.88612775948,23.622048,0.6263432,29.113517992,36.942914568,25,5,8.001,680.88612775948,22.309712,10.9162672,29.113517992,0.447388,-0.447388,0,223.5, -0.5, -11.4,0,0,1024,1024,1024,1000,0,0,0,-4,223.2,0,0,98,4.006,3.999,0,0,0,0,5.211,76.28,680.88612775948,22.309712,6,P-GPS,
15800,2026-04-10 18:13:02,39.8654628043891,-76.1561142089645,22.309712,,,680.88612775948,23.622048,0.7158208,29.2026584148,37.032153416,25,5,8.001,680.88612775948,22.309712,10.9162672,29.2026584148,0.671082,-0.223694,0,223.6, -1.9, -10.5,0,0,1024,1024,1024,411,0,0,0,-93,223.1,0,0,98,4.006,3.999,0,0,0,0,5.211,76.28,680.88612775948,22.309712,6,P-GPS,
15900,2026-04-10 18:13:02,39.8654631251047,-76.1561144667008,22.309712,,,680.88612775948,23.622048,0.7158208,29.3350075004,37.169620612,25,5,8.001,680.88612775948,22.309712,10.9162672,29.3350075004,0.671082,-0.223694,0.223694,223.7, -3, -11.2,0,0,1024,1024,992,364,0,0,-5,-100,221.4,0,0,98,4.001,3.996,0,0,0,0,5.211,76.28,680.88612775948,22.309712,6,P-GPS,
16000,2026-04-10 18:13:02,39.8654633067179,-76.1561146468843,22.309712,,,680.88612775948,23.622048,0.4921268,29.4170285004,37.252625864,25,5,8.001,680.88612775948,22.309712,10.9162672,29.4170285004,0.447388,-0.223694,0,223, -3.5, -10.6,0,0,1024,1024,1024,1035,0,0,0,2,217.1,0,0,98,4.001,3.996,0,0,0,0,5.211,76.28,680.88612775948,22.309712,6,P-GPS,
16100,2026-04-10 18:13:02,39.8654634975514,-76.156114877915,22.309712,,,680.88612775948,23.293964,0.4921268,29.511811968,37.347770224,25,5,8.001,680.88612775948,22.309712,10.9162672,29.511811968,0.447388,-0.223694,0,219.2, -3.2, -10.4,0,0,1024,1024,1024,1024,0,0,0,0,213.1,0,0,98,4.001,3.996,0,0,0,0,5.211,76.28,680.88612775948,22.309712,6,P-GPS,
16200,2026-04-10 18:13:03,39.8654638624144,-76.1561149273362,22.309712,,,680.88612775948,23.293964,0.4921268,29.6124025224,37.481628496,25,5,8.001,680.88612775948,22.309712,10.9162672,29.6124025224,0.447388,-0.223694,0,214.3, -2.7, -10.9,0,0,1024,1024,1024,1024,0,0,0,0,211,0,0,98,4.001,3.996,0,0,0,0,5.211,76.28,680.88612775948,22.309712,6,P-GPS,
16300,2026-04-10 18:13:03,39.865464206376,-76.1561151573642,22.309712,,,680.88612775948,23.293964,0.4921268,29.7450468836,37.622704616,25,5,8.001,680.88612775948,22.309712,10.9162672,29.7450468836,0.447388,-0.223694,0,211.4, -3.1, -11.6,0,0,1024,1024,998,1618,0,0,-4,90,210.1,0,0,98,4.001,3.996,0,0,0,0,5.211,76.28,680.88612775948,22.309712,6,P-GPS,
16400,2026-04-10 18:13:03,39.8654644388272,-76.1561153310943,22.309712,,,680.88612775948,23.293964,0.4921268,29.8384852068,37.720473648,25,5,8.001,680.88612775948,22.309712,10.9162672,29.8384852068,0.447388,-0.223694,0,210.6, -4.4, -11.4,0,0,1024,1024,997,1684,0,0,-4,100,210.3,0,0,98,4.001,3.996,0,0,0,0,5.211,76.28,680.88612775948,22.309712,6,P-GPS,
16500,2026-04-10 18:13:03,39.8654646619724,-76.1561154167056,22.309712,,,680.88612775948,23.293964,0.447388,29.911582322,37.805447404,25,5,8.001,680.88612775948,22.309712,10.9162672,29.911582322,0.447388,0,0,210.6, -5.7, -11.8,0,0,1024,1024,1006,1684,0,0,-3,100,213.8,0,0,98,4.001,3.996,0,0,0,0,5.211,76.28,680.88612775948,22.309712,6,P-GPS,
16600,2026-04-10 18:13:03,39.8654649695345,-76.1561150565852,22.309712,,,680.88612775948,23.293964,0.447388,29.915027204,37.956366044,25,5,8.001,680.88612775948,22.309712,10.9162672,29.915027204,0.447388,0,0.223694,212.9, -5.6, -11.8,0,0,1024,1024,1024,1290,0,0,0,40,219.9,0,0,98,4.001,3.996,0,0,0,0,5.211,76.28,680.88612775948,22.309712,6,P-GPS,
16700,2026-04-10 18:13:03,39.8654650862286,-76.1561148320533,22.309712,,,680.88612775948,22.96588,0.447388,29.8987214292,38.032153448,25,5,8.001,680.88612775948,22.309712,10.9162672,29.915027204,0.447388,0,0,218.7, -5.6, -11.2,0,0,1024,1024,1024,1024,0,0,0,0,225.8,0,0,98,4.001,3.996,0,0,0,0,5.211,76.28,680.88612775948,22.309712,6,P-GPS,
16800,2026-04-10 18:13:03,39.865465213023,-76.1561148259567,22.309712,,,680.88612775948,22.96588,0.223694,29.9293644748,38.078413292,25,5,8.001,680.88612775948,22.309712,10.9162672,29.9293644748,0.223694,0,0,225.8, -5, -11.3,0,0,1024,1024,1024,1024,0,0,0,0,228.8,0,0,98,4.001,3.996,0,0,0,0,5.211,76.28,680.88612775948,22.309712,6,P-GPS,
16900,2026-04-10 18:13:03,39.8654653361069,-76.1561150529082,22.309712,,,680.88612775948,22.96588,0.223694,30.0063657896,38.1561692,24,5,8.001,680.88612775948,22.309712,10.9162672,30.0063657896,0.223694,0,0,229.7, -5.3, -11.3,0,0,1024,1024,1024,1024,0,0,0,0,230.1,0,0,98,4.002,3.999,0,0,0,0,4.922,76.46,680.88612775948,22.309712,6,P-GPS,
17000,2026-04-10 18:13:03,39.8654654067639,-76.1561151696719,22.309712,,,680.88612775948,22.96588,0.3131716,30.0478027988,38.197835868,24,5,8.001,680.88612775948,22.309712,10.9162672,30.0478027988,0.223694,-0.223694,0,231, -4.3, -12.2,0,0,1024,1024,1024,1024,0,0,0,0,230.5,0,0,98,4.002,3.999,0,0,0,0,4.922,76.46,680.88612775948,22.309712,6,P-GPS,
17100,2026-04-10 18:13:03,39.8654654335097,-76.1561153666519,22.309712,,,680.88612775948,22.96588,0.223694,30.0945219604,38.253938232,24,5,8.001,680.88612775948,22.309712,10.9162672,30.0945219604,0,-0.223694,0,231, -2.1, -12.9,0,0,1024,1024,1024,1024,0,0,0,0,230.5,0,0,98,4.002,3.999,0,0,0,0,4.922,76.46,680.88612775948,22.309712,6,P-GPS,
17200,2026-04-10 18:13:04,39.8654654021513,-76.1561157053398,22.309712,,,680.88612775948,22.96588,0.223694,30.1554799676,38.349410676,24,5,8.001,680.88612775948,22.309712,10.9162672,30.1554799676,0,-0.223694,0,230.7, -0.4, -11.9,0,0,1024,1024,1024,1024,0,0,0,0,230.5,0,0,98,4.002,3.999,0,0,0,0,4.922,76.46,680.88612775948,22.309712,6,P-GPS,
17300,2026-04-10 18:13:04,39.8654652201769,-76.1561160640563,22.309712,,,680.88612775948,22.96588,0.223694,30.1831374488,38.469817504,25,5,8.001,680.88612775948,22.309712,10.9162672,30.1831374488,0,-0.223694,0,230.4, 0.3, -12.7,0,0,1024,1024,1024,1024,0,0,0,0,230.5,0,0,98,4.002,3.999,0,0,0,0,4.922,76.46,680.88612775948,22.309712,6,P-GPS,
17400,2026-04-10 18:13:04,39.8654652262019,-76.1561162122845,22.309712,,,680.88612775948,22.96588,0,30.2149287884,38.511484172,25,5,8.001,680.88612775948,22.309712,10.9162672,30.2149287884,0,0,0,230.6, 0.1, -13.2,0,0,1024,1024,1024,1024,0,0,0,0,230.5,0,0,98,4.002,3.999,0,0,0,0,4.922,76.46,680.88612775948,22.309712,6,P-GPS,
