time(millisecond),datetime(utc),latitude,longitude,height_above_takeoff(feet),height_above_ground_at_drone_location(feet),ground_elevation_at_drone_location(feet),altitude_above_seaLevel(feet),height_sonar(feet),speed(mph),distance(feet),mileage(feet),satellites,gpslevel,voltage(v),max_altitude(feet),max_ascent(feet),max_speed(mph),max_distance(feet), xSpeed(mph), ySpeed(mph), zSpeed(mph), compass_heading(degrees), pitch(degrees), roll(degrees),isPhoto,isVideo,rc_elevator,rc_aileron,rc_throttle,rc_rudder,rc_elevator(percent),rc_aileron(percent),rc_throttle(percent),rc_rudder(percent),gimbal_heading(degrees),gimbal_pitch(degrees),gimbal_roll(degrees),battery_percent,voltageCell1,voltageCell2,voltageCell3,voltageCell4,voltageCell5,voltageCell6,current(A),battery_temperature(f),altitude(feet),ascent(feet),flycStateRaw,flycState,message
1700,2026-03-30 12:31:59,39.8649784369348,-76.1545938884726,0,Available with any HD 360 subscription,Available with any HD 360 subscription,654.18115347973,0.328084,0,0,0,28,5,0,654.18115347973,0,0,0,0,0,0,227.9, -12, -3.5,0,0,1024,1024,1024,1024,0,0,0,0,291.6,0,0,90,4.079,4.079,0,0,0,0,0,82.58,654.18115347973,0,6,P-GPS,"Flying over urban terrain. Propeller rotation not smooth or collision detected. Check if propeller is installed properly or replace propellers (Code: 1612000A). Aircraft not in flight. Vision systems and obstacle avoidance disabled (Code: 180059). Remote ID functionality norma"
1800,2026-03-30 12:31:59,39.8649784358247,-76.154593887854,0,,,654.18115347973,0.328084,0,0.0004405183868,0.0004405183868,28,5,0,654.18115347973,0,0,0.0004405183868,0,0,0,228, -12, -3.5,0,0,1024,1024,1024,1024,0,0,0,0,291.6,0,0,90,4.079,4.079,0,0,0,0,0,82.58,654.18115347973,0,41,Motors_Started,
1900,2026-03-30 12:31:59,39.8649784458287,-76.1545939750807,0,,,654.18115347973,0.328084,0,0.0244700795232,0.0251389115656,28,5,0,654.18115347973,0,0,0.0244700795232,0,0,0,227.9, -12, -3.5,0,0,1024,1024,1024,1024,0,0,0,0,291.6,0,0,90,4.079,4.079,0,0,0,0,0,82.58,654.18115347973,0,41,Motors_Started,"Setting new Return-To-Home altitude to 100m (328 ft). Data Recorder File Index is 25. Setting new Maximum Flight Altitude to 120m (394 ft)"
2000,2026-03-30 12:31:59,39.8649784462667,-76.1545939733308,0,,,654.18115347973,0.328084,0,0.0240065952564,0.025654364338,28,5,0,654.18115347973,0,0,0.0244700795232,0,0,0,228, -12, -3.5,0,0,1024,1024,1024,1024,0,0,0,0,291.6,0,0,90,4.079,4.079,0,0,0,0,0,82.58,654.18115347973,0,41,Motors_Started,
2100,2026-03-30 12:31:59,39.86497844684,-76.1545939784076,0,,,654.18115347973,0.328084,0,0.0254436359848,0.0270914050664,28,5,0,654.18115347973,0,0,0.0254436359848,0,0,0,227.9, -12, -3.5,0,0,1024,1024,1024,1024,0,0,0,0,291.6,0,0,90,4.079,4.079,0,0,0,0,0,82.58,654.18115347973,0,41,Motors_Started,
2200,2026-03-30 12:31:59,39.8649784466468,-76.1545939801965,0,,,654.18115347973,0.328084,0,0.0259298892812,0.0275973105944,28,5,0,654.18115347973,0,0,0.0259298892812,0,0,0,228, -12, -3.5,0,0,1024,1024,1024,1024,0,0,0,0,291.6,0,0,90,4.079,4.079,0,0,0,0,0,82.58,654.18115347973,0,41,Motors_Started,
2300,2026-03-30 12:31:59,39.8649783460272,-76.1545940874633,0,,,654.18115347973,0.328084,0,0.064849411524,0.075032154632,28,5,0,654.18115347973,0,0,0.064849411524,0,0,0,227.9, -12, -3.5,0,0,1024,1024,1024,1024,0,0,0,0,291.6,0,0,90,4.079,4.079,0,0,0,0,0,82.58,654.18115347973,0,41,Motors_Started,
2400,2026-03-30 12:31:59,39.8649783447367,-76.154594090885,0,,,654.18115347973,0.328084,0,0.06591371602,0.076099739968,28,5,0,654.18115347973,0,0,0.06591371602,0,0,0,227.9, -12, -3.5,0,0,1024,1024,1024,1024,0,0,0,0,291.6,0,0,90,4.079,4.079,0,0,0,0,0,82.58,654.18115347973,0,41,Motors_Started,
2500,2026-03-30 12:31:59,39.8649783439271,-76.1545939912478,0,,,654.18115347973,0.328084,0,0.044495736332,0.104003940336,28,5,0,654.18115347973,0,0,0.06591371602,0,0,0,227.9, -12, -3.5,0,0,1024,1024,1024,1024,0,0,0,0,291.6,0,0,90,4.079,4.079,0,0,0,0,0,82.58,654.18115347973,0,41,Motors_Started,
2600,2026-03-30 12:31:59,39.8649783443093,-76.1545939926187,0,,,654.18115347973,0.328084,0,0.044639437124,0.104412404916,28,5,0,654.18115347973,0,0,0.06591371602,0,0,0,227.8, -12, -3.6,0,0,1024,1024,1024,1024,0,0,0,0,291.6,0,0,90,4.079,4.079,0,0,0,0,0,82.58,654.18115347973,0,41,Motors_Started,
2700,2026-03-30 12:32:00,39.8649783540793,-76.1545940853289,0,,,654.18115347973,0.328084,0,0.062872705424,0.130618770584,28,5,0,654.18115347973,0,0,0.06591371602,0,0,0,228.3, -12.2, -3.3,0,0,1024,1024,1024,1024,0,0,0,0,291.6,0,0,90,4.079,4.079,0,0,0,0,0,82.58,654.18115347973,0,41,Motors_Started,
2800,2026-03-30 12:32:00,39.8649783596235,-76.154594084376,0,,,654.18115347973,0.328084,0,0.0616879941,0.13265912498,28,5,0,654.18115347973,0,0,0.06591371602,0,0,0,228.2, -12.4, -3.4,0,0,1024,1024,1024,1024,0,0,0,0,291.6,0,0,90,4.079,4.079,0,0,0,0,0,82.58,654.18115347973,0,41,Motors_Started,
2900,2026-03-30 12:32:00,39.8649783595955,-76.1545940715361,0,,,654.18115347973,0.328084,0,0.058518046492,0.13625492562,28,5,0,654.18115347973,0,0,0.06591371602,0,0,0,227.8, -12.3, -3.7,0,0,1024,1024,1024,1024,0,0,0,0,291.6,0,0,90,4.079,4.079,0,0,0,0,0,82.58,654.18115347973,0,41,Motors_Started,
3000,2026-03-30 12:32:00,39.8649783587194,-76.1545940623743,0,,,654.18115347973,0.328084,0,0.056444883696,0.13884022754,28,5,0,654.18115347973,0,0,0.06591371602,0,0,0,227.6, -12.5, -3.6,0,0,1024,1024,1024,1024,0,0,0,0,291.6,0,0,90,4.079,4.079,0,0,0,0,0,82.58,654.18115347973,0,41,Motors_Started,
3100,2026-03-30 12:32:00,39.8649783375369,-76.1545940614158,0,,,654.18115347973,0.328084,0,0.060504267028,0.146573495504,28,5,0,654.18115347973,0,0,0.06591371602,0,0,0,227.7, -12.6, -3.6,0,0,1024,1024,1024,1024,0,0,0,0,291.6,0,0,90,4.079,4.079,0,0,0,0,0,82.58,654.18115347973,0,41,Motors_Started,
3200,2026-03-30 12:32:00,39.8649783298262,-76.1545940512899,0,,,654.18115347973,0.328084,0,0.06005085494,0.150567918204,28,5,0,654.18115347973,0,0,0.06591371602,0,0,0,227.8, -12.6, -3.5,0,0,1024,1024,1024,1024,0,0,0,0,291.6,0,0,90,4.079,4.079,0,0,0,0,0,82.58,654.18115347973,0,41,Motors_Started,
3300,2026-03-30 12:32:00,39.8649783332147,-76.1545942561654,0,,,654.18115347973,0.328084,0,0.1097030875,0.207955059148,28,5,0,654.18115347973,0,0,0.1097030875,0,0,0,227.8, -12.6, -3.6,0,0,1024,1024,1024,1024,0,0,0,0,291.6,0,0,90,4.079,4.079,0,0,0,0,0,82.58,654.18115347973,0,41,Motors_Started,
3400,2026-03-30 12:32:00,39.8649783318834,-76.1545942418041,0,,,654.18115347973,0.328084,0,0.106111880036,0.21200624038,28,5,0,654.18115347973,0,0,0.1097030875,0,0,0,227.8, -12.6, -3.5,0,0,1024,1024,1024,1024,0,0,0,0,291.6,0,0,90,4.079,4.079,0,0,0,0,0,82.58,654.18115347973,0,41,Motors_Started,
3500,2026-03-30 12:32:00,39.8649783619876,-76.1545942276045,0,,,654.18115347973,0.328084,0,0.098829727572,0.223687343116,28,5,8.033,654.18115347973,0,0,0.1097030875,0,0,0,227.8, -12.6, -3.5,0,0,1024,1024,1024,1024,0,0,0,0,291.6,0,0,90,4.079,4.079,0,0,0,0,5.419,82.58,654.18115347973,0,41,Motors_Started,
3600,2026-03-30 12:32:00,39.864978395594,-76.1545941768635,0,,,654.18115347973,0.328084,0,0.082158139112,0.24245571642,28,5,8.033,654.18115347973,0,0,0.1097030875,0,0,0,227.8, -12.6, -3.5,0,0,1024,1024,1024,1024,0,0,0,0,291.6,0,0,90,4.079,4.079,0,0,0,0,5.419,82.58,654.18115347973,0,41,Motors_Started,
3700,2026-03-30 12:32:01,39.8649783230087,-76.1545941630484,0,,,654.18115347973,0.328084,0,0.087408467364,0.269219496804,27,5,8.033,654.18115347973,0,0,0.1097030875,0,0,0,227.8, -12.6, -3.5,0,0,1024,1024,1024,1024,0,0,0,0,291.6,0,0,90,4.079,4.079,0,0,0,0,5.419,82.58,654.18115347973,0,41,Motors_Started,
3800,2026-03-30 12:32:01,39.8649783490311,-76.154594125816,0,,,654.18115347973,0.328084,0,0.073799543044,0.283321203292,27,5,8.033,654.18115347973,0,0,0.1097030875,0,0,0,227.8, -12.6, -3.5,0,0,1024,1024,1024,1024,0,0,0,0,291.6,0,0,90,4.079,4.079,0,0,0,0,5.419,82.58,654.18115347973,0,41,Motors_Started,
3900,2026-03-30 12:32:01,39.8649783912481,-76.154594288438,0,,,654.18115347973,0.328084,0,0.113240817272,0.3313976484,27,5,8.033,654.18115347973,0,0,0.113240817272,0,0,0,227.9, -12.6, -3.5,0,0,1024,1024,1024,1024,0,0,0,0,291.6,0,0,90,4.079,4.079,0,0,0,0,5.419,82.58,654.18115347973,0,41,Motors_Started,
4000,2026-03-30 12:32:01,39.8649783878254,-76.1545942669267,0,,,654.18115347973,0.328084,0,0.107487208164,0.3375492234,27,5,8.033,654.18115347973,0,0,0.113240817272,0,0,0,227.9, -12.6, -3.5,0,0,1024,1024,1024,1024,0,0,0,0,291.6,0,0,90,4.079,4.079,0,0,0,0,5.419,82.58,654.18115347973,0,41,Motors_Started,
4100,2026-03-30 12:32:01,39.8649782386996,-76.1545943332551,0,,,654.18115347973,0.328084,0,0.14403379726,0.39503938272,28,5,8.033,654.18115347973,0,0,0.14403379726,0,0,0,227.9, -12.6, -3.5,0,0,1024,1024,1024,1024,0,0,0,0,291.6,0,0,90,4.079,4.079,0,0,0,0,5.419,82.58,654.18115347973,0,41,Motors_Started,
4200,2026-03-30 12:32:01,39.8649782353456,-76.1545943288247,0,,,654.18115347973,0.328084,0,0.143585306432,0.39678150876,28,5,8.033,654.18115347973,0,0,0.14403379726,0,0,0,227.9, -12.6, -3.5,0,0,1024,1024,1024,1024,0,0,0,0,291.6,0,0,90,4.079,4.079,0,0,0,0,5.419,82.58,654.18115347973,0,41,Motors_Started,
4300,2026-03-30 12:32:01,39.8649783399012,-76.1545943711895,0,,,654.18115347973,0.328084,0,0.139740161952,0.43673229744,27,5,8.033,654.18115347973,0,0,0.14403379726,0,0,0,227.9, -12.6, -3.5,0,0,1024,1024,1024,1024,0,0,0,0,291.6,0,0,90,4.079,4.079,0,0,0,0,5.419,82.58,654.18115347973,0,41,Motors_Started,
4400,2026-03-30 12:32:01,39.8649782953609,-76.1545943003139,0,,,654.18115347973,0.328084,0,0.126371723204,0.4623851854,27,5,8.033,654.18115347973,0,0,0.14403379726,0,0,0,227.9, -12.6, -3.5,0,0,1024,1024,1024,1024,0,0,0,0,291.6,0,0,90,4.079,4.079,0,0,0,0,5.419,82.58,654.18115347973,0,41,Motors_Started,
4500,2026-03-30 12:32:01,39.8649783670249,-76.1545941305811,0,,,654.18115347973,0.328084,0,0.072439962948,0.5166338748,27,5,8.127,654.18115347973,0,0,0.14403379726,0,0,0,227.9, -12.6, -3.5,0,0,1024,1024,1024,1024,0,0,0,0,291.6,0,0,90,4.009,4.011,0,0,0,0,1.341,82.58,654.18115347973,0,41,Motors_Started,
4600,2026-03-30 12:32:01,39.8649783496172,-76.154594175426,0,,,654.18115347973,0.328084,0,0.086443900404,0.53070539756,27,5,8.127,654.18115347973,0,0,0.14403379726,0,0,0,227.9, -12.6, -3.5,0,0,1024,1024,1024,1024,0,0,0,0,291.6,0,0,90,4.009,4.011,0,0,0,0,1.341,82.58,654.18115347973,0,41,Motors_Started,
4700,2026-03-30 12:32:01,39.8649784102233,-76.1545943728057,0,,,654.18115347973,0.328084,0,0.135983600152,0.5902395202,27,5,8.127,654.18115347973,0,0,0.14403379726,0,0,0,227.9, -12.6, -3.5,0,0,1024,1024,1024,1024,0,0,0,0,291.6,0,0,90,4.009,4.011,0,0,0,0,1.341,82.58,654.18115347973,0,41,Motors_Started,
4800,2026-03-30 12:32:02,39.8649784027788,-76.1545943780219,0,,,654.18115347973,0.328084,0,0.137660109392,0.5933235098,27,5,8.127,654.18115347973,0,0,0.14403379726,0,0,0,227.9, -12.6, -3.5,0,0,1024,1024,1024,1024,0,0,0,0,291.6,0,0,90,4.009,4.011,0,0,0,0,1.341,82.58,654.18115347973,0,41,Motors_Started,
4900,2026-03-30 12:32:02,39.8649784321723,-76.1545941898204,0,,,654.18115347973,0.328084,0,0.084408139184,0.64710960076,28,5,8.127,654.18115347973,0,0,0.14403379726,0,0,0,227.9, -12.6, -3.5,0,0,1024,1024,1024,1024,0,0,0,0,291.6,0,0,90,4.009,4.011,0,0,0,0,1.341,82.58,654.18115347973,0,41,Motors_Started,
5000,2026-03-30 12:32:02,39.8649784286078,-76.1545941874074,0,,,654.18115347973,0.328084,0,0.08376968772,0.6485728554,28,5,8.127,654.18115347973,0,0,0.14403379726,0,0,0,227.9, -12.6, -3.5,0,0,1024,1024,1024,1024,0,0,0,0,291.6,0,0,90,4.009,4.011,0,0,0,0,1.341,82.58,654.18115347973,0,41,Motors_Started,
5100,2026-03-30 12:32:02,39.8649784400053,-76.1545940708898,0,,,654.18115347973,0.328084,0,0.051096786412,0.68146655724,27,5,8.127,654.18115347973,0,0,0.14403379726,0,0,0,227.9, -12.6, -3.5,0,0,1024,1024,1024,1024,0,0,0,0,291.6,0,0,90,4.009,4.011,0,0,0,0,1.341,82.58,654.18115347973,0,41,Motors_Started,
5200,2026-03-30 12:32:02,39.8649784380298,-76.1545940690341,0,,,654.18115347973,0.328084,0,0.050566602668,0.68235566488,27,5,8.127,654.18115347973,0,0,0.14403379726,0,0,0,227.9, -12.6, -3.6,0,0,1024,1024,1024,1024,0,0,0,0,291.8,0,0,90,4.009,4.011,0,0,0,0,1.341,82.58,654.18115347973,0,11,AutoTakeoff,
5300,2026-03-30 12:32:02,39.8649784455344,-76.154594073654,0,,,654.18115347973,0.328084,0,0.051953413736,0.6853838802,28,5,8.127,654.18115347973,0,0,0.14403379726,0,0,0,228.1, -11, -4,0,0,1024,1024,1024,1024,0,0,0,0,292.1,0,0,90,4.009,4.011,0,0,0,0,1.341,82.58,654.18115347973,0,11,AutoTakeoff,
5400,2026-03-30 12:32:02,39.8649784548942,-76.1545940373969,0,,,654.18115347973,0.328084,0.223694,0.042216864868,0.6960958228,28,5,8.127,654.18115347973,0,0.223694,0.14403379726,0,0.223694,-0.223694,228.2, -3, -3.7,0,0,1024,1024,1024,1024,0,0,0,0,291.6,0,0,90,4.009,4.011,0,0,0,0,1.341,82.58,654.18115347973,0,11,AutoTakeoff,
5500,2026-03-30 12:32:02,39.864978572814,-76.1545939678198,0,,,654.18115347973,0.328084,0.223694,0.05432742956,0.74332679544,27,5,8.127,654.18115347973,0,0.223694,0.14403379726,0,0.223694,-0.671082,227.6, 4.6, 0,0,0,1024,1024,1024,1024,0,0,0,0,291.5,0,0,90,4.063,4.065,0,0,0,0,1.341,82.58,654.18115347973,0,11,AutoTakeoff,
5600,2026-03-30 12:32:02,39.8649786349784,-76.1545938221231,0,,,654.18115347973,0.656168,0.223694,0.074606957768,0.7900098678,27,5,8.127,654.18115347973,0,0.223694,0.14403379726,0.223694,0.447388,-1.565858,227.3, 3.9, 3.2,0,0,1024,1024,1024,1024,0,0,0,0,291.6,0,0,90,4.063,4.065,0,0,0,0,1.341,82.58,654.18115347973,0,11,AutoTakeoff,"Propeller rotation not smooth or collision detected. Check if propeller is installed properly or replace propellers (Code: 1612000A). Remote ID functionality normal (Code: 1B080003)"
5700,2026-03-30 12:32:02,39.864978853537,-76.1545936901861,0.328084,,,654.50923747973,0.656168,0.8052984,0.16182251174,0.87789372888,26,5,8.127,654.50923747973,0.328084,0.8052984,0.16182251174,0.671082,0.447388,-1.789552,227.5, 1, 0.1,0,0,1024,1024,1024,1024,0,0,0,0,291.6,0,0,90,4.063,4.065,0,0,0,0,1.341,82.58,654.50923747973,0.328084,11,AutoTakeoff,
5800,2026-03-30 12:32:03,39.8649791009457,-76.1545934747842,0.656168,,,654.83732147973,0.984252,0.9395148,0.268539050588,0.98646000532,26,5,8.127,654.83732147973,0.656168,0.9395148,0.268539050588,0.671082,0.671082,-1.789552,227.9, -2.7, -1.9,0,0,1024,1024,1024,1024,0,0,0,0,291.6,0,0,90,4.063,4.065,0,0,0,0,1.341,82.58,654.83732147973,0.656168,11,AutoTakeoff,
5900,2026-03-30 12:32:03,39.8649794311517,-76.1545931219445,0.656168,,,654.83732147973,1.312336,1.11847,0.42149607648,1.1422736586,26,5,8.127,654.83732147973,0.656168,1.11847,0.42149607648,0.894776,0.671082,-1.565858,228, -6, -2.3,0,0,1024,1024,1024,1024,0,0,0,0,291.6,0,0,90,4.063,4.065,0,0,0,0,1.341,82.58,654.83732147973,0.656168,11,AutoTakeoff,
6000,2026-03-30 12:32:03,39.8649797490221,-76.1545927515999,0.984252,,,655.16540547973,1.64042,0.9395148,0.57491471656,1.29785765308,26,5,8.127,655.16540547973,0.984252,1.11847,0.57491471656,0.671082,0.671082,-1.565858,228.1, -8.4, -1.8,0,0,1024,1024,1024,1024,0,0,0,0,291.6,0,0,90,4.063,4.065,0,0,0,0,1.341,82.58,655.16540547973,0.984252,11,AutoTakeoff,
6100,2026-03-30 12:32:03,39.86497984898,-76.154592525403,1.312336,,,655.49348947973,1.64042,0.9395148,0.64118768456,1.37095148744,27,5,8.127,655.49348947973,1.312336,1.11847,0.64118768456,0.671082,0.671082,-1.342164,227.7, -8.7, -1.2,0,0,1024,1024,1024,1024,0,0,0,0,291.6,0,0,90,4.063,4.065,0,0,0,0,1.341,82.58,655.49348947973,1.312336,11,AutoTakeoff,
6200,2026-03-30 12:32:03,39.8649801122461,-76.1545921657304,1.312336,,,655.49348947973,1.968504,0.9395148,0.7786909698,1.51013128192,27,5,8.127,655.49348947973,1.312336,1.11847,0.7786909698,0.671082,0.671082,-1.342164,227.9, -8.6, -0.3,0,0,1024,1024,1024,1024,0,0,0,0,291.6,0,0,90,4.063,4.065,0,0,0,0,1.341,82.58,655.49348947973,1.312336,11,AutoTakeoff,
6300,2026-03-30 12:32:03,39.864979960754,-76.1545918612565,1.64042,,,655.82157347973,1.968504,0.8052984,0.79459976296,1.6117454584,27,5,8.127,655.82157347973,1.64042,1.11847,0.79459976296,0.671082,0.447388,-1.342164,227.9, -7.9, -1.4,0,0,1024,1024,1024,1024,0,0,0,0,291.6,0,0,90,4.063,4.065,0,0,0,0,1.341,82.58,655.82157347973,1.64042,11,AutoTakeoff,
6400,2026-03-30 12:32:03,39.8649801981545,-76.1545915988973,1.968504,,,656.14965747973,2.296588,0.8052984,0.90775593456,1.72532485836,27,5,8.127,656.14965747973,1.968504,1.11847,0.90775593456,0.671082,0.447388,-1.342164,227.3, -7, -1,0,0,1024,1024,1024,1024,0,0,0,0,291.6,0,0,90,4.063,4.065,0,0,0,0,1.341,82.58,656.14965747973,1.968504,11,AutoTakeoff,
6500,2026-03-30 12:32:03,39.8649803145927,-76.1545913776318,1.968504,,,656.14965747973,2.624672,0.8052984,0.9816929448,1.80045281352,28,5,8.129,656.14965747973,1.968504,1.11847,0.9816929448,0.671082,0.447388,-1.11847,227.4, -7.1, -1.6,0,0,1024,1024,1024,1024,0,0,0,0,291.6,0,0,90,4.015,4.016,0,0,0,0,1.688,82.58,656.14965747973,1.968504,11,AutoTakeoff,"Home Point updated (Code: 30800)"
6600,2026-03-30 12:32:03,39.8649805990114,-76.1545911254597,2.296588,,,656.47774147973,2.624672,0.8052984,1.10497378864,1.92597447108,28,5,8.129,656.47774147973,2.296588,1.11847,1.10497378864,0.671082,0.447388,-1.11847,227.9, -7.8, -1.4,0,0,1024,1024,1024,1024,0,0,0,0,291.6,0,0,90,4.015,4.016,0,0,0,0,1.688,82.58,656.47774147973,2.296588,11,AutoTakeoff,
6700,2026-03-30 12:32:03,39.8649809630948,-76.1545909268149,2.296588,,,656.47774147973,2.624672,0.6263432,1.23990489532,2.06998694288,28,5,8.129,656.47774147973,2.296588,1.11847,1.23990489532,0.447388,0.447388,-1.11847,227.8, -8.2, -1.4,0,0,1024,1024,1024,1024,0,0,0,0,291.6,0,0,90,4.015,4.016,0,0,0,0,1.688,82.58,656.47774147973,2.296588,11,AutoTakeoff,
6800,2026-03-30 12:32:04,39.8649811878675,-76.1545907313637,2.624672,,,656.80582547973,2.952756,0.4921268,1.33755253624,2.16858274656,28,5,8.129,656.80582547973,2.624672,1.11847,1.33755253624,0.447388,0.223694,-1.11847,227.5, -7.6, -0.8,0,0,1024,1024,1024,1024,0,0,0,0,291.6,0,0,90,4.015,4.016,0,0,0,0,1.688,82.58,656.80582547973,2.624672,11,AutoTakeoff,
6900,2026-03-30 12:32:04,39.8649814596818,-76.1545905547543,2.624672,,,656.80582547973,3.28084,0.4921268,1.44494099112,2.27940296008,27,5,8.129,656.80582547973,2.624672,1.11847,1.44494099112,0.447388,0.223694,-1.11847,227.4, -7.1, -1.6,0,0,1024,1024,1024,1024,0,0,0,0,291.6,0,0,90,4.015,4.016,0,0,0,0,1.688,82.58,656.80582547973,2.624672,11,AutoTakeoff,
7000,2026-03-30 12:32:04,39.864981677536,-76.1545904130255,2.952756,,,657.13390947973,3.28084,0.4921268,1.53139440596,2.36824482644,27,5,8.129,657.13390947973,2.952756,1.11847,1.53139440596,0.447388,0.223694,-1.11847,227.3, -6.3, -2.9,0,0,1024,1024,1024,1024,0,0,0,0,291.6,0,0,90,4.015,4.016,0,0,0,0,1.688,82.58,657.13390947973,2.952756,11,AutoTakeoff,
7100,2026-03-30 12:32:04,39.8649819269999,-76.1545905377748,2.952756,,,657.13390947973,3.608924,0.4921268,1.58173889576,2.46573498704,28,5,8.129,657.13390947973,2.952756,1.11847,1.58173889576,0.447388,0.223694,-1.11847,227.5, -6.5, -2.5,0,0,1024,1024,1063,1024,0,0,6,0,291.6,0,0,90,4.015,4.016,0,0,0,0,1.688,82.58,657.13390947973,2.952756,11,AutoTakeoff,
7200,2026-03-30 12:32:04,39.8649821342339,-76.1545903623245,3.28084,,,657.46199347973,3.608924,0.4921268,1.67176186452,2.55590887444,28,5,8.129,657.46199347973,3.28084,1.11847,1.67176186452,0.447388,0.223694,-1.11847,227.8, -7.6, -1.8,0,0,1024,1024,1335,1024,0,0,47,0,291.6,0,0,90,4.015,4.016,0,0,0,0,1.688,82.58,657.46199347973,3.28084,11,AutoTakeoff,
7300,2026-03-30 12:32:04,39.8649823329174,-76.1545902940357,3.28084,,,657.46199347973,3.608924,0.4921268,1.7417651476,2.63087606844,28,5,8.129,657.46199347973,3.28084,1.11847,1.7417651476,0.447388,0.223694,-0.894776,227.8, -8.6, -1.5,0,0,1024,1024,1401,1024,0,0,57,0,291.6,0,0,90,4.015,4.016,0,0,0,0,1.688,82.58,657.46199347973,3.28084,6,P-GPS,
7400,2026-03-30 12:32:04,39.8649825417747,-76.154590179954,3.608924,,,657.79007747973,3.937008,0.4921268,1.82250333916,2.71350402384,28,5,8.129,657.79007747973,3.608924,1.11847,1.82250333916,0.447388,0.223694,-1.565858,228.5, -7.1, -2.1,0,0,1024,1024,1412,1024,0,0,59,0,291.6,0,0,90,4.015,4.016,0,0,0,0,1.688,82.58,657.79007747973,3.608924,6,P-GPS,
7500,2026-03-30 12:32:04,39.8649826170732,-76.1545900531786,3.937008,,,658.11816147973,4.265092,0.4921268,1.86536095208,2.75839575756,28,5,8.028,658.11816147973,3.937008,1.11847,1.86536095208,0.447388,0.223694,-2.908022,228.3, -6, -2.3,0,0,1024,1024,1412,1024,0,0,59,0,291.6,0,0,90,4.015,4.016,0,0,0,0,4.799,82.58,658.11816147973,3.937008,6,P-GPS,
7600,2026-03-30 12:32:04,39.8649827932019,-76.1545900092827,4.265092,,,658.44624547973,4.92126,0.447388,1.92516738444,2.82382226884,28,5,8.028,658.44624547973,4.265092,1.11847,1.92516738444,0.447388,0,-4.026492,227.8, -6.6, -3.4,0,0,1024,1024,1201,1024,0,0,27,0,291.6,0,0,90,4.015,4.016,0,0,0,0,4.799,82.58,658.44624547973,4.265092,6,P-GPS,
7700,2026-03-30 12:32:05,39.864983169055,-76.1545897613156,4.92126,,,659.10241347973,5.577428,0.4921268,2.07766082764,2.97752962284,28,5,8.028,659.10241347973,4.92126,1.11847,2.07766082764,0.447388,0.223694,-4.697574,226.7, -6.3, -4.5,0,0,1024,1024,1024,1024,0,0,0,0,291.6,0,0,90,4.015,4.016,0,0,0,0,4.799,82.58,659.10241347973,4.92126,6,P-GPS,
7800,2026-03-30 12:32:05,39.8649833124936,-76.1545896621267,5.577428,,,659.75858147973,6.233596,0.3131716,2.13660767992,3.0367783124,28,5,8.028,659.75858147973,5.577428,1.11847,2.13660767992,0.223694,0.223694,-4.47388,226.9, -9.7, -3.3,0,0,1024,1024,1024,1024,0,0,0,0,291.6,0,0,90,4.015,4.016,0,0,0,0,4.799,82.58,659.75858147973,5.577428,6,P-GPS,
7900,2026-03-30 12:32:05,39.8649834948374,-76.1545893633858,6.233596,,,660.41474947973,6.56168,0.4921268,2.23857946796,3.1436680796,29,5,8.028,660.41474947973,6.233596,1.11847,2.23857946796,0.447388,0.223694,-3.802798,227.1, -11.2, -3.5,0,0,1024,1024,1024,1024,0,0,0,0,291.6,0,0,90,4.015,4.016,0,0,0,0,4.799,82.58,660.41474947973,6.233596,6,P-GPS,
8000,2026-03-30 12:32:05,39.8649836301254,-76.1545892673671,6.56168,,,660.74283347973,7.217848,0.3131716,2.29449810492,3.19987543048,29,5,8.028,660.74283347973,6.56168,1.11847,2.29449810492,0.223694,0.223694,-2.908022,227.4, -10.8, -3.9,0,0,1024,1024,1024,1024,0,0,0,0,291.6,0,0,90,4.015,4.016,0,0,0,0,4.799,82.58,660.74283347973,6.56168,6,P-GPS,
8100,2026-03-30 12:32:05,39.8649838726464,-76.1545893500262,6.889764,,,661.07091747973,7.545932,0.3131716,2.35552172892,3.291338688,28,5,8.028,661.07091747973,6.889764,1.11847,2.35552172892,0.223694,0.223694,-2.23694,227.4, -9.7, -4,0,0,1024,1024,1024,1024,0,0,0,0,291.6,0,0,90,4.015,4.016,0,0,0,0,4.799,82.58,661.07091747973,6.889764,6,P-GPS,
8200,2026-03-30 12:32:05,39.8649839801367,-76.1545892697779,7.217848,,,661.39900147973,7.874016,0.3131716,2.40066608732,3.3365486632,28,5,8.028,661.39900147973,7.217848,1.11847,2.40066608732,0.223694,0.223694,-1.565858,227.4, -9.5, -4,0,0,1024,1024,1024,1024,0,0,0,0,291.6,0,0,90,4.015,4.016,0,0,0,0,4.799,82.58,661.39900147973,7.217848,6,P-GPS,
8300,2026-03-30 12:32:05,39.8649840837189,-76.1545889969032,7.545932,,,661.72708547973,7.874016,0.3131716,2.47406832064,3.4217848864,28,5,8.028,661.72708547973,7.545932,1.11847,2.47406832064,0.223694,0.223694,-0.894776,227.4, -9.5, -3.4,0,0,1024,1024,1024,1024,0,0,0,0,291.6,0,0,90,4.015,4.016,0,0,0,0,4.799,82.58,661.72708547973,7.545932,6,P-GPS,
8400,2026-03-30 12:32:05,39.864984103585,-76.1545889572023,7.545932,,,661.72708547973,7.874016,0.3131716,2.48626648376,3.4350722884,28,5,8.028,661.72708547973,7.545932,1.11847,2.48626648376,0.223694,0.223694,-0.447388,227.3, -8.3, -2.8,0,0,1024,1369,1024,1024,0,52,0,0,291.6,0,0,90,4.015,4.016,0,0,0,0,4.799,82.58,661.72708547973,7.545932,6,P-GPS,
8500,2026-03-30 12:32:05,39.8649841833118,-76.1545885942635,7.545932,,,661.72708547973,7.874016,0.3131716,2.56781832364,3.5407809532,26,5,8.063,661.72708547973,7.545932,1.11847,2.56781832364,0.223694,0.223694,-0.223694,227.3, -8, -2.2,0,0,1024,1465,1024,1024,0,67,0,0,291.6,0,0,90,4.019,4.02,0,0,0,0,2.808,82.58,661.72708547973,7.545932,6,P-GPS,
8600,2026-03-30 12:32:05,39.8649841935755,-76.1545885553314,7.545932,,,661.72708547973,7.874016,0.3131716,2.57717856016,3.5522967016,26,5,8.063,661.72708547973,7.545932,1.11847,2.57717856016,0.223694,0.223694,0,227.3, -7.9, -0.6,0,0,1024,1466,1024,1024,0,67,0,0,291.6,0,0,90,4.019,4.02,0,0,0,0,2.808,82.58,661.72708547973,7.545932,6,P-GPS,
8700,2026-03-30 12:32:06,39.8649842978796,-76.1545882412442,7.545932,,,661.72708547973,7.874016,0.223694,2.6596293502,3.648130038,26,5,8.063,661.72708547973,7.545932,1.11847,2.6596293502,0.223694,0,0,227.2, -7.7, 2.7,0,0,1024,1488,1024,1024,0,70,0,0,291.6,0,0,90,4.019,4.02,0,0,0,0,2.808,82.58,661.72708547973,7.545932,6,P-GPS,
8800,2026-03-30 12:32:06,39.864984586168,-76.154588196343,7.545932,,,661.72708547973,7.874016,0.447388,2.75217200408,3.7540683616,26,5,8.063,661.72708547973,7.545932,1.11847,2.75217200408,0.447388,0,0,227.2, -7.6, 4.7,0,0,1024,1495,1024,1024,0,71,0,0,291.6,0,0,90,4.019,4.02,0,0,0,0,2.808,82.58,661.72708547973,7.545932,6,P-GPS,
8900,2026-03-30 12:32:06,39.8649851208948,-76.1545881860496,7.545932,,,661.72708547973,7.874016,0.7158208,2.91498368908,3.9491799164,28,5,8.063,661.72708547973,7.545932,1.11847,2.91498368908,0.671082,-0.223694,0,227.1, -7.8, 3.8,0,0,1024,1495,1024,1024,0,71,0,0,291.6,0,0,90,4.019,4.02,0,0,0,0,2.808,82.58,661.72708547973,7.545932,6,P-GPS,
9000,2026-03-30 12:32:06,39.8649854783544,-76.1545883292218,7.545932,,,661.72708547973,7.874016,1.006623,3.00396006988,4.085630052,28,5,8.063,661.72708547973,7.545932,1.11847,3.00396006988,0.894776,-0.447388,0,227, -8.6, 2.5,0,0,1024,1027,1024,1024,0,0,0,0,291.6,0,0,90,4.019,4.02,0,0,0,0,2.808,82.58,661.72708547973,7.545932,6,P-GPS,
9100,2026-03-30 12:32:06,39.8649857230152,-76.1545888158505,7.545932,,,661.72708547973,7.874016,1.006623,3.0140748996,4.2485565664,28,5,8.063,661.72708547973,7.545932,1.11847,3.0140748996,0.894776,-0.447388,0,227.1, -8.7, 1.8,0,0,1024,1024,1024,1024,0,0,0,0,291.6,0,0,90,4.019,4.02,0,0,0,0,2.808,82.58,661.72708547973,7.545932,6,P-GPS,
9200,2026-03-30 12:32:06,39.8649860965749,-76.154589159423,7.545932,,,661.72708547973,8.2021,1.006623,3.09252962652,4.4153872804,28,5,8.063,661.72708547973,7.545932,1.11847,3.09252962652,0.894776,-0.671082,0,227.5, -8.6, -1.9,0,0,1024,1024,1024,1178,0,0,0,23,291.6,0,0,90,4.019,4.02,0,0,0,0,2.808,82.58,661.72708547973,7.545932,6,P-GPS,
9300,2026-03-30 12:32:06,39.8649863127206,-76.154589481122,7.545932,,,661.72708547973,8.2021,1.11847,3.12733605808,4.535105132,28,5,8.063,661.72708547973,7.545932,1.11847,3.12733605808,0.894776,-0.671082,0,227.7, -8.9, -5.9,0,0,1024,1024,1024,1411,0,0,0,59,291.7,0,0,90,4.019,4.02,0,0,0,0,2.808,82.58,661.72708547973,7.545932,6,P-GPS,
9400,2026-03-30 12:32:06,39.8649866477502,-76.1545897556132,7.545932,,,661.72708547973,7.874016,1.006623,3.21151256996,4.6794949004,28,5,8.063,661.72708547973,7.545932,1.11847,3.21151256996,0.894776,-0.447388,0,227.8, -8.8, -7.1,0,0,1024,1024,1024,1438,0,0,0,63,292.5,0,0,90,4.019,4.02,0,0,0,0,2.808,82.58,661.72708547973,7.545932,6,P-GPS,
9500,2026-03-30 12:32:06,39.8649870008896,-76.1545898653925,7.545932,,,661.72708547973,7.874016,0.7158208,3.3214567992,4.8119752196,28,5,8.036,661.72708547973,7.545932,1.11847,3.3214567992,0.671082,-0.223694,0,228.6, -8.6, -5.8,0,0,1024,1024,1024,1479,0,0,0,69,294,0,0,90,4.031,4.033,0,0,0,0,4.431,82.58,661.72708547973,7.545932,6,P-GPS,
9600,2026-03-30 12:32:06,39.8649872661636,-76.1545899561078,7.545932,,,661.72708547973,8.2021,0.7158208,3.404363626,4.9120408396,28,5,8.036,661.72708547973,7.545932,1.11847,3.404363626,0.671082,-0.223694,0,229.9, -8.4, -5.5,0,0,1024,1024,1024,1517,0,0,0,75,296.1,0,0,90,4.031,4.033,0,0,0,0,4.431,82.58,661.72708547973,7.545932,6,P-GPS,
9700,2026-03-30 12:32:06,39.864987474609,-76.1545898958758,7.545932,,,661.72708547973,8.2021,0.7158208,3.48179145,4.9899279812,28,5,8.036,661.72708547973,7.545932,1.11847,3.48179145,0.447388,-0.223694,0,231.7, -8.8, -5.7,0,0,1024,1024,1024,1534,0,0,0,77,298.8,0,0,90,4.031,4.033,0,0,0,0,4.431,82.58,661.72708547973,7.545932,6,P-GPS,
9800,2026-03-30 12:32:07,39.8649876860348,-76.1545899392159,7.545932,,,661.72708547973,8.2021,0.447388,3.5511484076,5.0680119732,28,5,8.036,661.72708547973,7.545932,1.11847,3.5511484076,0.447388,0,0,234.2, -8.3, -6.1,0,0,1024,1024,1024,1539,0,0,0,78,302,0,0,90,4.031,4.033,0,0,0,0,4.431,82.58,661.72708547973,7.545932,6,P-GPS,
9900,2026-03-30 12:32:07,39.8649879500292,-76.1545897634414,7.545932,,,661.72708547973,8.2021,0.447388,3.6580381748,5.176181268,28,5,8.036,661.72708547973,7.545932,1.11847,3.6580381748,0.447388,0,0,237.3, -8.5, -5.2,0,0,1024,1024,1024,1024,0,0,0,0,305.5,0,0,90,4.031,4.033,0,0,0,0,4.431,82.58,661.72708547973,7.545932,6,P-GPS,
10000,2026-03-30 12:32:07,39.8649881322954,-76.1545897568652,7.545932,,,661.72708547973,8.2021,0.447388,3.7217520876,5.2427167032,28,5,8.036,661.72708547973,7.545932,1.11847,3.7217520876,0.447388,0,0,241, -8.6, -4.5,0,0,1024,1024,1024,708,0,0,0,-48,308.5,0,0,90,4.031,4.033,0,0,0,0,4.431,82.58,661.72708547973,7.545932,6,P-GPS,
10100,2026-03-30 12:32:07,39.8649882501444,-76.1545895793692,7.545932,,,661.72708547973,8.2021,0.447388,3.7782481524,5.3084319284,28,5,8.036,661.72708547973,7.545932,1.11847,3.7782481524,0.447388,0,0,244.2, -8.5, -3.6,0,0,1024,1024,1024,614,0,0,0,-62,309.9,0,0,90,4.031,4.033,0,0,0,0,4.431,82.58,661.72708547973,7.545932,6,P-GPS,
10200,2026-03-30 12:32:07,39.8649884385217,-76.1545896018777,7.545932,,,661.72708547973,8.2021,0.447388,3.8414699392,5.377460802,28,5,8.036,661.72708547973,7.545932,1.11847,3.8414699392,0.447388,0,0,246.1, -8.2, -4.4,0,0,1024,1024,1024,584,0,0,0,-67,309.6,0,0,90,4.031,4.033,0,0,0,0,4.431,82.58,661.72708547973,7.545932,6,P-GPS,
10300,2026-03-30 12:32:07,39.8649886627279,-76.1545898444311,7.545932,,,661.72708547973,8.2021,0.447388,3.8989830644,5.483760018,28,5,8.036,661.72708547973,7.545932,1.11847,3.8989830644,0.447388,0,0,246.2, -8, -5.6,0,0,1024,1024,1024,479,0,0,0,-83,307.8,0,0,90,4.031,4.033,0,0,0,0,4.431,82.58,661.72708547973,7.545932,6,P-GPS,
10400,2026-03-30 12:32:07,39.8649888333175,-76.1545898923185,7.545932,,,661.72708547973,7.874016,0.447388,3.9547573444,5.5474411224,28,5,8.036,661.72708547973,7.545932,1.11847,3.9547573444,0.223694,0,0,244.5, -7.4, -6.1,0,0,1024,1024,1030,432,0,0,1,-90,304.8,0,0,90,4.031,4.033,0,0,0,0,4.431,82.58,661.72708547973,7.545932,6,P-GPS,
10500,2026-03-30 12:32:07,39.8649889215689,-76.154589690731,7.545932,,,661.72708547973,7.874016,0.223694,4.0018702068,5.6124345628,28,5,8.036,661.72708547973,7.545932,1.11847,4.0018702068,0.223694,0,0,241.6, -7.7, -6.4,0,0,1024,1024,1036,386,0,0,2,-97,300.5,0,0,90,4.017,4.019,0,0,0,0,4.431,82.58,661.72708547973,7.545932,6,P-GPS,
10600,2026-03-30 12:32:07,39.8649890396327,-76.154589695256,7.545932,,,661.72708547973,7.874016,0.223694,4.0426838564,5.655511992,28,5,8.036,661.72708547973,7.545932,1.11847,4.0426838564,0.223694,0,0,237.6, -7.9, -5.4,0,0,1024,1024,1035,364,0,0,2,-100,294.8,0,0,90,4.017,4.019,0,0,0,0,4.431,82.58,661.72708547973,7.545932,6,P-GPS,
10700,2026-03-30 12:32:07,39.8649889883952,-76.1545895628781,7.545932,,,661.72708547973,7.874016,0.223694,4.0357940924,5.6970474264,28,5,8.036,661.72708547973,7.545932,1.11847,4.0426838564,0.223694,0,0,232.1, -8, -4.4,0,0,1024,1024,1024,364,0,0,0,-100,287.9,0,0,90,4.017,4.019,0,0,0,0,4.431,82.58,661.72708547973,7.545932,6,P-GPS,
10800,2026-03-30 12:32:08,39.8649890605982,-76.1545894866523,7.545932,,,661.72708547973,8.2021,0.223694,4.0673229648,5.7309385036,28,5,8.036,661.72708547973,7.545932,1.11847,4.0673229648,0,0.223694,0,225.4, -9.3, -2.8,0,0,1024,1024,1024,364,0,0,0,-100,280.3,0,0,90,4.017,4.019,0,0,0,0,4.431,82.58,661.72708547973,7.545932,6,P-GPS,
10900,2026-03-30 12:32:08,39.8649890955852,-76.1545893973584,7.545932,,,661.72708547973,8.2021,0.223694,4.0871392384,5.759022494,28,5,8.036,661.72708547973,7.545932,1.11847,4.0871392384,0,0.223694,0,217.9, -9.3, -1.3,0,0,1024,1024,1024,364,0,0,0,-100,272.5,0,0,90,4.017,4.019,0,0,0,0,4.431,82.58,661.72708547973,7.545932,6,P-GPS,
11000,2026-03-30 12:32:08,39.8649891480765,-76.1545892917748,7.545932,,,661.72708547973,8.2021,0.223694,4.114501444,5.7942587156,28,5,8.036,661.72708547973,7.545932,1.11847,4.114501444,0,0.223694,0,210, -9.8, -0.2,0,0,1024,1024,1024,364,0,0,0,-100,264.5,0,0,90,4.017,4.019,0,0,0,0,4.431,82.58,661.72708547973,7.545932,6,P-GPS,
11100,2026-03-30 12:32:08,39.8649891562315,-76.1545891331489,7.545932,,,661.72708547973,8.2021,0.223694,4.1314305784,5.8387797144,28,5,8.036,661.72708547973,7.545932,1.11847,4.1314305784,0,0.223694,0,202.3, -10.4, 1.1,0,0,1024,1024,1024,364,0,0,0,-100,256.5,0,0,90,4.017,4.019,0,0,0,0,4.431,82.58,661.72708547973,7.545932,6,P-GPS,
11200,2026-03-30 12:32:08,39.8649891670148,-76.154589017679,7.545932,,,661.72708547973,7.874016,0.223694,4.1457022324,5.8713584556,28,5,8.036,661.72708547973,7.545932,1.11847,4.1457022324,0,0.223694,0,194, -9.9, 2.3,0,0,1024,1024,1024,364,0,0,0,-100,248.5,0,0,90,4.017,4.019,0,0,0,0,4.431,82.58,661.72708547973,7.545932,6,P-GPS,
11300,2026-03-30 12:32:08,39.8649891775663,-76.1545889219093,7.545932,,,661.72708547973,7.874016,0.223694,4.1582022328,5.898458194,27,5,8.036,661.72708547973,7.545932,1.11847,4.1582022328,0,0.223694,0,186.1, -9.2, 3.3,0,0,1024,1024,1024,364,0,0,0,-100,240.5,0,0,90,4.017,4.019,0,0,0,0,4.431,82.58,661.72708547973,7.545932,6,P-GPS,
11400,2026-03-30 12:32:08,39.8649891429699,-76.1545888072475,7.545932,,,661.72708547973,7.874016,0.3131716,4.1572179808,5.9329398224,27,5,8.036,661.72708547973,7.545932,1.11847,4.1582022328,-0.223694,0.223694,0,178, -8.6, 4,0,0,1024,1024,1024,364,0,0,0,-100,232.6,0,0,90,4.017,4.019,0,0,0,0,4.431,82.58,661.72708547973,7.545932,6,P-GPS,
11500,2026-03-30 12:32:08,39.8649889965323,-76.1545886593216,7.545932,,,661.72708547973,7.874016,0.3131716,4.1215880584,6.0005579348,29,5,8.025,661.72708547973,7.545932,1.11847,4.1582022328,-0.223694,0.223694,0,169.8, -8.3, 4.7,0,0,1024,1024,1024,364,0,0,0,-100,224.5,0,0,90,3.998,3.999,0,0,0,0,4.563,82.58,661.72708547973,7.545932,6,P-GPS,
11600,2026-03-30 12:32:08,39.8649889288426,-76.154588525049,7.545932,,,661.72708547973,7.874016,0.3131716,4.1121064308,6.0455382512,29,5,8.025,661.72708547973,7.545932,1.11847,4.1582022328,-0.223694,0.223694,0,161.6, -7, 4.8,0,0,1024,1024,1024,364,0,0,0,-100,216.5,0,0,90,3.998,3.999,0,0,0,0,4.563,82.58,661.72708547973,7.545932,6,P-GPS,
11700,2026-03-30 12:32:08,39.8649887479847,-76.1545882226153,7.545932,,,661.72708547973,8.2021,0.3131716,4.0829069548,6.1529201444,30,5,8.025,661.72708547973,7.545932,1.11847,4.1582022328,-0.223694,0.223694,0,153.5, -5, 4.4,0,0,1024,1024,1024,364,0,0,0,-100,208.5,0,0,90,3.998,3.999,0,0,0,0,4.563,82.58,661.72708547973,7.545932,6,P-GPS,
11800,2026-03-30 12:32:09,39.864988694398,-76.154588030775,7.545932,,,661.72708547973,8.2021,0.4921268,4.0861549864,6.2100723772,30,5,8.025,661.72708547973,7.545932,1.11847,4.1582022328,-0.223694,0.447388,0,145.4, -3.8, 4.6,0,0,1024,1024,1024,364,0,0,0,-100,200.5,0,0,90,3.998,3.999,0,0,0,0,4.563,82.58,661.72708547973,7.545932,6,P-GPS,
11900,2026-03-30 12:32:09,39.8649885965997,-76.1545876935105,7.545932,,,661.72708547973,8.2021,0.447388,4.0926510496,6.311023824,30,5,8.025,661.72708547973,7.545932,1.11847,4.1582022328,0,0.447388,0,137.6, -2.7, 4.8,0,0,1024,1024,1024,1024,0,0,0,0,192.6,0,0,90,3.998,3.999,0,0,0,0,4.563,82.58,661.72708547973,7.545932,6,P-GPS,
12000,2026-03-30 12:32:09,39.864988619983,-76.1545873965656,7.545932,,,661.72708547973,7.874016,0.7158208,4.1362534132,6.3946196272,30,5,8.025,661.72708547973,7.545932,1.11847,4.1582022328,0.223694,0.671082,0,129.8, -0.3, 6.6,0,0,1474,1024,1024,1024,68,0,0,0,186.6,0,0,90,3.998,3.999,0,0,0,0,4.563,82.58,661.72708547973,7.545932,6,P-GPS,
12100,2026-03-30 12:32:09,39.8649886756779,-76.1545869348753,7.545932,,,661.72708547973,7.874016,0.7158208,4.2126969852,6.5255251432,29,5,8.025,661.72708547973,7.545932,1.11847,4.2126969852,0.223694,0.671082,0,123.3, 1.9, 8,0,0,1629,1024,1024,1024,92,0,0,0,183.7,0,0,90,3.998,3.999,0,0,0,0,4.563,82.58,661.72708547973,7.545932,6,P-GPS,
12200,2026-03-30 12:32:09,39.8649887813992,-76.1545866460221,7.545932,,,661.72708547973,7.874016,0.7158208,4.284612998,6.6151248836,29,5,8.025,661.72708547973,7.545932,1.11847,4.284612998,0.223694,0.671082,0,119.6, -1.4, 10,0,0,1629,1024,1024,1024,92,0,0,0,182.4,0,0,90,3.998,3.999,0,0,0,0,4.563,82.58,661.72708547973,7.545932,6,P-GPS,
12300,2026-03-30 12:32:09,39.8649890042437,-76.1545861126922,7.545932,,,661.72708547973,7.874016,0.671082,4.4279200892,6.7851708208,29,5,8.025,661.72708547973,7.545932,1.11847,4.4279200892,0,0.671082,0,117.9, -7.2, 10.4,0,0,1629,1024,1024,1024,92,0,0,0,182.2,0,0,90,3.998,3.999,0,0,0,0,4.563,82.58,661.72708547973,7.545932,6,P-GPS,
12400,2026-03-30 12:32:09,39.8649889860907,-76.1545856848352,7.545932,,,661.72708547973,7.874016,0.9171454,4.4823492248,6.905183948,29,5,8.025,661.72708547973,7.545932,1.11847,4.4823492248,-0.223694,0.894776,0,117.5, -6.9, 9.1,0,0,1557,1024,1024,1024,81,0,0,0,182.2,0,0,90,3.998,3.999,0,0,0,0,4.563,82.58,661.72708547973,7.545932,6,P-GPS,
12500,2026-03-30 12:32:09,39.8649886916909,-76.1545849869115,7.545932,,,661.72708547973,7.874016,1.1408394,4.4958334772,7.1282154512,30,5,8.011,661.72708547973,7.545932,1.1408394,4.4958334772,-0.223694,1.11847,0,117.7, -4.3, 8.5,0,0,1557,1024,1024,1024,81,0,0,0,182.2,0,0,90,4.011,4.013,0,0,0,0,4.696,82.58,661.72708547973,7.545932,6,P-GPS,
12600,2026-03-30 12:32:09,39.8649885240555,-76.1545843405926,7.545932,,,661.72708547973,7.874016,1.2079476,4.549048702,7.3192587644,30,5,8.011,661.72708547973,7.545932,1.2079476,4.549048702,-0.447388,1.11847,0,117.7, -3.9, 9.4,0,0,1557,1024,1024,1024,81,0,0,0,182.2,0,0,90,4.011,4.013,0,0,0,0,4.696,82.58,661.72708547973,7.545932,6,P-GPS,
12700,2026-03-30 12:32:09,39.8649881424947,-76.1545833618076,7.545932,,,661.72708547973,7.874016,1.4092722,4.6075460792,7.6266734724,30,5,8.011,661.72708547973,7.545932,1.4092722,4.6075460792,-0.447388,1.342164,0,117.5, -6.4, 8.9,0,0,1554,1024,1024,1024,80,0,0,0,182.2,0,0,90,4.011,4.013,0,0,0,0,4.696,82.58,661.72708547973,7.545932,6,P-GPS,
12800,2026-03-30 12:32:10,39.8649878702457,-76.1545826195019,7.545932,,,661.72708547973,7.874016,1.7000744,4.6695539552,7.8570540572,30,5,8.011,661.72708547973,7.545932,1.7000744,4.6695539552,-0.671082,1.565858,0,117.1, -9.8, 7.7,0,0,1532,1024,1024,1024,77,0,0,0,182.2,0,0,90,4.011,4.013,0,0,0,0,4.696,82.58,661.72708547973,7.545932,6,P-GPS,
12900,2026-03-30 12:32:10,39.8649874842144,-76.1545817984962,7.545932,,,661.72708547973,7.874016,1.9908766,4.72851065,8.1267062968,30,5,8.011,661.72708547973,7.545932,1.9908766,4.72851065,-0.894776,1.789552,0,117, -13.3, 6.8,0,0,1509,1024,1024,1024,73,0,0,0,182.2,0,0,90,4.011,4.013,0,0,0,0,4.696,82.58,661.72708547973,7.545932,6,P-GPS,
13000,2026-03-30 12:32:10,39.8649870671725,-76.1545807617147,7.545932,,,661.72708547973,7.874016,2.5053728,4.840223252,8.4544950212,30,5,8.011,661.72708547973,7.545932,2.5053728,4.840223252,-1.11847,2.23694,0,116.7, -16.2, 6.7,0,0,1507,1024,1024,1024,73,0,0,0,182.2,0,0,90,4.011,4.013,0,0,0,0,4.696,82.58,661.72708547973,7.545932,6,P-GPS,
13100,2026-03-30 12:32:10,39.8649863026981,-76.1545791165773,7.545932,,,661.72708547973,7.874016,3.1988242,5.0347442556,8.9930449072,30,5,8.011,661.72708547973,7.545932,3.1988242,5.0347442556,-1.342164,2.908022,0,116.3, -19.6, 7.5,0,0,1500,1024,1024,1024,72,0,0,0,182.2,0,0,90,4.011,4.013,0,0,0,0,4.696,82.58,661.72708547973,7.545932,6,P-GPS,
13200,2026-03-30 12:32:10,39.8649857322313,-76.154577566964,7.545932,,,661.72708547973,7.874016,3.802798,5.2892390144,9.4743441352,30,5,8.011,661.72708547973,7.545932,3.802798,5.2892390144,-1.789552,3.35541,0,116.2, -20.8, 9,0,0,1465,1024,1024,1024,67,0,0,0,182.2,0,0,90,4.011,4.013,0,0,0,0,4.696,82.58,661.72708547973,7.545932,6,P-GPS,
13300,2026-03-30 12:32:10,39.8649848607293,-76.1545751884872,7.545932,,,661.72708547973,7.874016,4.4962494,5.7373361416,10.21243471,30,5,8.011,661.72708547973,7.545932,4.4962494,5.7373361416,-2.013246,4.026492,0,116.5, -19.6, 9.2,0,0,1459,1024,1024,1024,66,0,0,0,182.2,0,0,90,4.011,4.013,0,0,0,0,4.696,82.58,661.72708547973,7.545932,6,P-GPS,
13400,2026-03-30 12:32:10,39.8649839896741,-76.1545729701747,7.545932,,,661.72708547973,7.874016,5.0107456,6.1984582036,10.9102037612,30,5,8.011,661.72708547973,7.545932,5.0107456,6.1984582036,-2.23694,4.47388,0,116.6, -18.7, 9.6,0,0,1459,1024,1024,1024,66,0,0,0,182.2,0,0,90,4.011,4.013,0,0,0,0,4.696,82.58,661.72708547973,7.545932,6,P-GPS,
13500,2026-03-30 12:32:10,39.8649824352935,-76.1545697249174,7.545932,,,661.72708547973,7.874016,5.6147194,6.9222771244,11.981463638,30,5,7.993,661.72708547973,7.545932,5.6147194,6.9222771244,-2.684328,4.921268,0,116.6, -17.9, 8.7,0,0,1441,1024,1024,1024,63,0,0,0,182.2,0,0,90,3.988,3.989,0,0,0,0,5.397,82.58,661.72708547973,7.545932,6,P-GPS,
13600,2026-03-30 12:32:10,39.8649812785647,-76.1545668863675,7.545932,,,661.72708547973,7.874016,6.1068462,7.6324805592,12.8814636668,30,5,7.993,661.72708547973,7.545932,6.1068462,7.6324805592,-2.908022,5.368656,0,116.7, -16.6, 8.4,0,0,1441,1024,1024,1024,63,0,0,0,182.2,0,0,90,3.988,3.989,0,0,0,0,5.397,82.58,661.72708547973,7.545932,6,P-GPS,
13700,2026-03-30 12:32:10,39.8649797052329,-76.1545638161754,7.545932,,,661.72708547973,7.874016,6.598973,8.43421943,13.9152563508,30,5,7.993,661.72708547973,7.545932,6.598973,8.43421943,-3.131716,5.816044,0,117, -15.4, 7.4,0,0,1024,1024,1024,1024,0,0,0,0,182.2,0,0,90,3.988,3.989,0,0,0,0,5.397,82.58,661.72708547973,7.545932,6,P-GPS,
13800,2026-03-30 12:32:11,39.8649783788824,-76.1545605909692,7.545932,,,661.72708547973,8.2021,6.8002976,9.3247378312,14.9399282996,30,5,7.993,661.72708547973,7.545932,6.8002976,9.3247378312,-3.131716,6.039738,0,117.3, -9.7, 7.5,0,0,1024,1024,1024,1024,0,0,0,0,182.2,0,0,90,3.988,3.989,0,0,0,0,5.397,82.58,661.72708547973,7.545932,6,P-GPS,
13900,2026-03-30 12:32:11,39.8649767052614,-76.1545574588853,7.545932,,,661.72708547973,8.530184,6.8002976,10.2213914032,16.0086619296,30,5,7.993,661.72708547973,7.545932,6.8002976,10.2213914032,-3.131716,6.039738,-0.223694,118.1, 2.2, 8.1,0,0,1024,1024,1024,1024,0,0,0,0,182.2,0,0,90,3.988,3.989,0,0,0,0,5.397,82.58,661.72708547973,7.545932,6,P-GPS,
14000,2026-03-30 12:32:11,39.8649754549038,-76.1545544212286,7.545932,,,661.72708547973,8.530184,6.3081708,11.1059386756,16.973917866,30,5,7.993,661.72708547973,7.545932,6.8002976,11.1059386756,-2.908022,5.59235,-0.223694,119.4, 15.8, 8.3,0,0,1024,1024,1024,1153,0,0,0,20,182.2,0,0,90,3.988,3.989,0,0,0,0,5.397,82.58,661.72708547973,7.545932,6,P-GPS,
14100,2026-03-30 12:32:11,39.864973936269,-76.154552219134,7.545932,,,661.72708547973,8.858268,5.4133948,11.7841539204,17.8029533256,30,5,7.993,661.72708547973,7.545932,6.8002976,11.7841539204,-2.684328,4.697574,0,120.7, 24.7, 6.5,0,0,1024,1024,1024,1541,0,0,0,78,182.3,0,0,90,3.988,3.989,0,0,0,0,5.397,82.58,661.72708547973,7.545932,6,P-GPS,
14200,2026-03-30 12:32:11,39.8649729427348,-76.1545499197036,7.545932,,,661.72708547973,8.858268,4.2278166,12.475230058,18.5419297272,30,5,7.993,661.72708547973,7.545932,6.8002976,12.475230058,-2.23694,3.579104,0,121.1, 23.8, 4.6,0,0,1024,1024,1024,1541,0,0,0,78,183.4,0,0,90,3.988,3.989,0,0,0,0,5.397,82.58,661.72708547973,7.545932,6,P-GPS,
14300,2026-03-30 12:32:11,39.864972128999,-76.1545491462914,7.545932,,,661.72708547973,8.858268,3.3106712,12.739337678,18.9094166156,30,5,7.993,661.72708547973,7.545932,6.8002976,12.739337678,-1.565858,2.908022,0,121.9, 20.8, 5.1,0,0,1024,1024,1024,1596,0,0,0,87,186,0,0,90,3.988,3.989,0,0,0,0,5.397,82.58,661.72708547973,7.545932,6,P-GPS,
14400,2026-03-30 12:32:11,39.8649716204864,-76.154547850868,7.545932,,,661.72708547973,9.186352,2.5053728,13.1301841472,19.3168641352,30,5,7.993,661.72708547973,7.545932,6.8002976,13.1301841472,-1.11847,2.23694,0,124, 17.1, 6.8,0,0,1024,1024,1024,1616,0,0,0,90,189.7,0,0,90,3.988,3.989,0,0,0,0,5.397,82.58,661.72708547973,7.545932,6,P-GPS,
14500,2026-03-30 12:32:11,39.8649719128652,-76.1545477843715,7.545932,,,661.72708547973,8.858268,1.7000744,13.1287077692,19.4251646636,29,5,7.998,661.72708547973,7.545932,6.8002976,13.1301841472,-0.671082,1.565858,0.223694,127.6, 13.1, 9,0,0,1024,1024,1024,1618,0,0,0,90,194.4,0,0,90,4.002,4.004,0,0,0,0,5.19,82.58,661.72708547973,7.545932,6,P-GPS,
14600,2026-03-30 12:32:11,39.8649717206736,-76.1545469813549,7.545932,,,661.72708547973,8.858268,1.1408394,13.3625988528,19.6607289756,29,5,7.998,661.72708547973,7.545932,6.8002976,13.3625988528,-0.223694,1.11847,0,132.2, 10.1, 10.4,0,0,1024,1024,1024,1618,0,0,0,90,199.6,0,0,90,4.002,4.004,0,0,0,0,5.19,82.58,661.72708547973,7.545932,6,P-GPS,
14700,2026-03-30 12:32:12,39.8649722534961,-76.1545471995209,7.545932,,,661.72708547973,8.858268,0.671082,13.2681106608,19.864501948,30,5,7.998,661.72708547973,7.545932,6.8002976,13.3625988528,0,0.671082,0,137, 6.9, 11.1,0,0,1024,1024,1024,1572,0,0,0,83,204.9,0,0,90,4.002,4.004,0,0,0,0,5.19,82.58,661.72708547973,7.545932,6,P-GPS,
14800,2026-03-30 12:32:12,39.8649722505884,-76.1545468702091,7.545932,,,661.72708547973,8.858268,0.4921268,13.3591867792,19.9567263604,30,5,7.998,661.72708547973,7.545932,6.8002976,13.3625988528,0.223694,0.447388,0,142, 4.5, 11.3,0,0,1024,1024,1024,1024,0,0,0,0,209.5,0,0,90,4.002,4.004,0,0,0,0,5.19,82.58,661.72708547973,7.545932,6,P-GPS,
14900,2026-03-30 12:32:12,39.8649725404839,-76.1545476430192,7.545932,,,661.72708547973,8.858268,0.223694,13.1281828348,20.1976056332,30,5,7.998,661.72708547973,7.545932,6.8002976,13.3625988528,0.223694,0,0,146.8, 2, 10.3,0,0,1024,1024,1024,890,0,0,0,-20,211.9,0,0,90,4.002,4.004,0,0,0,0,5.19,82.58,661.72708547973,7.545932,6,P-GPS,
15000,2026-03-30 12:32:12,39.8649727495864,-76.154547716291,7.545932,,,661.72708547973,8.858268,0.4921268,13.095636902,20.2766082604,30,5,7.998,661.72708547973,7.545932,6.8002976,13.3625988528,0.447388,-0.223694,0,149.7, 0.2, 9,0,0,1024,1024,907,557,0,0,-18,-71,213,0,0,90,4.002,4.004,0,0,0,0,5.19,82.58,661.72708547973,7.545932,6,P-GPS,
15100,2026-03-30 12:32:12,39.8649733191744,-76.1545483488773,7.545932,,,661.72708547973,8.858268,0.6263432,12.8890095988,20.5496725736,30,5,7.998,661.72708547973,7.545932,6.8002976,13.3625988528,0.447388,-0.447388,0,150.8, -1.7, 7.9,0,0,1024,1024,785,528,0,0,-36,-75,212.7,0,0,90,4.002,4.004,0,0,0,0,5.19,82.58,661.72708547973,7.545932,6,P-GPS,
15200,2026-03-30 12:32:12,39.8649736153477,-76.1545486129749,7.545932,,,661.72708547973,8.858268,0.8052984,12.800525344,20.6806437064,30,5,7.998,661.72708547973,7.545932,6.8002976,13.3625988528,0.671082,-0.447388,0.447388,150.4, -4.6, 7.7,0,0,1024,1024,751,483,0,0,-41,-82,210.7,0,0,90,4.002,4.004,0,0,0,0,5.19,82.58,661.72708547973,7.545932,6,P-GPS,
15300,2026-03-30 12:32:12,39.864974115492,-76.1545491309375,7.545932,,,661.72708547973,8.858268,0.8052984,12.6328088032,20.9137473884,30,5,7.998,661.72708547973,7.545932,6.8002976,13.3625988528,0.671082,-0.447388,1.342164,148.7, -6.5, 7.8,0,0,1024,1024,748,476,0,0,-42,-83,207.6,0,0,90,4.002,4.004,0,0,0,0,5.19,82.58,661.72708547973,7.545932,6,P-GPS,
15400,2026-03-30 12:32:12,39.8649744119297,-76.1545494046637,7.217848,,,661.39900147973,8.530184,0.8052984,12.543635572,21.0462933244,30,5,7.998,661.72708547973,7.545932,6.8002976,13.3625988528,0.671082,-0.447388,2.013246,146, -6.7, 6.7,0,0,1024,1024,1024,602,0,0,0,-64,203.7,0,0,90,4.002,4.004,0,0,0,0,5.19,82.58,661.39900147973,7.217848,6,P-GPS,
15500,2026-03-30 12:32:12,39.8649744001486,-76.1545495498784,6.889764,,,661.07091747973,8.2021,0.6263432,12.5037405576,21.0872053992,29,5,7.99,661.72708547973,7.545932,6.8002976,13.3625988528,0.447388,-0.447388,2.23694,142.5, -6, 4.5,0,0,1024,1024,1024,1024,0,0,0,0,199.9,0,0,90,3.995,3.995,0,0,0,0,5.175,82.58,661.07091747973,6.889764,6,P-GPS,
15600,2026-03-30 12:32:12,39.8649746548505,-76.1545497847501,6.56168,,,660.74283347973,7.874016,0.4921268,12.4277563032,21.2010505472,29,5,7.99,661.72708547973,7.545932,6.8002976,13.3625988528,0.447388,-0.223694,1.565858,138.5, -4.7, 3.3,0,0,1024,1024,1024,1024,0,0,0,0,197.7,0,0,90,3.995,3.995,0,0,0,0,5.175,82.58,660.74283347973,6.56168,6,P-GPS,
15700,2026-03-30 12:32:13,39.8649745032901,-76.1545498021141,6.56168,,,660.74283347973,7.874016,0.447388,12.4291998728,21.25656236,30,5,7.99,661.72708547973,7.545932,6.8002976,13.3625988528,0.447388,0,0.894776,134.8, -2.4, 5.5,0,0,1024,1024,1024,1024,0,0,0,0,196.7,0,0,90,3.995,3.995,0,0,0,0,5.175,82.58,660.74283347973,6.56168,6,P-GPS,
15800,2026-03-30 12:32:13,39.8649747790839,-76.1545499094576,6.56168,,,660.74283347973,7.545932,0.671082,12.3880909476,21.3615820484,30,5,7.99,661.72708547973,7.545932,6.8002976,13.3625988528,0.671082,0,0.447388,133.9, -4, 9.8,0,0,1024,1024,1024,1024,0,0,0,0,196.4,0,0,90,3.995,3.995,0,0,0,0,5.175,82.58,660.74283347973,6.56168,6,P-GPS,
15900,2026-03-30 12:32:13,39.8649749214178,-76.1545498274807,6.233596,,,660.41474947973,7.545932,0.4921268,12.4054465912,21.4183405804,30,5,7.99,661.72708547973,7.545932,6.8002976,13.3625988528,0.447388,-0.223694,0.223694,134.2, -5.4, 10.4,0,0,1024,1024,1024,1024,0,0,0,0,196.4,0,0,90,3.995,3.995,0,0,0,0,5.175,82.58,660.41474947973,6.233596,6,P-GPS,
16000,2026-03-30 12:32:13,39.8649750736465,-76.1545499207587,6.233596,,,660.41474947973,7.545932,0.4921268,12.3738192936,21.4797250968,30,5,7.99,661.72708547973,7.545932,6.8002976,13.3625988528,0.447388,-0.223694,0.223694,134.2, -4.8, 9,0,0,1024,1024,1024,1024,0,0,0,0,196.4,0,0,90,3.995,3.995,0,0,0,0,5.175,82.58,660.41474947973,6.233596,6,P-GPS,
16100,2026-03-30 12:32:13,39.8649750510276,-76.1545499517104,6.233596,,,660.41474947973,7.545932,0.3131716,12.3660437028,21.4917001628,30,5,7.99,661.72708547973,7.545932,6.8002976,13.3625988528,0.223694,-0.223694,0,134, -4, 8.2,0,0,1024,1024,1024,1024,0,0,0,0,196.4,0,0,90,3.995,3.995,0,0,0,0,5.175,82.58,660.41474947973,6.233596,6,P-GPS,
16200,2026-03-30 12:32:13,39.8649751072638,-76.1545500161104,6.233596,,,660.41474947973,7.545932,0.3131716,12.3460633872,21.5189967516,30,5,7.99,661.72708547973,7.545932,6.8002976,13.3625988528,0.223694,-0.223694,0,134.1, -3.6, 8.3,0,0,1024,1024,1024,1024,0,0,0,0,196.4,0,0,90,3.995,3.995,0,0,0,0,5.175,82.58,660.41474947973,6.233596,6,P-GPS,
16300,2026-03-30 12:32:13,39.8649751362257,-76.1545499913224,6.233596,,,660.41474947973,7.545932,0.3131716,12.3519360908,21.531660794,30,5,7.99,661.72708547973,7.545932,6.8002976,13.3625988528,0.223694,-0.223694,0,134.4, -3.5, 7.8,0,0,1024,1024,1024,1024,0,0,0,0,196.4,0,0,90,3.995,3.995,0,0,0,0,5.175,82.58,660.41474947973,6.233596,6,P-GPS,
16400,2026-03-30 12:32:13,39.8649752020236,-76.1545500762863,6.233596,,,660.41474947973,7.545932,0.3131716,12.3259190296,21.565453446,30,5,7.99,661.72708547973,7.545932,6.8002976,13.3625988528,0.223694,-0.223694,0,134.1, -4.5, 7.4,0,0,1024,1024,1024,1024,0,0,0,0,196.4,0,0,90,3.995,3.995,0,0,0,0,5.175,82.58,660.41474947973,6.233596,6,P-GPS,
16500,2026-03-30 12:32:13,39.8649754638538,-76.1545501232202,6.233596,,,660.41474947973,7.545932,0.3131716,12.3040358268,21.6618773336,30,5,8.052,661.72708547973,7.545932,6.8002976,13.3625988528,0.223694,-0.223694,0,133.9, -4.9, 7,0,0,1024,1024,1024,1024,0,0,0,0,196.4,0,0,89,3.93,3.938,0,0,0,0,2.846,82.76,660.41474947973,6.233596,6,P-GPS,
16600,2026-03-30 12:32:13,39.8649755501557,-76.1545501802973,6.233596,,,660.41474947973,7.545932,0.223694,12.2854006556,21.697179172,30,5,8.052,661.72708547973,7.545932,6.8002976,13.3625988528,0.223694,0,0,133.9, -4.5, 7.6,0,0,1024,1024,1024,1024,0,0,0,0,196.4,0,0,89,3.93,3.938,0,0,0,0,2.846,82.76,660.41474947973,6.233596,6,P-GPS,
16700,2026-03-30 12:32:13,39.8649757027664,-76.1545501542942,6.233596,,,660.41474947973,7.545932,0.223694,12.2879925192,21.7533471528,30,5,8.052,661.72708547973,7.545932,6.8002976,13.3625988528,0.223694,0,0,134.1, -4.2, 7.8,0,0,1024,1024,1024,1024,0,0,0,0,196.4,0,0,89,3.93,3.938,0,0,0,0,2.846,82.76,660.41474947973,6.233596,6,P-GPS,
16800,2026-03-30 12:32:14,39.8649757868137,-76.1545501711687,6.233596,,,660.41474947973,7.545932,0.223694,12.280840288,21.7843838992,30,5,8.052,661.72708547973,7.545932,6.8002976,13.3625988528,0.223694,0,0,134, -4.2, 8,0,0,1024,1024,1024,1024,0,0,0,0,196.4,0,0,89,3.93,3.938,0,0,0,0,2.846,82.76,660.41474947973,6.233596,6,P-GPS,
16900,2026-03-30 12:32:14,39.8649758941088,-76.154550063479,6.233596,,,660.41474947973,7.545932,0.223694,12.3078744096,21.8337933496,30,5,8.052,661.72708547973,7.545932,6.8002976,13.3625988528,0.223694,0,0,134, -3.8, 8.3,0,0,1024,1024,1024,1024,0,0,0,0,196.4,0,0,89,3.93,3.938,0,0,0,0,2.846,82.76,660.41474947973,6.233596,6,P-GPS,
17000,2026-03-30 12:32:14,39.864975974757,-76.1545500581846,6.233596,,,660.41474947973,7.545932,0.223694,12.3071854332,21.8632552928,30,5,8.052,661.72708547973,7.545932,6.8002976,13.3625988528,0.223694,0,0,134, -3.3, 8.9,0,0,1024,1024,1024,1024,0,0,0,0,196.4,0,0,89,3.93,3.938,0,0,0,0,2.846,82.76,660.41474947973,6.233596,6,P-GPS,
17100,2026-03-30 12:32:14,39.8649757745547,-76.1545500261079,6.233596,,,660.41474947973,7.545932,0.223694,12.321686746,21.936844534,30,5,8.052,661.72708547973,7.545932,6.8002976,13.3625988528,0.223694,0,0,134, -4.1, 9.2,0,0,1024,1024,1024,1024,0,0,0,0,196.4,0,0,89,3.93,3.938,0,0,0,0,2.846,82.76,660.41474947973,6.233596,6,P-GPS,
17200,2026-03-30 12:32:14,39.8649758315553,-76.1545500354034,6.233596,,,660.41474947973,7.545932,0,12.3174544624,21.9578091016,30,5,8.052,661.72708547973,7.545932,6.8002976,13.3625988528,0,0,0,134.1, -4.1, 8.5,0,0,1024,1024,1024,1024,0,0,0,0,196.4,0,0,89,3.93,3.938,0,0,0,0,2.846,82.76,660.41474947973,6.233596,6,P-GPS,
17300,2026-03-30 12:32:14,39.8649757205643,-76.1545499362961,6.233596,,,660.41474947973,7.545932,0,12.3483271668,22.006890468,30,5,8.052,661.72708547973,7.545932,6.8002976,13.3625988528,0,0,0,134, -3.5, 8.7,0,0,1024,1024,1024,1024,0,0,0,0,196.4,0,0,89,3.93,3.938,0,0,0,0,2.846,82.76,660.41474947973,6.233596,6,P-GPS,
17400,2026-03-30 12:32:14,39.8649757486331,-76.1545499381462,6.233596,,,660.41474947973,7.545932,0,12.3469820224,22.0171594972,30,5,8.052,661.72708547973,7.545932,6.8002976,13.3625988528,0,0,0,134.2, -3.2, 9.4,0,0,1024,1024,1024,1024,0,0,0,0,196.4,0,0,89,3.93,3.938,0,0,0,0,2.846,82.76,660.41474947973,6.233596,6,P-GPS,
17500,2026-03-30 12:32:14,39.8649756537982,-76.1545500441534,6.233596,,,660.41474947973,7.545932,0,12.320210368,22.0627303648,30,5,7.994,661.72708547973,7.545932,6.8002976,13.3625988528,0,0,0,134.2, -3.6, 9,0,0,1024,1024,1024,1024,0,0,0,0,196.4,0,0,89,3.995,3.995,0,0,0,0,4.983,82.76,660.41474947973,6.233596,6,P-GPS,
17600,2026-03-30 12:32:14,39.8649756625418,-76.1545500815473,6.233596,,,660.41474947973,7.545932,0,12.3095148296,22.0736883704,30,5,7.994,661.72708547973,7.545932,6.8002976,13.3625988528,0,0,0,134.1, -4.6, 7.7,0,0,1024,1024,1024,1024,0,0,0,0,196.4,0,0,89,3.995,3.995,0,0,0,0,4.983,82.76,660.41474947973,6.233596,6,P-GPS,
17700,2026-03-30 12:32:14,39.8649756073235,-76.1545501891371,6.233596,,,660.41474947973,7.545932,0,12.2811355636,22.1099416524,30,5,7.994,661.72708547973,7.545932,6.8002976,13.3625988528,0,0,0,134, -4.7, 7,0,0,1024,1024,1024,1024,0,0,0,0,196.4,0,0,89,3.995,3.995,0,0,0,0,4.983,82.76,660.41474947973,6.233596,6,P-GPS,
17800,2026-03-30 12:32:15,39.8649756052493,-76.1545501638474,6.233596,,,660.41474947973,7.545932,0,12.2882877948,22.1170610752,30,5,7.994,661.72708547973,7.545932,6.8002976,13.3625988528,0,0,0,134, -3.3, 8.2,0,0,1024,1024,1024,1024,0,0,0,0,196.4,0,0,89,3.995,3.995,0,0,0,0,4.983,82.76,660.41474947973,6.233596,6,P-GPS,
17900,2026-03-30 12:32:15,39.8649754019314,-76.1545501714942,6.233596,,,660.41474947973,7.545932,0,12.2925856952,22.191273676,30,5,7.994,661.72708547973,7.545932,6.8002976,13.3625988528,0,0,0,134.3, -2.7, 10,0,0,1024,1024,1024,1024,0,0,0,0,196.4,0,0,89,3.995,3.995,0,0,0,0,4.983,82.76,660.41474947973,6.233596,6,P-GPS,
18000,2026-03-30 12:32:15,39.8649754205029,-76.1545501517438,6.233596,,,660.41474947973,7.545932,0,12.2975069552,22.2000007104,30,5,7.994,661.72708547973,7.545932,6.8002976,13.3625988528,0,0,0,133.9, -4.1, 10.1,0,0,1024,1024,1024,1024,0,0,0,0,196.4,0,0,89,3.995,3.995,0,0,0,0,4.983,82.76,660.41474947973,6.233596,6,P-GPS,
18100,2026-03-30 12:32:15,39.8649755261963,-76.1545500789957,6.233596,,,660.41474947973,7.545932,0,12.3144032812,22.2436358824,30,5,7.994,661.72708547973,7.545932,6.8002976,13.3625988528,0,0,0,133.9, -4.3, 9.3,0,0,1024,1024,1024,1024,0,0,0,0,196.4,0,0,89,3.995,3.995,0,0,0,0,4.983,82.76,660.41474947973,6.233596,6,P-GPS,
18200,2026-03-30 12:32:15,39.8649755190396,-76.154550089428,6.233596,,,660.41474947973,7.545932,0,12.3117129924,22.247540082,30,5,7.994,661.72708547973,7.545932,6.8002976,13.3625988528,0,0,0,134.1, -3.7, 9.1,0,0,1024,1024,1024,1024,0,0,0,0,196.4,0,0,89,3.995,3.995,0,0,0,0,4.983,82.76,660.41474947973,6.233596,6,P-GPS,
18300,2026-03-30 12:32:15,39.8649754871232,-76.1545502441978,6.233596,,,660.41474947973,7.545932,0,12.2695541984,22.2924219732,30,5,7.994,661.72708547973,7.545932,6.8002976,13.3625988528,0,0,0,134.1, -3.9, 8.1,0,0,1024,1024,1024,1024,0,0,0,0,196.4,0,0,89,3.995,3.995,0,0,0,0,4.983,82.76,660.41474947973,6.233596,6,P-GPS,
18400,2026-03-30 12:32:15,39.8649754965023,-76.1545502368082,6.233596,,,660.41474947973,7.545932,0,12.271325852,22.296424598,30,5,7.994,661.72708547973,7.545932,6.8002976,13.3625988528,0,0,0,133.9, -4.3, 9.2,0,0,1024,1024,1024,1024,0,0,0,0,196.4,0,0,89,3.995,3.995,0,0,0,0,4.983,82.76,660.41474947973,6.233596,6,P-GPS,
18500,2026-03-30 12:32:15,39.8649754135076,-76.1545504241006,6.233596,,,660.41474947973,7.545932,0,12.2217523596,22.3569889044,30,5,7.997,661.72708547973,7.545932,6.8002976,13.3625988528,0,0,0,134.2, -3.9, 9.7,0,0,1024,1024,1024,1024,0,0,0,0,196.4,0,0,89,3.996,3.996,0,0,0,0,4.652,82.76,660.41474947973,6.233596,6,P-GPS,
18600,2026-03-30 12:32:15,39.8649754177591,-76.1545504506609,6.233596,,,660.41474947973,7.545932,0,12.2142064276,22.3646004532,30,5,7.997,661.72708547973,7.545932,6.8002976,13.3625988528,0,0,0,134.4, -3.4, 9.1,0,0,1024,1024,1024,1024,0,0,0,0,196.4,0,0,89,3.996,3.996,0,0,0,0,4.652,82.76,660.41474947973,6.233596,6,P-GPS,
18700,2026-03-30 12:32:15,39.864975199971,-76.1545504144601,6.233596,,,660.41474947973,7.545932,0,12.2317261132,22.4446857576,30,5,7.997,661.72708547973,7.545932,6.8002976,13.3625988528,0,0,0,134.1, -4.8, 7.9,0,0,1024,1024,1024,1024,0,0,0,0,196.4,0,0,89,3.996,3.996,0,0,0,0,4.652,82.76,660.41474947973,6.233596,6,P-GPS,
18800,2026-03-30 12:32:16,39.8649751872959,-76.1545504636574,6.233596,,,660.41474947973,7.545932,0,12.2184715196,22.4592198788,30,5,7.997,661.72708547973,7.545932,6.8002976,13.3625988528,0,0,0,134, -5.8, 7.2,0,0,1024,1024,1024,1024,0,0,0,0,196.4,0,0,89,3.996,3.996,0,0,0,0,4.652,82.76,660.41474947973,6.233596,6,P-GPS,
18900,2026-03-30 12:32:16,39.8649750572639,-76.1545507166315,6.233596,,,660.41474947973,7.545932,0,12.1526906776,22.5444889104,30,5,7.997,661.72708547973,7.545932,6.8002976,13.3625988528,0,0,0,133.9, -4.6, 8,0,0,1024,1024,1024,1024,0,0,0,0,196.4,0,0,89,3.996,3.996,0,0,0,0,4.652,82.76,660.41474947973,6.233596,6,P-GPS,
19000,2026-03-30 12:32:16,39.8649750278618,-76.1545507277661,6.233596,,,660.41474947973,7.545932,0,12.1506565568,22.5556437664,30,5,7.997,661.72708547973,7.545932,6.8002976,13.3625988528,0,0,0,134.3, -3.1, 8.9,0,0,1024,1024,1024,1024,0,0,0,0,196.4,0,0,89,3.996,3.996,0,0,0,0,4.652,82.76,660.41474947973,6.233596,6,P-GPS,
19100,2026-03-30 12:32:16,39.8649749200341,-76.1545507867041,6.233596,,,660.41474947973,7.545932,0,12.1383534068,22.5983274948,30,5,7.997,661.72708547973,7.545932,6.8002976,13.3625988528,0,0,0,134.4, -4.9, 7.5,0,0,1024,1024,1024,1024,0,0,0,0,196.4,0,0,89,3.996,3.996,0,0,0,0,4.652,82.76,660.41474947973,6.233596,6,P-GPS,
19200,2026-03-30 12:32:16,39.8649748778817,-76.1545508281774,6.233596,,,660.41474947973,7.545932,0,12.12844527,22.6175860256,30,5,7.997,661.72708547973,7.545932,6.8002976,13.3625988528,0,0,0,134.4, -5.1, 6.5,0,0,1024,1024,1024,1024,0,0,0,0,196.4,0,0,89,3.996,3.996,0,0,0,0,4.652,82.76,660.41474947973,6.233596,6,P-GPS,
19300,2026-03-30 12:32:16,39.8649747994324,-76.1545508176443,6.233596,,,660.41474947973,7.545932,0,12.1344820156,22.6463589924,30,5,7.997,661.72708547973,7.545932,6.8002976,13.3625988528,0,0,0,134.1, -4.8, 6.2,0,0,1024,1024,1024,1024,0,0,0,0,196.4,0,0,89,3.996,3.996,0,0,0,0,4.652,82.76,660.41474947973,6.233596,6,P-GPS,
