session_id,session_dir,run_label,run_number,maneuver_name,protocol_category,protocol_order,maneuver_mode,benchmark_phase,maneuver_preroll_s,maneuver_duration_s,maneuver_settle_s,sample_index,time_s,pos_x_m,pos_y_m,pos_z_m,vel_x_mps,vel_y_mps,vel_z_mps,forward_speed_mps,lateral_speed_mps,horizontal_speed_mps,vertical_speed_mps,yaw_deg,pitch_deg,roll_deg,yaw_rate_degps,input_roll,input_pitch,input_throttle,input_yaw
session_20260402_133209,C:/Users/josh_fleming/AppData/LocalLow/DefaultCompany/DJI Drone Sim\BenchmarkRuns\session_20260402_133209,20260402_133257_run007,7,descent,descent,6,Normal,preroll,1.5,1,1.5,0,0.02,0,1.996076,40,0,-0.1962,0,0,0,0,-0.1962,0,0,0,0,0,0,0,0
session_20260402_133209,C:/Users/josh_fleming/AppData/LocalLow/DefaultCompany/DJI Drone Sim\BenchmarkRuns\session_20260402_133209,20260402_133257_run007,7,descent,descent,6,Normal,preroll,1.5,1,1.5,1,0.04,0,1.992529,40,0,-0.177365,0,0,0,0,-0.177365,0,0,0,0,0,0,0,0
session_20260402_133209,C:/Users/josh_fleming/AppData/LocalLow/DefaultCompany/DJI Drone Sim\BenchmarkRuns\session_20260402_133209,20260402_133257_run007,7,descent,descent,6,Normal,preroll,1.5,1,1.5,2,0.06,0,1.989322,40,0,-0.160338,0,0,0,0,-0.160338,0,0,0,0,0,0,0,0
session_20260402_133209,C:/Users/josh_fleming/AppData/LocalLow/DefaultCompany/DJI Drone Sim\BenchmarkRuns\session_20260402_133209,20260402_133257_run007,7,descent,descent,6,Normal,preroll,1.5,1,1.5,3,0.08,0,1.986423,40,0,-0.144945,0,0,0,0,-0.144945,0,0,0,0,0,0,0,0
session_20260402_133209,C:/Users/josh_fleming/AppData/LocalLow/DefaultCompany/DJI Drone Sim\BenchmarkRuns\session_20260402_133209,20260402_133257_run007,7,descent,descent,6,Normal,preroll,1.5,1,1.5,4,0.1,0,1.983802,40,0,-0.131031,0,0,0,0,-0.131031,0,0,0,0,0,0,0,0
session_20260402_133209,C:/Users/josh_fleming/AppData/LocalLow/DefaultCompany/DJI Drone Sim\BenchmarkRuns\session_20260402_133209,20260402_133257_run007,7,descent,descent,6,Normal,preroll,1.5,1,1.5,5,0.12,0,1.981433,40,0,-0.118452,0,0,0,0,-0.118452,0,0,0,0,0,0,0,0
session_20260402_133209,C:/Users/josh_fleming/AppData/LocalLow/DefaultCompany/DJI Drone Sim\BenchmarkRuns\session_20260402_133209,20260402_133257_run007,7,descent,descent,6,Normal,preroll,1.5,1,1.5,6,0.14,0,1.979292,40,0,-0.10708,0,0,0,0,-0.10708,0,0,0,0,0,0,0,0
session_20260402_133209,C:/Users/josh_fleming/AppData/LocalLow/DefaultCompany/DJI Drone Sim\BenchmarkRuns\session_20260402_133209,20260402_133257_run007,7,descent,descent,6,Normal,preroll,1.5,1,1.5,7,0.16,0,1.977356,40,0,-0.0968,0,0,0,0,-0.0968,0,0,0,0,0,0,0,0
session_20260402_133209,C:/Users/josh_fleming/AppData/LocalLow/DefaultCompany/DJI Drone Sim\BenchmarkRuns\session_20260402_133209,20260402_133257_run007,7,descent,descent,6,Normal,preroll,1.5,1,1.5,8,0.18,0,1.975606,40,0,-0.087508,0,0,0,0,-0.087508,0,0,0,0,0,0,0,0
session_20260402_133209,C:/Users/josh_fleming/AppData/LocalLow/DefaultCompany/DJI Drone Sim\BenchmarkRuns\session_20260402_133209,20260402_133257_run007,7,descent,descent,6,Normal,preroll,1.5,1,1.5,9,0.2,0,1.974024,40,0,-0.079107,0,0,0,0,-0.079107,0,0,0,0,0,0,0,0
session_20260402_133209,C:/Users/josh_fleming/AppData/LocalLow/DefaultCompany/DJI Drone Sim\BenchmarkRuns\session_20260402_133209,20260402_133257_run007,7,descent,descent,6,Normal,preroll,1.5,1,1.5,10,0.22,0,1.972593,40,0,-0.071513,0,0,0,0,-0.071513,0,0,0,0,0,0,0,0
session_20260402_133209,C:/Users/josh_fleming/AppData/LocalLow/DefaultCompany/DJI Drone Sim\BenchmarkRuns\session_20260402_133209,20260402_133257_run007,7,descent,descent,6,Normal,preroll,1.5,1,1.5,11,0.24,0,1.9713,40,0,-0.064647,0,0,0,0,-0.064647,0,0,0,0,0,0,0,0
session_20260402_133209,C:/Users/josh_fleming/AppData/LocalLow/DefaultCompany/DJI Drone Sim\BenchmarkRuns\session_20260402_133209,20260402_133257_run007,7,descent,descent,6,Normal,preroll,1.5,1,1.5,12,0.26,0,1.970132,40,0,-0.058441,0,0,0,0,-0.058441,0,0,0,0,0,0,0,0
session_20260402_133209,C:/Users/josh_fleming/AppData/LocalLow/DefaultCompany/DJI Drone Sim\BenchmarkRuns\session_20260402_133209,20260402_133257_run007,7,descent,descent,6,Normal,preroll,1.5,1,1.5,13,0.28,0,1.969075,40,0,-0.052831,0,0,0,0,-0.052831,0,0,0,0,0,0,0,0
session_20260402_133209,C:/Users/josh_fleming/AppData/LocalLow/DefaultCompany/DJI Drone Sim\BenchmarkRuns\session_20260402_133209,20260402_133257_run007,7,descent,descent,6,Normal,preroll,1.5,1,1.5,14,0.3,0,1.96812,40,0,-0.047759,0,0,0,0,-0.047759,0,0,0,0,0,0,0,0
session_20260402_133209,C:/Users/josh_fleming/AppData/LocalLow/DefaultCompany/DJI Drone Sim\BenchmarkRuns\session_20260402_133209,20260402_133257_run007,7,descent,descent,6,Normal,preroll,1.5,1,1.5,15,0.32,0,1.967256,40,0,-0.043174,0,0,0,0,-0.043174,0,0,0,0,0,0,0,0
session_20260402_133209,C:/Users/josh_fleming/AppData/LocalLow/DefaultCompany/DJI Drone Sim\BenchmarkRuns\session_20260402_133209,20260402_133257_run007,7,descent,descent,6,Normal,preroll,1.5,1,1.5,16,0.34,0,1.966476,40,0,-0.039029,0,0,0,0,-0.039029,0,0,0,0,0,0,0,0
session_20260402_133209,C:/Users/josh_fleming/AppData/LocalLow/DefaultCompany/DJI Drone Sim\BenchmarkRuns\session_20260402_133209,20260402_133257_run007,7,descent,descent,6,Normal,preroll,1.5,1,1.5,17,0.36,0,1.96577,40,0,-0.035283,0,0,0,0,-0.035283,0,0,0,0,0,0,0,0
session_20260402_133209,C:/Users/josh_fleming/AppData/LocalLow/DefaultCompany/DJI Drone Sim\BenchmarkRuns\session_20260402_133209,20260402_133257_run007,7,descent,descent,6,Normal,preroll,1.5,1,1.5,18,0.38,0,1.965132,40,0,-0.031896,0,0,0,0,-0.031896,0,0,0,0,0,0,0,0
session_20260402_133209,C:/Users/josh_fleming/AppData/LocalLow/DefaultCompany/DJI Drone Sim\BenchmarkRuns\session_20260402_133209,20260402_133257_run007,7,descent,descent,6,Normal,preroll,1.5,1,1.5,19,0.4,0,1.964556,40,0,-0.028834,0,0,0,0,-0.028834,0,0,0,0,0,0,0,0
session_20260402_133209,C:/Users/josh_fleming/AppData/LocalLow/DefaultCompany/DJI Drone Sim\BenchmarkRuns\session_20260402_133209,20260402_133257_run007,7,descent,descent,6,Normal,preroll,1.5,1,1.5,20,0.42,0,1.964034,40,0,-0.026066,0,0,0,0,-0.026066,0,0,0,0,0,0,0,0
session_20260402_133209,C:/Users/josh_fleming/AppData/LocalLow/DefaultCompany/DJI Drone Sim\BenchmarkRuns\session_20260402_133209,20260402_133257_run007,7,descent,descent,6,Normal,preroll,1.5,1,1.5,21,0.44,0,1.963563,40,0,-0.023563,0,0,0,0,-0.023563,0,0,0,0,0,0,0,0
session_20260402_133209,C:/Users/josh_fleming/AppData/LocalLow/DefaultCompany/DJI Drone Sim\BenchmarkRuns\session_20260402_133209,20260402_133257_run007,7,descent,descent,6,Normal,preroll,1.5,1,1.5,22,0.46,0,1.963137,40,0,-0.021301,0,0,0,0,-0.021301,0,0,0,0,0,0,0,0
session_20260402_133209,C:/Users/josh_fleming/AppData/LocalLow/DefaultCompany/DJI Drone Sim\BenchmarkRuns\session_20260402_133209,20260402_133257_run007,7,descent,descent,6,Normal,preroll,1.5,1,1.5,23,0.48,0,1.962752,40,0,-0.019256,0,0,0,0,-0.019256,0,0,0,0,0,0,0,0
session_20260402_133209,C:/Users/josh_fleming/AppData/LocalLow/DefaultCompany/DJI Drone Sim\BenchmarkRuns\session_20260402_133209,20260402_133257_run007,7,descent,descent,6,Normal,preroll,1.5,1,1.5,24,0.5,0,1.962404,40,0,-0.017408,0,0,0,0,-0.017408,0,0,0,0,0,0,0,0
session_20260402_133209,C:/Users/josh_fleming/AppData/LocalLow/DefaultCompany/DJI Drone Sim\BenchmarkRuns\session_20260402_133209,20260402_133257_run007,7,descent,descent,6,Normal,preroll,1.5,1,1.5,25,0.52,0,1.962089,40,0,-0.015736,0,0,0,0,-0.015736,0,0,0,0,0,0,0,0
session_20260402_133209,C:/Users/josh_fleming/AppData/LocalLow/DefaultCompany/DJI Drone Sim\BenchmarkRuns\session_20260402_133209,20260402_133257_run007,7,descent,descent,6,Normal,preroll,1.5,1,1.5,26,0.54,0,1.961804,40,0,-0.014226,0,0,0,0,-0.014226,0,0,0,0,0,0,0,0
session_20260402_133209,C:/Users/josh_fleming/AppData/LocalLow/DefaultCompany/DJI Drone Sim\BenchmarkRuns\session_20260402_133209,20260402_133257_run007,7,descent,descent,6,Normal,preroll,1.5,1,1.5,27,0.56,0,1.961547,40,0,-0.01286,0,0,0,0,-0.01286,0,0,0,0,0,0,0,0
session_20260402_133209,C:/Users/josh_fleming/AppData/LocalLow/DefaultCompany/DJI Drone Sim\BenchmarkRuns\session_20260402_133209,20260402_133257_run007,7,descent,descent,6,Normal,preroll,1.5,1,1.5,28,0.58,0,1.961315,40,0,-0.011626,0,0,0,0,-0.011626,0,0,0,0,0,0,0,0
session_20260402_133209,C:/Users/josh_fleming/AppData/LocalLow/DefaultCompany/DJI Drone Sim\BenchmarkRuns\session_20260402_133209,20260402_133257_run007,7,descent,descent,6,Normal,preroll,1.5,1,1.5,29,0.6,0,1.961104,40,0,-0.010509,0,0,0,0,-0.010509,0,0,0,0,0,0,0,0
session_20260402_133209,C:/Users/josh_fleming/AppData/LocalLow/DefaultCompany/DJI Drone Sim\BenchmarkRuns\session_20260402_133209,20260402_133257_run007,7,descent,descent,6,Normal,preroll,1.5,1,1.5,30,0.62,0,1.960914,40,0,-0.009501,0,0,0,0,-0.009501,0,0,0,0,0,0,0,0
session_20260402_133209,C:/Users/josh_fleming/AppData/LocalLow/DefaultCompany/DJI Drone Sim\BenchmarkRuns\session_20260402_133209,20260402_133257_run007,7,descent,descent,6,Normal,preroll,1.5,1,1.5,31,0.64,0,1.960743,40,0,-0.008588,0,0,0,0,-0.008588,0,0,0,0,0,0,0,0
session_20260402_133209,C:/Users/josh_fleming/AppData/LocalLow/DefaultCompany/DJI Drone Sim\BenchmarkRuns\session_20260402_133209,20260402_133257_run007,7,descent,descent,6,Normal,preroll,1.5,1,1.5,32,0.66,0,1.960587,40,0,-0.007764,0,0,0,0,-0.007764,0,0,0,0,0,0,0,0
session_20260402_133209,C:/Users/josh_fleming/AppData/LocalLow/DefaultCompany/DJI Drone Sim\BenchmarkRuns\session_20260402_133209,20260402_133257_run007,7,descent,descent,6,Normal,preroll,1.5,1,1.5,33,0.68,0,1.960447,40,0,-0.007019,0,0,0,0,-0.007019,0,0,0,0,0,0,0,0
session_20260402_133209,C:/Users/josh_fleming/AppData/LocalLow/DefaultCompany/DJI Drone Sim\BenchmarkRuns\session_20260402_133209,20260402_133257_run007,7,descent,descent,6,Normal,preroll,1.5,1,1.5,34,0.7,0,1.96032,40,0,-0.006345,0,0,0,0,-0.006345,0,0,0,0,0,0,0,0
session_20260402_133209,C:/Users/josh_fleming/AppData/LocalLow/DefaultCompany/DJI Drone Sim\BenchmarkRuns\session_20260402_133209,20260402_133257_run007,7,descent,descent,6,Normal,preroll,1.5,1,1.5,35,0.72,0,1.960205,40,0,-0.005736,0,0,0,0,-0.005736,0,0,0,0,0,0,0,0
session_20260402_133209,C:/Users/josh_fleming/AppData/LocalLow/DefaultCompany/DJI Drone Sim\BenchmarkRuns\session_20260402_133209,20260402_133257_run007,7,descent,descent,6,Normal,preroll,1.5,1,1.5,36,0.74,0,1.960102,40,0,-0.005185,0,0,0,0,-0.005185,0,0,0,0,0,0,0,0
session_20260402_133209,C:/Users/josh_fleming/AppData/LocalLow/DefaultCompany/DJI Drone Sim\BenchmarkRuns\session_20260402_133209,20260402_133257_run007,7,descent,descent,6,Normal,preroll,1.5,1,1.5,37,0.76,0,1.960008,40,0,-0.004687,0,0,0,0,-0.004687,0,0,0,0,0,0,0,0
session_20260402_133209,C:/Users/josh_fleming/AppData/LocalLow/DefaultCompany/DJI Drone Sim\BenchmarkRuns\session_20260402_133209,20260402_133257_run007,7,descent,descent,6,Normal,preroll,1.5,1,1.5,38,0.779999,0,1.959923,40,0,-0.004237,0,0,0,0,-0.004237,0,0,0,0,0,0,0,0
session_20260402_133209,C:/Users/josh_fleming/AppData/LocalLow/DefaultCompany/DJI Drone Sim\BenchmarkRuns\session_20260402_133209,20260402_133257_run007,7,descent,descent,6,Normal,preroll,1.5,1,1.5,39,0.799999,0,1.959846,40,0,-0.003831,0,0,0,0,-0.003831,0,0,0,0,0,0,0,0
session_20260402_133209,C:/Users/josh_fleming/AppData/LocalLow/DefaultCompany/DJI Drone Sim\BenchmarkRuns\session_20260402_133209,20260402_133257_run007,7,descent,descent,6,Normal,preroll,1.5,1,1.5,40,0.819999,0,1.959777,40,0,-0.003463,0,0,0,0,-0.003463,0,0,0,0,0,0,0,0
session_20260402_133209,C:/Users/josh_fleming/AppData/LocalLow/DefaultCompany/DJI Drone Sim\BenchmarkRuns\session_20260402_133209,20260402_133257_run007,7,descent,descent,6,Normal,preroll,1.5,1,1.5,41,0.839999,0,1.959715,40,0,-0.00313,0,0,0,0,-0.00313,0,0,0,0,0,0,0,0
session_20260402_133209,C:/Users/josh_fleming/AppData/LocalLow/DefaultCompany/DJI Drone Sim\BenchmarkRuns\session_20260402_133209,20260402_133257_run007,7,descent,descent,6,Normal,preroll,1.5,1,1.5,42,0.859999,0,1.959658,40,0,-0.00283,0,0,0,0,-0.00283,0,0,0,0,0,0,0,0
session_20260402_133209,C:/Users/josh_fleming/AppData/LocalLow/DefaultCompany/DJI Drone Sim\BenchmarkRuns\session_20260402_133209,20260402_133257_run007,7,descent,descent,6,Normal,preroll,1.5,1,1.5,43,0.879999,0,1.959607,40,0,-0.002558,0,0,0,0,-0.002558,0,0,0,0,0,0,0,0
session_20260402_133209,C:/Users/josh_fleming/AppData/LocalLow/DefaultCompany/DJI Drone Sim\BenchmarkRuns\session_20260402_133209,20260402_133257_run007,7,descent,descent,6,Normal,preroll,1.5,1,1.5,44,0.899999,0,1.959561,40,0,-0.002313,0,0,0,0,-0.002313,0,0,0,0,0,0,0,0
session_20260402_133209,C:/Users/josh_fleming/AppData/LocalLow/DefaultCompany/DJI Drone Sim\BenchmarkRuns\session_20260402_133209,20260402_133257_run007,7,descent,descent,6,Normal,preroll,1.5,1,1.5,45,0.919999,0,1.959519,40,0,-0.002091,0,0,0,0,-0.002091,0,0,0,0,0,0,0,0
session_20260402_133209,C:/Users/josh_fleming/AppData/LocalLow/DefaultCompany/DJI Drone Sim\BenchmarkRuns\session_20260402_133209,20260402_133257_run007,7,descent,descent,6,Normal,preroll,1.5,1,1.5,46,0.939999,0,1.959481,40,0,-0.00189,0,0,0,0,-0.00189,0,0,0,0,0,0,0,0
session_20260402_133209,C:/Users/josh_fleming/AppData/LocalLow/DefaultCompany/DJI Drone Sim\BenchmarkRuns\session_20260402_133209,20260402_133257_run007,7,descent,descent,6,Normal,preroll,1.5,1,1.5,47,0.959999,0,1.959447,40,0,-0.001708,0,0,0,0,-0.001708,0,0,0,0,0,0,0,0
session_20260402_133209,C:/Users/josh_fleming/AppData/LocalLow/DefaultCompany/DJI Drone Sim\BenchmarkRuns\session_20260402_133209,20260402_133257_run007,7,descent,descent,6,Normal,preroll,1.5,1,1.5,48,0.979999,0,1.959416,40,0,-0.001544,0,0,0,0,-0.001544,0,0,0,0,0,0,0,0
session_20260402_133209,C:/Users/josh_fleming/AppData/LocalLow/DefaultCompany/DJI Drone Sim\BenchmarkRuns\session_20260402_133209,20260402_133257_run007,7,descent,descent,6,Normal,preroll,1.5,1,1.5,49,0.999999,0,1.959388,40,0,-0.001396,0,0,0,0,-0.001396,0,0,0,0,0,0,0,0
session_20260402_133209,C:/Users/josh_fleming/AppData/LocalLow/DefaultCompany/DJI Drone Sim\BenchmarkRuns\session_20260402_133209,20260402_133257_run007,7,descent,descent,6,Normal,preroll,1.5,1,1.5,50,1.019999,0,1.959363,40,0,-0.001262,0,0,0,0,-0.001262,0,0,0,0,0,0,0,0
session_20260402_133209,C:/Users/josh_fleming/AppData/LocalLow/DefaultCompany/DJI Drone Sim\BenchmarkRuns\session_20260402_133209,20260402_133257_run007,7,descent,descent,6,Normal,preroll,1.5,1,1.5,51,1.039999,0,1.95934,40,0,-0.001141,0,0,0,0,-0.001141,0,0,0,0,0,0,0,0
session_20260402_133209,C:/Users/josh_fleming/AppData/LocalLow/DefaultCompany/DJI Drone Sim\BenchmarkRuns\session_20260402_133209,20260402_133257_run007,7,descent,descent,6,Normal,preroll,1.5,1,1.5,52,1.059999,0,1.959319,40,0,-0.001031,0,0,0,0,-0.001031,0,0,0,0,0,0,0,0
session_20260402_133209,C:/Users/josh_fleming/AppData/LocalLow/DefaultCompany/DJI Drone Sim\BenchmarkRuns\session_20260402_133209,20260402_133257_run007,7,descent,descent,6,Normal,preroll,1.5,1,1.5,53,1.079999,0,1.959301,40,0,-0.000932,0,0,0,0,-0.000932,0,0,0,0,0,0,0,0
session_20260402_133209,C:/Users/josh_fleming/AppData/LocalLow/DefaultCompany/DJI Drone Sim\BenchmarkRuns\session_20260402_133209,20260402_133257_run007,7,descent,descent,6,Normal,preroll,1.5,1,1.5,54,1.099999,0,1.959284,40,0,-0.000843,0,0,0,0,-0.000843,0,0,0,0,0,0,0,0
session_20260402_133209,C:/Users/josh_fleming/AppData/LocalLow/DefaultCompany/DJI Drone Sim\BenchmarkRuns\session_20260402_133209,20260402_133257_run007,7,descent,descent,6,Normal,preroll,1.5,1,1.5,55,1.119999,0,1.959269,40,0,-0.000762,0,0,0,0,-0.000762,0,0,0,0,0,0,0,0
session_20260402_133209,C:/Users/josh_fleming/AppData/LocalLow/DefaultCompany/DJI Drone Sim\BenchmarkRuns\session_20260402_133209,20260402_133257_run007,7,descent,descent,6,Normal,preroll,1.5,1,1.5,56,1.139999,0,1.959255,40,0,-0.000689,0,0,0,0,-0.000689,0,0,0,0,0,0,0,0
session_20260402_133209,C:/Users/josh_fleming/AppData/LocalLow/DefaultCompany/DJI Drone Sim\BenchmarkRuns\session_20260402_133209,20260402_133257_run007,7,descent,descent,6,Normal,preroll,1.5,1,1.5,57,1.159999,0,1.959242,40,0,-0.000623,0,0,0,0,-0.000623,0,0,0,0,0,0,0,0
session_20260402_133209,C:/Users/josh_fleming/AppData/LocalLow/DefaultCompany/DJI Drone Sim\BenchmarkRuns\session_20260402_133209,20260402_133257_run007,7,descent,descent,6,Normal,preroll,1.5,1,1.5,58,1.179999,0,1.959231,40,0,-0.000563,0,0,0,0,-0.000563,0,0,0,0,0,0,0,0
session_20260402_133209,C:/Users/josh_fleming/AppData/LocalLow/DefaultCompany/DJI Drone Sim\BenchmarkRuns\session_20260402_133209,20260402_133257_run007,7,descent,descent,6,Normal,preroll,1.5,1,1.5,59,1.199999,0,1.959221,40,0,-0.000509,0,0,0,0,-0.000509,0,0,0,0,0,0,0,0
session_20260402_133209,C:/Users/josh_fleming/AppData/LocalLow/DefaultCompany/DJI Drone Sim\BenchmarkRuns\session_20260402_133209,20260402_133257_run007,7,descent,descent,6,Normal,preroll,1.5,1,1.5,60,1.219999,0,1.959212,40,0,-0.00046,0,0,0,0,-0.00046,0,0,0,0,0,0,0,0
session_20260402_133209,C:/Users/josh_fleming/AppData/LocalLow/DefaultCompany/DJI Drone Sim\BenchmarkRuns\session_20260402_133209,20260402_133257_run007,7,descent,descent,6,Normal,preroll,1.5,1,1.5,61,1.239999,0,1.959204,40,0,-0.000416,0,0,0,0,-0.000416,0,0,0,0,0,0,0,0
session_20260402_133209,C:/Users/josh_fleming/AppData/LocalLow/DefaultCompany/DJI Drone Sim\BenchmarkRuns\session_20260402_133209,20260402_133257_run007,7,descent,descent,6,Normal,preroll,1.5,1,1.5,62,1.259999,0,1.959196,40,0,-0.000376,0,0,0,0,-0.000376,0,0,0,0,0,0,0,0
session_20260402_133209,C:/Users/josh_fleming/AppData/LocalLow/DefaultCompany/DJI Drone Sim\BenchmarkRuns\session_20260402_133209,20260402_133257_run007,7,descent,descent,6,Normal,preroll,1.5,1,1.5,63,1.279999,0,1.959189,40,0,-0.00034,0,0,0,0,-0.00034,0,0,0,0,0,0,0,0
session_20260402_133209,C:/Users/josh_fleming/AppData/LocalLow/DefaultCompany/DJI Drone Sim\BenchmarkRuns\session_20260402_133209,20260402_133257_run007,7,descent,descent,6,Normal,preroll,1.5,1,1.5,64,1.299999,0,1.959183,40,0,-0.000307,0,0,0,0,-0.000307,0,0,0,0,0,0,0,0
session_20260402_133209,C:/Users/josh_fleming/AppData/LocalLow/DefaultCompany/DJI Drone Sim\BenchmarkRuns\session_20260402_133209,20260402_133257_run007,7,descent,descent,6,Normal,preroll,1.5,1,1.5,65,1.319999,0,1.959177,40,0,-0.000278,0,0,0,0,-0.000278,0,0,0,0,0,0,0,0
session_20260402_133209,C:/Users/josh_fleming/AppData/LocalLow/DefaultCompany/DJI Drone Sim\BenchmarkRuns\session_20260402_133209,20260402_133257_run007,7,descent,descent,6,Normal,preroll,1.5,1,1.5,66,1.339999,0,1.959172,40,0,-0.000251,0,0,0,0,-0.000251,0,0,0,0,0,0,0,0
session_20260402_133209,C:/Users/josh_fleming/AppData/LocalLow/DefaultCompany/DJI Drone Sim\BenchmarkRuns\session_20260402_133209,20260402_133257_run007,7,descent,descent,6,Normal,preroll,1.5,1,1.5,67,1.359999,0,1.959168,40,0,-0.000227,0,0,0,0,-0.000227,0,0,0,0,0,0,0,0
session_20260402_133209,C:/Users/josh_fleming/AppData/LocalLow/DefaultCompany/DJI Drone Sim\BenchmarkRuns\session_20260402_133209,20260402_133257_run007,7,descent,descent,6,Normal,preroll,1.5,1,1.5,68,1.379999,0,1.959164,40,0,-0.000205,0,0,0,0,-0.000205,0,0,0,0,0,0,0,0
session_20260402_133209,C:/Users/josh_fleming/AppData/LocalLow/DefaultCompany/DJI Drone Sim\BenchmarkRuns\session_20260402_133209,20260402_133257_run007,7,descent,descent,6,Normal,preroll,1.5,1,1.5,69,1.399999,0,1.95916,40,0,-0.000185,0,0,0,0,-0.000185,0,0,0,0,0,0,0,0
session_20260402_133209,C:/Users/josh_fleming/AppData/LocalLow/DefaultCompany/DJI Drone Sim\BenchmarkRuns\session_20260402_133209,20260402_133257_run007,7,descent,descent,6,Normal,preroll,1.5,1,1.5,70,1.419999,0,1.959157,40,0,-0.000168,0,0,0,0,-0.000168,0,0,0,0,0,0,0,0
session_20260402_133209,C:/Users/josh_fleming/AppData/LocalLow/DefaultCompany/DJI Drone Sim\BenchmarkRuns\session_20260402_133209,20260402_133257_run007,7,descent,descent,6,Normal,preroll,1.5,1,1.5,71,1.439999,0,1.959154,40,0,-0.000152,0,0,0,0,-0.000152,0,0,0,0,0,0,0,0
session_20260402_133209,C:/Users/josh_fleming/AppData/LocalLow/DefaultCompany/DJI Drone Sim\BenchmarkRuns\session_20260402_133209,20260402_133257_run007,7,descent,descent,6,Normal,preroll,1.5,1,1.5,72,1.459999,0,1.959151,40,0,-0.000137,0,0,0,0,-0.000137,0,0,0,0,0,0,0,0
session_20260402_133209,C:/Users/josh_fleming/AppData/LocalLow/DefaultCompany/DJI Drone Sim\BenchmarkRuns\session_20260402_133209,20260402_133257_run007,7,descent,descent,6,Normal,preroll,1.5,1,1.5,73,1.479999,0,1.959149,40,0,-0.000124,0,0,0,0,-0.000124,0,0,0,0,0,0,0,0
session_20260402_133209,C:/Users/josh_fleming/AppData/LocalLow/DefaultCompany/DJI Drone Sim\BenchmarkRuns\session_20260402_133209,20260402_133257_run007,7,descent,descent,6,Normal,preroll,1.5,1,1.5,74,1.499999,0,1.959146,40,0,-0.000112,0,0,0,0,-0.000112,0,0,0,0,0,0,0,0
session_20260402_133209,C:/Users/josh_fleming/AppData/LocalLow/DefaultCompany/DJI Drone Sim\BenchmarkRuns\session_20260402_133209,20260402_133257_run007,7,descent,descent,6,Normal,preroll,1.5,1,1.5,75,1.519999,0,1.959144,40,0,-0.000101,0,0,0,0,-0.000101,0,0,0,0,0,0,0,0
session_20260402_133209,C:/Users/josh_fleming/AppData/LocalLow/DefaultCompany/DJI Drone Sim\BenchmarkRuns\session_20260402_133209,20260402_133257_run007,7,descent,descent,6,Normal,input,1.5,1,1.5,76,1.539999,0,1.959143,40,0,-0.000091,0,0,0,0,-0.000091,0,0,0,0,0,0,-1,0
session_20260402_133209,C:/Users/josh_fleming/AppData/LocalLow/DefaultCompany/DJI Drone Sim\BenchmarkRuns\session_20260402_133209,20260402_133257_run007,7,descent,descent,6,Normal,input,1.5,1,1.5,77,1.559999,0,1.959141,40,0,-0.000083,0,0,0,0,-0.000083,0,0,0,0,0,0,-1,0
session_20260402_133209,C:/Users/josh_fleming/AppData/LocalLow/DefaultCompany/DJI Drone Sim\BenchmarkRuns\session_20260402_133209,20260402_133257_run007,7,descent,descent,6,Normal,input,1.5,1,1.5,78,1.579999,0,1.955139,40,0,-0.200083,0,0,0,0,-0.200083,0,0,0,0,0,0,-1,0
session_20260402_133209,C:/Users/josh_fleming/AppData/LocalLow/DefaultCompany/DJI Drone Sim\BenchmarkRuns\session_20260402_133209,20260402_133257_run007,7,descent,descent,6,Normal,input,1.5,1,1.5,79,1.599999,0,1.947138,40,0,-0.400083,0,0,0,0,-0.400083,0,0,0,0,0,0,-1,0
session_20260402_133209,C:/Users/josh_fleming/AppData/LocalLow/DefaultCompany/DJI Drone Sim\BenchmarkRuns\session_20260402_133209,20260402_133257_run007,7,descent,descent,6,Normal,input,1.5,1,1.5,80,1.619999,0,1.935136,40,0,-0.600083,0,0,0,0,-0.600083,0,0,0,0,0,0,-1,0
session_20260402_133209,C:/Users/josh_fleming/AppData/LocalLow/DefaultCompany/DJI Drone Sim\BenchmarkRuns\session_20260402_133209,20260402_133257_run007,7,descent,descent,6,Normal,input,1.5,1,1.5,81,1.639999,0,1.919134,40,0,-0.800082,0,0,0,0,-0.800082,0,0,0,0,0,0,-1,0
session_20260402_133209,C:/Users/josh_fleming/AppData/LocalLow/DefaultCompany/DJI Drone Sim\BenchmarkRuns\session_20260402_133209,20260402_133257_run007,7,descent,descent,6,Normal,input,1.5,1,1.5,82,1.659999,0,1.899133,40,0,-1.000082,0,0,0,0,-1.000082,0,0,0,0,0,0,-1,0
session_20260402_133209,C:/Users/josh_fleming/AppData/LocalLow/DefaultCompany/DJI Drone Sim\BenchmarkRuns\session_20260402_133209,20260402_133257_run007,7,descent,descent,6,Normal,input,1.5,1,1.5,83,1.679999,0,1.875291,40,0,-1.192074,0,0,0,0,-1.192074,0,0,0,0,0,0,-1,0
session_20260402_133209,C:/Users/josh_fleming/AppData/LocalLow/DefaultCompany/DJI Drone Sim\BenchmarkRuns\session_20260402_133209,20260402_133257_run007,7,descent,descent,6,Normal,input,1.5,1,1.5,84,1.699999,0,1.847979,40,0,-1.365635,0,0,0,0,-1.365635,0,0,0,0,0,0,-1,0
session_20260402_133209,C:/Users/josh_fleming/AppData/LocalLow/DefaultCompany/DJI Drone Sim\BenchmarkRuns\session_20260402_133209,20260402_133257_run007,7,descent,descent,6,Normal,input,1.5,1,1.5,85,1.719999,0,1.817528,40,0,-1.522534,0,0,0,0,-1.522534,0,0,0,0,0,0,-1,0
session_20260402_133209,C:/Users/josh_fleming/AppData/LocalLow/DefaultCompany/DJI Drone Sim\BenchmarkRuns\session_20260402_133209,20260402_133257_run007,7,descent,descent,6,Normal,input,1.5,1,1.5,86,1.739999,0,1.78424,40,0,-1.664371,0,0,0,0,-1.664371,0,0,0,0,0,0,-1,0
session_20260402_133209,C:/Users/josh_fleming/AppData/LocalLow/DefaultCompany/DJI Drone Sim\BenchmarkRuns\session_20260402_133209,20260402_133257_run007,7,descent,descent,6,Normal,input,1.5,1,1.5,87,1.759999,0,1.748389,40,0,-1.792591,0,0,0,0,-1.792591,0,0,0,0,0,0,-1,0
session_20260402_133209,C:/Users/josh_fleming/AppData/LocalLow/DefaultCompany/DJI Drone Sim\BenchmarkRuns\session_20260402_133209,20260402_133257_run007,7,descent,descent,6,Normal,input,1.5,1,1.5,88,1.779999,0,1.710219,40,0,-1.908502,0,0,0,0,-1.908502,0,0,0,0,0,0,-1,0
session_20260402_133209,C:/Users/josh_fleming/AppData/LocalLow/DefaultCompany/DJI Drone Sim\BenchmarkRuns\session_20260402_133209,20260402_133257_run007,7,descent,descent,6,Normal,input,1.5,1,1.5,89,1.799999,0,1.669953,40,0,-2.013286,0,0,0,0,-2.013286,0,0,0,0,0,0,-1,0
session_20260402_133209,C:/Users/josh_fleming/AppData/LocalLow/DefaultCompany/DJI Drone Sim\BenchmarkRuns\session_20260402_133209,20260402_133257_run007,7,descent,descent,6,Normal,input,1.5,1,1.5,90,1.819999,0,1.627793,40,0,-2.108011,0,0,0,0,-2.108011,0,0,0,0,0,0,-1,0
session_20260402_133209,C:/Users/josh_fleming/AppData/LocalLow/DefaultCompany/DJI Drone Sim\BenchmarkRuns\session_20260402_133209,20260402_133257_run007,7,descent,descent,6,Normal,input,1.5,1,1.5,91,1.839998,0,1.58392,40,0,-2.193641,0,0,0,0,-2.193641,0,0,0,0,0,0,-1,0
session_20260402_133209,C:/Users/josh_fleming/AppData/LocalLow/DefaultCompany/DJI Drone Sim\BenchmarkRuns\session_20260402_133209,20260402_133257_run007,7,descent,descent,6,Normal,input,1.5,1,1.5,92,1.859998,0,1.538499,40,0,-2.271052,0,0,0,0,-2.271052,0,0,0,0,0,0,-1,0
session_20260402_133209,C:/Users/josh_fleming/AppData/LocalLow/DefaultCompany/DJI Drone Sim\BenchmarkRuns\session_20260402_133209,20260402_133257_run007,7,descent,descent,6,Normal,input,1.5,1,1.5,93,1.879998,0,1.491678,40,0,-2.341031,0,0,0,0,-2.341031,0,0,0,0,0,0,-1,0
session_20260402_133209,C:/Users/josh_fleming/AppData/LocalLow/DefaultCompany/DJI Drone Sim\BenchmarkRuns\session_20260402_133209,20260402_133257_run007,7,descent,descent,6,Normal,input,1.5,1,1.5,94,1.899998,0,1.443593,40,0,-2.404292,0,0,0,0,-2.404292,0,0,0,0,0,0,-1,0
session_20260402_133209,C:/Users/josh_fleming/AppData/LocalLow/DefaultCompany/DJI Drone Sim\BenchmarkRuns\session_20260402_133209,20260402_133257_run007,7,descent,descent,6,Normal,input,1.5,1,1.5,95,1.919998,0,1.394363,40,0,-2.46148,0,0,0,0,-2.46148,0,0,0,0,0,0,-1,0
session_20260402_133209,C:/Users/josh_fleming/AppData/LocalLow/DefaultCompany/DJI Drone Sim\BenchmarkRuns\session_20260402_133209,20260402_133257_run007,7,descent,descent,6,Normal,input,1.5,1,1.5,96,1.939998,0,1.344099,40,0,-2.513178,0,0,0,0,-2.513178,0,0,0,0,0,0,-1,0
session_20260402_133209,C:/Users/josh_fleming/AppData/LocalLow/DefaultCompany/DJI Drone Sim\BenchmarkRuns\session_20260402_133209,20260402_133257_run007,7,descent,descent,6,Normal,input,1.5,1,1.5,97,1.959998,0,1.292901,40,0,-2.559912,0,0,0,0,-2.559912,0,0,0,0,0,0,-1,0
session_20260402_133209,C:/Users/josh_fleming/AppData/LocalLow/DefaultCompany/DJI Drone Sim\BenchmarkRuns\session_20260402_133209,20260402_133257_run007,7,descent,descent,6,Normal,input,1.5,1,1.5,98,1.979998,0,1.240858,40,0,-2.602161,0,0,0,0,-2.602161,0,0,0,0,0,0,-1,0
session_20260402_133209,C:/Users/josh_fleming/AppData/LocalLow/DefaultCompany/DJI Drone Sim\BenchmarkRuns\session_20260402_133209,20260402_133257_run007,7,descent,descent,6,Normal,input,1.5,1,1.5,99,1.999998,0,1.188051,40,0,-2.640353,0,0,0,0,-2.640353,0,0,0,0,0,0,-1,0
session_20260402_133209,C:/Users/josh_fleming/AppData/LocalLow/DefaultCompany/DJI Drone Sim\BenchmarkRuns\session_20260402_133209,20260402_133257_run007,7,descent,descent,6,Normal,input,1.5,1,1.5,100,2.019998,0,1.134553,40,0,-2.674879,0,0,0,0,-2.674879,0,0,0,0,0,0,-1,0
session_20260402_133209,C:/Users/josh_fleming/AppData/LocalLow/DefaultCompany/DJI Drone Sim\BenchmarkRuns\session_20260402_133209,20260402_133257_run007,7,descent,descent,6,Normal,input,1.5,1,1.5,101,2.039998,0,1.080431,40,0,-2.706091,0,0,0,0,-2.706091,0,0,0,0,0,0,-1,0
session_20260402_133209,C:/Users/josh_fleming/AppData/LocalLow/DefaultCompany/DJI Drone Sim\BenchmarkRuns\session_20260402_133209,20260402_133257_run007,7,descent,descent,6,Normal,input,1.5,1,1.5,102,2.059998,0,1.025745,40,0,-2.734306,0,0,0,0,-2.734306,0,0,0,0,0,0,-1,0
session_20260402_133209,C:/Users/josh_fleming/AppData/LocalLow/DefaultCompany/DJI Drone Sim\BenchmarkRuns\session_20260402_133209,20260402_133257_run007,7,descent,descent,6,Normal,input,1.5,1,1.5,103,2.079998,0,0.970549,40,0,-2.759813,0,0,0,0,-2.759813,0,0,0,0,0,0,-1,0
session_20260402_133209,C:/Users/josh_fleming/AppData/LocalLow/DefaultCompany/DJI Drone Sim\BenchmarkRuns\session_20260402_133209,20260402_133257_run007,7,descent,descent,6,Normal,input,1.5,1,1.5,104,2.099998,0,0.914892,40,0,-2.782871,0,0,0,0,-2.782871,0,0,0,0,0,0,-1,0
session_20260402_133209,C:/Users/josh_fleming/AppData/LocalLow/DefaultCompany/DJI Drone Sim\BenchmarkRuns\session_20260402_133209,20260402_133257_run007,7,descent,descent,6,Normal,input,1.5,1,1.5,105,2.119998,0,0.858818,40,0,-2.803715,0,0,0,0,-2.803715,0,0,0,0,0,0,-1,0
session_20260402_133209,C:/Users/josh_fleming/AppData/LocalLow/DefaultCompany/DJI Drone Sim\BenchmarkRuns\session_20260402_133209,20260402_133257_run007,7,descent,descent,6,Normal,input,1.5,1,1.5,106,2.139998,0,0.802366,40,0,-2.822558,0,0,0,0,-2.822558,0,0,0,0,0,0,-1,0
session_20260402_133209,C:/Users/josh_fleming/AppData/LocalLow/DefaultCompany/DJI Drone Sim\BenchmarkRuns\session_20260402_133209,20260402_133257_run007,7,descent,descent,6,Normal,input,1.5,1,1.5,107,2.159998,0,0.745575,40,0,-2.839593,0,0,0,0,-2.839593,0,0,0,0,0,0,-1,0
session_20260402_133209,C:/Users/josh_fleming/AppData/LocalLow/DefaultCompany/DJI Drone Sim\BenchmarkRuns\session_20260402_133209,20260402_133257_run007,7,descent,descent,6,Normal,input,1.5,1,1.5,108,2.179998,0,0.688475,40,0,-2.854992,0,0,0,0,-2.854992,0,0,0,0,0,0,-1,0
session_20260402_133209,C:/Users/josh_fleming/AppData/LocalLow/DefaultCompany/DJI Drone Sim\BenchmarkRuns\session_20260402_133209,20260402_133257_run007,7,descent,descent,6,Normal,input,1.5,1,1.5,109,2.199998,0,0.631097,40,0,-2.868912,0,0,0,0,-2.868912,0,0,0,0,0,0,-1,0
session_20260402_133209,C:/Users/josh_fleming/AppData/LocalLow/DefaultCompany/DJI Drone Sim\BenchmarkRuns\session_20260402_133209,20260402_133257_run007,7,descent,descent,6,Normal,input,1.5,1,1.5,110,2.219998,0,0.573467,40,0,-2.881497,0,0,0,0,-2.881497,0,0,0,0,0,0,-1,0
session_20260402_133209,C:/Users/josh_fleming/AppData/LocalLow/DefaultCompany/DJI Drone Sim\BenchmarkRuns\session_20260402_133209,20260402_133257_run007,7,descent,descent,6,Normal,input,1.5,1,1.5,111,2.239998,0,0.515609,40,0,-2.892873,0,0,0,0,-2.892873,0,0,0,0,0,0,-1,0
session_20260402_133209,C:/Users/josh_fleming/AppData/LocalLow/DefaultCompany/DJI Drone Sim\BenchmarkRuns\session_20260402_133209,20260402_133257_run007,7,descent,descent,6,Normal,input,1.5,1,1.5,112,2.259998,0,0.457546,40,0,-2.903157,0,0,0,0,-2.903157,0,0,0,0,0,0,-1,0
session_20260402_133209,C:/Users/josh_fleming/AppData/LocalLow/DefaultCompany/DJI Drone Sim\BenchmarkRuns\session_20260402_133209,20260402_133257_run007,7,descent,descent,6,Normal,input,1.5,1,1.5,113,2.279998,0,0.399297,40,0,-2.912454,0,0,0,0,-2.912454,0,0,0,0,0,0,-1,0
session_20260402_133209,C:/Users/josh_fleming/AppData/LocalLow/DefaultCompany/DJI Drone Sim\BenchmarkRuns\session_20260402_133209,20260402_133257_run007,7,descent,descent,6,Normal,input,1.5,1,1.5,114,2.299998,0,0.34088,40,0,-2.920859,0,0,0,0,-2.920859,0,0,0,0,0,0,-1,0
session_20260402_133209,C:/Users/josh_fleming/AppData/LocalLow/DefaultCompany/DJI Drone Sim\BenchmarkRuns\session_20260402_133209,20260402_133257_run007,7,descent,descent,6,Normal,input,1.5,1,1.5,115,2.319998,0,0.282311,40,0,-2.928456,0,0,0,0,-2.928456,0,0,0,0,0,0,-1,0
session_20260402_133209,C:/Users/josh_fleming/AppData/LocalLow/DefaultCompany/DJI Drone Sim\BenchmarkRuns\session_20260402_133209,20260402_133257_run007,7,descent,descent,6,Normal,input,1.5,1,1.5,116,2.339998,0,0.223604,40,0,-2.935324,0,0,0,0,-2.935324,0,0,0,0,0,0,-1,0
session_20260402_133209,C:/Users/josh_fleming/AppData/LocalLow/DefaultCompany/DJI Drone Sim\BenchmarkRuns\session_20260402_133209,20260402_133257_run007,7,descent,descent,6,Normal,input,1.5,1,1.5,117,2.359998,0,0.164774,40,0,-2.941533,0,0,0,0,-2.941533,0,0,0,0,0,0,-1,0
session_20260402_133209,C:/Users/josh_fleming/AppData/LocalLow/DefaultCompany/DJI Drone Sim\BenchmarkRuns\session_20260402_133209,20260402_133257_run007,7,descent,descent,6,Normal,input,1.5,1,1.5,118,2.379998,0,0.105831,40,0,-2.947146,0,0,0,0,-2.947146,0,0,0,0,0,0,-1,0
session_20260402_133209,C:/Users/josh_fleming/AppData/LocalLow/DefaultCompany/DJI Drone Sim\BenchmarkRuns\session_20260402_133209,20260402_133257_run007,7,descent,descent,6,Normal,input,1.5,1,1.5,119,2.399998,0,0.046786,40,0,-2.95222,0,0,0,0,-2.95222,0,0,0,0,0,0,-1,0
session_20260402_133209,C:/Users/josh_fleming/AppData/LocalLow/DefaultCompany/DJI Drone Sim\BenchmarkRuns\session_20260402_133209,20260402_133257_run007,7,descent,descent,6,Normal,input,1.5,1,1.5,120,2.419998,0,-0.01235,40,0,-2.956807,0,0,0,0,-2.956807,0,0,0,0,0,0,-1,0
session_20260402_133209,C:/Users/josh_fleming/AppData/LocalLow/DefaultCompany/DJI Drone Sim\BenchmarkRuns\session_20260402_133209,20260402_133257_run007,7,descent,descent,6,Normal,input,1.5,1,1.5,121,2.439998,0,-0.071569,40,0,-2.960953,0,0,0,0,-2.960953,0,0,0,0,0,0,-1,0
session_20260402_133209,C:/Users/josh_fleming/AppData/LocalLow/DefaultCompany/DJI Drone Sim\BenchmarkRuns\session_20260402_133209,20260402_133257_run007,7,descent,descent,6,Normal,input,1.5,1,1.5,122,2.459998,0,-0.130863,40,0,-2.964702,0,0,0,0,-2.964702,0,0,0,0,0,0,-1,0
session_20260402_133209,C:/Users/josh_fleming/AppData/LocalLow/DefaultCompany/DJI Drone Sim\BenchmarkRuns\session_20260402_133209,20260402_133257_run007,7,descent,descent,6,Normal,input,1.5,1,1.5,123,2.479998,0,-0.190225,40,0,-2.968091,0,0,0,0,-2.968091,0,0,0,0,0,0,-1,0
session_20260402_133209,C:/Users/josh_fleming/AppData/LocalLow/DefaultCompany/DJI Drone Sim\BenchmarkRuns\session_20260402_133209,20260402_133257_run007,7,descent,descent,6,Normal,input,1.5,1,1.5,124,2.499998,0,-0.249648,40,0,-2.971154,0,0,0,0,-2.971154,0,0,0,0,0,0,-1,0
session_20260402_133209,C:/Users/josh_fleming/AppData/LocalLow/DefaultCompany/DJI Drone Sim\BenchmarkRuns\session_20260402_133209,20260402_133257_run007,7,descent,descent,6,Normal,input,1.5,1,1.5,125,2.519998,0,-0.309126,40,0,-2.973923,0,0,0,0,-2.973923,0,0,0,0,0,0,-1,0
session_20260402_133209,C:/Users/josh_fleming/AppData/LocalLow/DefaultCompany/DJI Drone Sim\BenchmarkRuns\session_20260402_133209,20260402_133257_run007,7,descent,descent,6,Normal,input,1.5,1,1.5,126,2.539998,0,-0.368655,40,0,-2.976426,0,0,0,0,-2.976426,0,0,0,0,0,0,-1,0
session_20260402_133209,C:/Users/josh_fleming/AppData/LocalLow/DefaultCompany/DJI Drone Sim\BenchmarkRuns\session_20260402_133209,20260402_133257_run007,7,descent,descent,6,Normal,settle,1.5,1,1.5,127,2.559998,0,-0.428228,40,0,-2.978689,0,0,0,0,-2.978689,0,0,0,0,0,0,0,0
session_20260402_133209,C:/Users/josh_fleming/AppData/LocalLow/DefaultCompany/DJI Drone Sim\BenchmarkRuns\session_20260402_133209,20260402_133257_run007,7,descent,descent,6,Normal,settle,1.5,1,1.5,128,2.579998,0,-0.487843,40,0,-2.980735,0,0,0,0,-2.980735,0,0,0,0,0,0,0,0
session_20260402_133209,C:/Users/josh_fleming/AppData/LocalLow/DefaultCompany/DJI Drone Sim\BenchmarkRuns\session_20260402_133209,20260402_133257_run007,7,descent,descent,6,Normal,settle,1.5,1,1.5,129,2.599998,0,-0.543458,40,0,-2.780735,0,0,0,0,-2.780735,0,0,0,0,0,0,0,0
session_20260402_133209,C:/Users/josh_fleming/AppData/LocalLow/DefaultCompany/DJI Drone Sim\BenchmarkRuns\session_20260402_133209,20260402_133257_run007,7,descent,descent,6,Normal,settle,1.5,1,1.5,130,2.619998,0,-0.595073,40,0,-2.580735,0,0,0,0,-2.580735,0,0,0,0,0,0,0,0
session_20260402_133209,C:/Users/josh_fleming/AppData/LocalLow/DefaultCompany/DJI Drone Sim\BenchmarkRuns\session_20260402_133209,20260402_133257_run007,7,descent,descent,6,Normal,settle,1.5,1,1.5,131,2.639998,0,-0.642687,40,0,-2.380735,0,0,0,0,-2.380735,0,0,0,0,0,0,0,0
session_20260402_133209,C:/Users/josh_fleming/AppData/LocalLow/DefaultCompany/DJI Drone Sim\BenchmarkRuns\session_20260402_133209,20260402_133257_run007,7,descent,descent,6,Normal,settle,1.5,1,1.5,132,2.659998,0,-0.686302,40,0,-2.180735,0,0,0,0,-2.180735,0,0,0,0,0,0,0,0
session_20260402_133209,C:/Users/josh_fleming/AppData/LocalLow/DefaultCompany/DJI Drone Sim\BenchmarkRuns\session_20260402_133209,20260402_133257_run007,7,descent,descent,6,Normal,settle,1.5,1,1.5,133,2.679998,0,-0.725917,40,0,-1.980735,0,0,0,0,-1.980735,0,0,0,0,0,0,0,0
session_20260402_133209,C:/Users/josh_fleming/AppData/LocalLow/DefaultCompany/DJI Drone Sim\BenchmarkRuns\session_20260402_133209,20260402_133257_run007,7,descent,descent,6,Normal,settle,1.5,1,1.5,134,2.699998,0,-0.761728,40,0,-1.790585,0,0,0,0,-1.790585,0,0,0,0,0,0,0,0
session_20260402_133209,C:/Users/josh_fleming/AppData/LocalLow/DefaultCompany/DJI Drone Sim\BenchmarkRuns\session_20260402_133209,20260402_133257_run007,7,descent,descent,6,Normal,settle,1.5,1,1.5,135,2.719998,0,-0.794102,40,0,-1.618688,0,0,0,0,-1.618688,0,0,0,0,0,0,0,0
session_20260402_133209,C:/Users/josh_fleming/AppData/LocalLow/DefaultCompany/DJI Drone Sim\BenchmarkRuns\session_20260402_133209,20260402_133257_run007,7,descent,descent,6,Normal,settle,1.5,1,1.5,136,2.739998,0,-0.823368,40,0,-1.463294,0,0,0,0,-1.463294,0,0,0,0,0,0,0,0
session_20260402_133209,C:/Users/josh_fleming/AppData/LocalLow/DefaultCompany/DJI Drone Sim\BenchmarkRuns\session_20260402_133209,20260402_133257_run007,7,descent,descent,6,Normal,settle,1.5,1,1.5,137,2.759998,0,-0.849824,40,0,-1.322818,0,0,0,0,-1.322818,0,0,0,0,0,0,0,0
session_20260402_133209,C:/Users/josh_fleming/AppData/LocalLow/DefaultCompany/DJI Drone Sim\BenchmarkRuns\session_20260402_133209,20260402_133257_run007,7,descent,descent,6,Normal,settle,1.5,1,1.5,138,2.779998,0,-0.873741,40,0,-1.195828,0,0,0,0,-1.195828,0,0,0,0,0,0,0,0
session_20260402_133209,C:/Users/josh_fleming/AppData/LocalLow/DefaultCompany/DJI Drone Sim\BenchmarkRuns\session_20260402_133209,20260402_133257_run007,7,descent,descent,6,Normal,settle,1.5,1,1.5,139,2.799998,0,-0.895361,40,0,-1.081028,0,0,0,0,-1.081028,0,0,0,0,0,0,0,0
session_20260402_133209,C:/Users/josh_fleming/AppData/LocalLow/DefaultCompany/DJI Drone Sim\BenchmarkRuns\session_20260402_133209,20260402_133257_run007,7,descent,descent,6,Normal,settle,1.5,1,1.5,140,2.819998,0,-0.914906,40,0,-0.97725,0,0,0,0,-0.97725,0,0,0,0,0,0,0,0
session_20260402_133209,C:/Users/josh_fleming/AppData/LocalLow/DefaultCompany/DJI Drone Sim\BenchmarkRuns\session_20260402_133209,20260402_133257_run007,7,descent,descent,6,Normal,settle,1.5,1,1.5,141,2.839998,0,-0.932575,40,0,-0.883434,0,0,0,0,-0.883434,0,0,0,0,0,0,0,0
session_20260402_133209,C:/Users/josh_fleming/AppData/LocalLow/DefaultCompany/DJI Drone Sim\BenchmarkRuns\session_20260402_133209,20260402_133257_run007,7,descent,descent,6,Normal,settle,1.5,1,1.5,142,2.859998,0,-0.948547,40,0,-0.798624,0,0,0,0,-0.798624,0,0,0,0,0,0,0,0
session_20260402_133209,C:/Users/josh_fleming/AppData/LocalLow/DefaultCompany/DJI Drone Sim\BenchmarkRuns\session_20260402_133209,20260402_133257_run007,7,descent,descent,6,Normal,settle,1.5,1,1.5,143,2.879997,0,-0.962987,40,0,-0.721956,0,0,0,0,-0.721956,0,0,0,0,0,0,0,0
session_20260402_133209,C:/Users/josh_fleming/AppData/LocalLow/DefaultCompany/DJI Drone Sim\BenchmarkRuns\session_20260402_133209,20260402_133257_run007,7,descent,descent,6,Normal,settle,1.5,1,1.5,144,2.899997,0,-0.97604,40,0,-0.652648,0,0,0,0,-0.652648,0,0,0,0,0,0,0,0
session_20260402_133209,C:/Users/josh_fleming/AppData/LocalLow/DefaultCompany/DJI Drone Sim\BenchmarkRuns\session_20260402_133209,20260402_133257_run007,7,descent,descent,6,Normal,settle,1.5,1,1.5,145,2.919997,0,-0.987839,40,0,-0.589994,0,0,0,0,-0.589994,0,0,0,0,0,0,0,0
session_20260402_133209,C:/Users/josh_fleming/AppData/LocalLow/DefaultCompany/DJI Drone Sim\BenchmarkRuns\session_20260402_133209,20260402_133257_run007,7,descent,descent,6,Normal,settle,1.5,1,1.5,146,2.939997,0,-0.998506,40,0,-0.533355,0,0,0,0,-0.533355,0,0,0,0,0,0,0,0
session_20260402_133209,C:/Users/josh_fleming/AppData/LocalLow/DefaultCompany/DJI Drone Sim\BenchmarkRuns\session_20260402_133209,20260402_133257_run007,7,descent,descent,6,Normal,settle,1.5,1,1.5,147,2.959997,0,-1.00815,40,0,-0.482153,0,0,0,0,-0.482153,0,0,0,0,0,0,0,0
session_20260402_133209,C:/Users/josh_fleming/AppData/LocalLow/DefaultCompany/DJI Drone Sim\BenchmarkRuns\session_20260402_133209,20260402_133257_run007,7,descent,descent,6,Normal,settle,1.5,1,1.5,148,2.979997,0,-1.016867,40,0,-0.435866,0,0,0,0,-0.435866,0,0,0,0,0,0,0,0
session_20260402_133209,C:/Users/josh_fleming/AppData/LocalLow/DefaultCompany/DJI Drone Sim\BenchmarkRuns\session_20260402_133209,20260402_133257_run007,7,descent,descent,6,Normal,settle,1.5,1,1.5,149,2.999997,0,-1.024747,40,0,-0.394023,0,0,0,0,-0.394023,0,0,0,0,0,0,0,0
session_20260402_133209,C:/Users/josh_fleming/AppData/LocalLow/DefaultCompany/DJI Drone Sim\BenchmarkRuns\session_20260402_133209,20260402_133257_run007,7,descent,descent,6,Normal,settle,1.5,1,1.5,150,3.019997,0,-1.031871,40,0,-0.356197,0,0,0,0,-0.356197,0,0,0,0,0,0,0,0
session_20260402_133209,C:/Users/josh_fleming/AppData/LocalLow/DefaultCompany/DJI Drone Sim\BenchmarkRuns\session_20260402_133209,20260402_133257_run007,7,descent,descent,6,Normal,settle,1.5,1,1.5,151,3.039997,0,-1.038311,40,0,-0.322002,0,0,0,0,-0.322002,0,0,0,0,0,0,0,0
session_20260402_133209,C:/Users/josh_fleming/AppData/LocalLow/DefaultCompany/DJI Drone Sim\BenchmarkRuns\session_20260402_133209,20260402_133257_run007,7,descent,descent,6,Normal,settle,1.5,1,1.5,152,3.059997,0,-1.044133,40,0,-0.29109,0,0,0,0,-0.29109,0,0,0,0,0,0,0,0
session_20260402_133209,C:/Users/josh_fleming/AppData/LocalLow/DefaultCompany/DJI Drone Sim\BenchmarkRuns\session_20260402_133209,20260402_133257_run007,7,descent,descent,6,Normal,settle,1.5,1,1.5,153,3.079997,0,-1.049396,40,0,-0.263145,0,0,0,0,-0.263145,0,0,0,0,0,0,0,0
session_20260402_133209,C:/Users/josh_fleming/AppData/LocalLow/DefaultCompany/DJI Drone Sim\BenchmarkRuns\session_20260402_133209,20260402_133257_run007,7,descent,descent,6,Normal,settle,1.5,1,1.5,154,3.099997,0,-1.054154,40,0,-0.237883,0,0,0,0,-0.237883,0,0,0,0,0,0,0,0
session_20260402_133209,C:/Users/josh_fleming/AppData/LocalLow/DefaultCompany/DJI Drone Sim\BenchmarkRuns\session_20260402_133209,20260402_133257_run007,7,descent,descent,6,Normal,settle,1.5,1,1.5,155,3.119997,0,-1.058455,40,0,-0.215046,0,0,0,0,-0.215046,0,0,0,0,0,0,0,0
session_20260402_133209,C:/Users/josh_fleming/AppData/LocalLow/DefaultCompany/DJI Drone Sim\BenchmarkRuns\session_20260402_133209,20260402_133257_run007,7,descent,descent,6,Normal,settle,1.5,1,1.5,156,3.139997,0,-1.062343,40,0,-0.194402,0,0,0,0,-0.194402,0,0,0,0,0,0,0,0
session_20260402_133209,C:/Users/josh_fleming/AppData/LocalLow/DefaultCompany/DJI Drone Sim\BenchmarkRuns\session_20260402_133209,20260402_133257_run007,7,descent,descent,6,Normal,settle,1.5,1,1.5,157,3.159997,0,-1.065857,40,0,-0.175739,0,0,0,0,-0.175739,0,0,0,0,0,0,0,0
session_20260402_133209,C:/Users/josh_fleming/AppData/LocalLow/DefaultCompany/DJI Drone Sim\BenchmarkRuns\session_20260402_133209,20260402_133257_run007,7,descent,descent,6,Normal,settle,1.5,1,1.5,158,3.179997,0,-1.069035,40,0,-0.158868,0,0,0,0,-0.158868,0,0,0,0,0,0,0,0
session_20260402_133209,C:/Users/josh_fleming/AppData/LocalLow/DefaultCompany/DJI Drone Sim\BenchmarkRuns\session_20260402_133209,20260402_133257_run007,7,descent,descent,6,Normal,settle,1.5,1,1.5,159,3.199997,0,-1.071907,40,0,-0.143617,0,0,0,0,-0.143617,0,0,0,0,0,0,0,0
session_20260402_133209,C:/Users/josh_fleming/AppData/LocalLow/DefaultCompany/DJI Drone Sim\BenchmarkRuns\session_20260402_133209,20260402_133257_run007,7,descent,descent,6,Normal,settle,1.5,1,1.5,160,3.219997,0,-1.074504,40,0,-0.12983,0,0,0,0,-0.12983,0,0,0,0,0,0,0,0
session_20260402_133209,C:/Users/josh_fleming/AppData/LocalLow/DefaultCompany/DJI Drone Sim\BenchmarkRuns\session_20260402_133209,20260402_133257_run007,7,descent,descent,6,Normal,settle,1.5,1,1.5,161,3.239997,0,-1.076851,40,0,-0.117366,0,0,0,0,-0.117366,0,0,0,0,0,0,0,0
session_20260402_133209,C:/Users/josh_fleming/AppData/LocalLow/DefaultCompany/DJI Drone Sim\BenchmarkRuns\session_20260402_133209,20260402_133257_run007,7,descent,descent,6,Normal,settle,1.5,1,1.5,162,3.259997,0,-1.078973,40,0,-0.106099,0,0,0,0,-0.106099,0,0,0,0,0,0,0,0
session_20260402_133209,C:/Users/josh_fleming/AppData/LocalLow/DefaultCompany/DJI Drone Sim\BenchmarkRuns\session_20260402_133209,20260402_133257_run007,7,descent,descent,6,Normal,settle,1.5,1,1.5,163,3.279997,0,-1.080891,40,0,-0.095913,0,0,0,0,-0.095913,0,0,0,0,0,0,0,0
session_20260402_133209,C:/Users/josh_fleming/AppData/LocalLow/DefaultCompany/DJI Drone Sim\BenchmarkRuns\session_20260402_133209,20260402_133257_run007,7,descent,descent,6,Normal,settle,1.5,1,1.5,164,3.299997,0,-1.082625,40,0,-0.086706,0,0,0,0,-0.086706,0,0,0,0,0,0,0,0
session_20260402_133209,C:/Users/josh_fleming/AppData/LocalLow/DefaultCompany/DJI Drone Sim\BenchmarkRuns\session_20260402_133209,20260402_133257_run007,7,descent,descent,6,Normal,settle,1.5,1,1.5,165,3.319997,0,-1.084193,40,0,-0.078382,0,0,0,0,-0.078382,0,0,0,0,0,0,0,0
session_20260402_133209,C:/Users/josh_fleming/AppData/LocalLow/DefaultCompany/DJI Drone Sim\BenchmarkRuns\session_20260402_133209,20260402_133257_run007,7,descent,descent,6,Normal,settle,1.5,1,1.5,166,3.339997,0,-1.08561,40,0,-0.070857,0,0,0,0,-0.070857,0,0,0,0,0,0,0,0
session_20260402_133209,C:/Users/josh_fleming/AppData/LocalLow/DefaultCompany/DJI Drone Sim\BenchmarkRuns\session_20260402_133209,20260402_133257_run007,7,descent,descent,6,Normal,settle,1.5,1,1.5,167,3.359997,0,-1.086891,40,0,-0.064055,0,0,0,0,-0.064055,0,0,0,0,0,0,0,0
session_20260402_133209,C:/Users/josh_fleming/AppData/LocalLow/DefaultCompany/DJI Drone Sim\BenchmarkRuns\session_20260402_133209,20260402_133257_run007,7,descent,descent,6,Normal,settle,1.5,1,1.5,168,3.379997,0,-1.088049,40,0,-0.057906,0,0,0,0,-0.057906,0,0,0,0,0,0,0,0
session_20260402_133209,C:/Users/josh_fleming/AppData/LocalLow/DefaultCompany/DJI Drone Sim\BenchmarkRuns\session_20260402_133209,20260402_133257_run007,7,descent,descent,6,Normal,settle,1.5,1,1.5,169,3.399997,0,-1.089096,40,0,-0.052347,0,0,0,0,-0.052347,0,0,0,0,0,0,0,0
session_20260402_133209,C:/Users/josh_fleming/AppData/LocalLow/DefaultCompany/DJI Drone Sim\BenchmarkRuns\session_20260402_133209,20260402_133257_run007,7,descent,descent,6,Normal,settle,1.5,1,1.5,170,3.419997,0,-1.090043,40,0,-0.047321,0,0,0,0,-0.047321,0,0,0,0,0,0,0,0
session_20260402_133209,C:/Users/josh_fleming/AppData/LocalLow/DefaultCompany/DJI Drone Sim\BenchmarkRuns\session_20260402_133209,20260402_133257_run007,7,descent,descent,6,Normal,settle,1.5,1,1.5,171,3.439997,0,-1.090898,40,0,-0.042779,0,0,0,0,-0.042779,0,0,0,0,0,0,0,0
session_20260402_133209,C:/Users/josh_fleming/AppData/LocalLow/DefaultCompany/DJI Drone Sim\BenchmarkRuns\session_20260402_133209,20260402_133257_run007,7,descent,descent,6,Normal,settle,1.5,1,1.5,172,3.459997,0,-1.091672,40,0,-0.038672,0,0,0,0,-0.038672,0,0,0,0,0,0,0,0
session_20260402_133209,C:/Users/josh_fleming/AppData/LocalLow/DefaultCompany/DJI Drone Sim\BenchmarkRuns\session_20260402_133209,20260402_133257_run007,7,descent,descent,6,Normal,settle,1.5,1,1.5,173,3.479997,0,-1.092371,40,0,-0.034959,0,0,0,0,-0.034959,0,0,0,0,0,0,0,0
session_20260402_133209,C:/Users/josh_fleming/AppData/LocalLow/DefaultCompany/DJI Drone Sim\BenchmarkRuns\session_20260402_133209,20260402_133257_run007,7,descent,descent,6,Normal,settle,1.5,1,1.5,174,3.499997,0,-1.093003,40,0,-0.031603,0,0,0,0,-0.031603,0,0,0,0,0,0,0,0
session_20260402_133209,C:/Users/josh_fleming/AppData/LocalLow/DefaultCompany/DJI Drone Sim\BenchmarkRuns\session_20260402_133209,20260402_133257_run007,7,descent,descent,6,Normal,settle,1.5,1,1.5,175,3.519997,0,-1.093574,40,0,-0.028569,0,0,0,0,-0.028569,0,0,0,0,0,0,0,0
session_20260402_133209,C:/Users/josh_fleming/AppData/LocalLow/DefaultCompany/DJI Drone Sim\BenchmarkRuns\session_20260402_133209,20260402_133257_run007,7,descent,descent,6,Normal,settle,1.5,1,1.5,176,3.539997,0,-1.094091,40,0,-0.025827,0,0,0,0,-0.025827,0,0,0,0,0,0,0,0
session_20260402_133209,C:/Users/josh_fleming/AppData/LocalLow/DefaultCompany/DJI Drone Sim\BenchmarkRuns\session_20260402_133209,20260402_133257_run007,7,descent,descent,6,Normal,settle,1.5,1,1.5,177,3.559997,0,-1.094558,40,0,-0.023347,0,0,0,0,-0.023347,0,0,0,0,0,0,0,0
session_20260402_133209,C:/Users/josh_fleming/AppData/LocalLow/DefaultCompany/DJI Drone Sim\BenchmarkRuns\session_20260402_133209,20260402_133257_run007,7,descent,descent,6,Normal,settle,1.5,1,1.5,178,3.579997,0,-1.09498,40,0,-0.021106,0,0,0,0,-0.021106,0,0,0,0,0,0,0,0
session_20260402_133209,C:/Users/josh_fleming/AppData/LocalLow/DefaultCompany/DJI Drone Sim\BenchmarkRuns\session_20260402_133209,20260402_133257_run007,7,descent,descent,6,Normal,settle,1.5,1,1.5,179,3.599997,0,-1.095361,40,0,-0.01908,0,0,0,0,-0.01908,0,0,0,0,0,0,0,0
session_20260402_133209,C:/Users/josh_fleming/AppData/LocalLow/DefaultCompany/DJI Drone Sim\BenchmarkRuns\session_20260402_133209,20260402_133257_run007,7,descent,descent,6,Normal,settle,1.5,1,1.5,180,3.619997,0,-1.095706,40,0,-0.017248,0,0,0,0,-0.017248,0,0,0,0,0,0,0,0
session_20260402_133209,C:/Users/josh_fleming/AppData/LocalLow/DefaultCompany/DJI Drone Sim\BenchmarkRuns\session_20260402_133209,20260402_133257_run007,7,descent,descent,6,Normal,settle,1.5,1,1.5,181,3.639997,0,-1.096018,40,0,-0.015592,0,0,0,0,-0.015592,0,0,0,0,0,0,0,0
session_20260402_133209,C:/Users/josh_fleming/AppData/LocalLow/DefaultCompany/DJI Drone Sim\BenchmarkRuns\session_20260402_133209,20260402_133257_run007,7,descent,descent,6,Normal,settle,1.5,1,1.5,182,3.659997,0,-1.0963,40,0,-0.014095,0,0,0,0,-0.014095,0,0,0,0,0,0,0,0
session_20260402_133209,C:/Users/josh_fleming/AppData/LocalLow/DefaultCompany/DJI Drone Sim\BenchmarkRuns\session_20260402_133209,20260402_133257_run007,7,descent,descent,6,Normal,settle,1.5,1,1.5,183,3.679997,0,-1.096555,40,0,-0.012742,0,0,0,0,-0.012742,0,0,0,0,0,0,0,0
session_20260402_133209,C:/Users/josh_fleming/AppData/LocalLow/DefaultCompany/DJI Drone Sim\BenchmarkRuns\session_20260402_133209,20260402_133257_run007,7,descent,descent,6,Normal,settle,1.5,1,1.5,184,3.699997,0,-1.096786,40,0,-0.011519,0,0,0,0,-0.011519,0,0,0,0,0,0,0,0
session_20260402_133209,C:/Users/josh_fleming/AppData/LocalLow/DefaultCompany/DJI Drone Sim\BenchmarkRuns\session_20260402_133209,20260402_133257_run007,7,descent,descent,6,Normal,settle,1.5,1,1.5,185,3.719997,0,-1.096994,40,0,-0.010413,0,0,0,0,-0.010413,0,0,0,0,0,0,0,0
session_20260402_133209,C:/Users/josh_fleming/AppData/LocalLow/DefaultCompany/DJI Drone Sim\BenchmarkRuns\session_20260402_133209,20260402_133257_run007,7,descent,descent,6,Normal,settle,1.5,1,1.5,186,3.739997,0,-1.097182,40,0,-0.009413,0,0,0,0,-0.009413,0,0,0,0,0,0,0,0
session_20260402_133209,C:/Users/josh_fleming/AppData/LocalLow/DefaultCompany/DJI Drone Sim\BenchmarkRuns\session_20260402_133209,20260402_133257_run007,7,descent,descent,6,Normal,settle,1.5,1,1.5,187,3.759997,0,-1.097352,40,0,-0.00851,0,0,0,0,-0.00851,0,0,0,0,0,0,0,0
session_20260402_133209,C:/Users/josh_fleming/AppData/LocalLow/DefaultCompany/DJI Drone Sim\BenchmarkRuns\session_20260402_133209,20260402_133257_run007,7,descent,descent,6,Normal,settle,1.5,1,1.5,188,3.779997,0,-1.097506,40,0,-0.007693,0,0,0,0,-0.007693,0,0,0,0,0,0,0,0
session_20260402_133209,C:/Users/josh_fleming/AppData/LocalLow/DefaultCompany/DJI Drone Sim\BenchmarkRuns\session_20260402_133209,20260402_133257_run007,7,descent,descent,6,Normal,settle,1.5,1,1.5,189,3.799997,0,-1.097645,40,0,-0.006954,0,0,0,0,-0.006954,0,0,0,0,0,0,0,0
session_20260402_133209,C:/Users/josh_fleming/AppData/LocalLow/DefaultCompany/DJI Drone Sim\BenchmarkRuns\session_20260402_133209,20260402_133257_run007,7,descent,descent,6,Normal,settle,1.5,1,1.5,190,3.819997,0,-1.097771,40,0,-0.006287,0,0,0,0,-0.006287,0,0,0,0,0,0,0,0
session_20260402_133209,C:/Users/josh_fleming/AppData/LocalLow/DefaultCompany/DJI Drone Sim\BenchmarkRuns\session_20260402_133209,20260402_133257_run007,7,descent,descent,6,Normal,settle,1.5,1,1.5,191,3.839997,0,-1.097885,40,0,-0.005683,0,0,0,0,-0.005683,0,0,0,0,0,0,0,0
session_20260402_133209,C:/Users/josh_fleming/AppData/LocalLow/DefaultCompany/DJI Drone Sim\BenchmarkRuns\session_20260402_133209,20260402_133257_run007,7,descent,descent,6,Normal,settle,1.5,1,1.5,192,3.859997,0,-1.097987,40,0,-0.005138,0,0,0,0,-0.005138,0,0,0,0,0,0,0,0
session_20260402_133209,C:/Users/josh_fleming/AppData/LocalLow/DefaultCompany/DJI Drone Sim\BenchmarkRuns\session_20260402_133209,20260402_133257_run007,7,descent,descent,6,Normal,settle,1.5,1,1.5,193,3.879997,0,-1.09808,40,0,-0.004644,0,0,0,0,-0.004644,0,0,0,0,0,0,0,0
session_20260402_133209,C:/Users/josh_fleming/AppData/LocalLow/DefaultCompany/DJI Drone Sim\BenchmarkRuns\session_20260402_133209,20260402_133257_run007,7,descent,descent,6,Normal,settle,1.5,1,1.5,194,3.899997,0,-1.098164,40,0,-0.004198,0,0,0,0,-0.004198,0,0,0,0,0,0,0,0
session_20260402_133209,C:/Users/josh_fleming/AppData/LocalLow/DefaultCompany/DJI Drone Sim\BenchmarkRuns\session_20260402_133209,20260402_133257_run007,7,descent,descent,6,Normal,settle,1.5,1,1.5,195,3.919997,0,-1.09824,40,0,-0.003795,0,0,0,0,-0.003795,0,0,0,0,0,0,0,0
session_20260402_133209,C:/Users/josh_fleming/AppData/LocalLow/DefaultCompany/DJI Drone Sim\BenchmarkRuns\session_20260402_133209,20260402_133257_run007,7,descent,descent,6,Normal,settle,1.5,1,1.5,196,3.939996,0,-1.098309,40,0,-0.003431,0,0,0,0,-0.003431,0,0,0,0,0,0,0,0
session_20260402_133209,C:/Users/josh_fleming/AppData/LocalLow/DefaultCompany/DJI Drone Sim\BenchmarkRuns\session_20260402_133209,20260402_133257_run007,7,descent,descent,6,Normal,settle,1.5,1,1.5,197,3.959996,0,-1.098371,40,0,-0.003102,0,0,0,0,-0.003102,0,0,0,0,0,0,0,0
session_20260402_133209,C:/Users/josh_fleming/AppData/LocalLow/DefaultCompany/DJI Drone Sim\BenchmarkRuns\session_20260402_133209,20260402_133257_run007,7,descent,descent,6,Normal,settle,1.5,1,1.5,198,3.979996,0,-1.098427,40,0,-0.002804,0,0,0,0,-0.002804,0,0,0,0,0,0,0,0
session_20260402_133209,C:/Users/josh_fleming/AppData/LocalLow/DefaultCompany/DJI Drone Sim\BenchmarkRuns\session_20260402_133209,20260402_133257_run007,7,descent,descent,6,Normal,settle,1.5,1,1.5,199,3.999996,0,-1.098477,40,0,-0.002535,0,0,0,0,-0.002535,0,0,0,0,0,0,0,0
session_20260402_133209,C:/Users/josh_fleming/AppData/LocalLow/DefaultCompany/DJI Drone Sim\BenchmarkRuns\session_20260402_133209,20260402_133257_run007,7,descent,descent,6,Normal,settle,1.5,1,1.5,200,4.019997,0,-1.098523,40,0,-0.002291,0,0,0,0,-0.002291,0,0,0,0,0,0,0,0
session_20260402_133209,C:/Users/josh_fleming/AppData/LocalLow/DefaultCompany/DJI Drone Sim\BenchmarkRuns\session_20260402_133209,20260402_133257_run007,7,descent,descent,6,Normal,settle,1.5,1,1.5,201,4.039997,0,-1.098565,40,0,-0.002071,0,0,0,0,-0.002071,0,0,0,0,0,0,0,0
session_20260402_133209,C:/Users/josh_fleming/AppData/LocalLow/DefaultCompany/DJI Drone Sim\BenchmarkRuns\session_20260402_133209,20260402_133257_run007,7,descent,descent,6,Normal,settle,1.5,1,1.5,202,4.059997,0,-1.098602,40,0,-0.001873,0,0,0,0,-0.001873,0,0,0,0,0,0,0,0
