session_id,session_dir,run_label,run_number,maneuver_name,protocol_category,protocol_order,maneuver_mode,benchmark_phase,maneuver_preroll_s,maneuver_duration_s,maneuver_settle_s,sample_index,time_s,pos_x_m,pos_y_m,pos_z_m,vel_x_mps,vel_y_mps,vel_z_mps,forward_speed_mps,lateral_speed_mps,horizontal_speed_mps,vertical_speed_mps,yaw_deg,pitch_deg,roll_deg,yaw_rate_degps,input_roll,input_pitch,input_throttle,input_yaw
session_20260402_133209,C:/Users/josh_fleming/AppData/LocalLow/DefaultCompany/DJI Drone Sim\BenchmarkRuns\session_20260402_133209,20260402_133249_run005,5,lateral_left,lateral_left,4,Normal,preroll,1.5,1,1.5,0,0.02,0,1.996076,40,0,-0.1962,0,0,0,0,-0.1962,0,0,0,0,0,0,0,0
session_20260402_133209,C:/Users/josh_fleming/AppData/LocalLow/DefaultCompany/DJI Drone Sim\BenchmarkRuns\session_20260402_133209,20260402_133249_run005,5,lateral_left,lateral_left,4,Normal,preroll,1.5,1,1.5,1,0.04,0,1.992529,40,0,-0.177365,0,0,0,0,-0.177365,0,0,0,0,0,0,0,0
session_20260402_133209,C:/Users/josh_fleming/AppData/LocalLow/DefaultCompany/DJI Drone Sim\BenchmarkRuns\session_20260402_133209,20260402_133249_run005,5,lateral_left,lateral_left,4,Normal,preroll,1.5,1,1.5,2,0.06,0,1.989322,40,0,-0.160338,0,0,0,0,-0.160338,0,0,0,0,0,0,0,0
session_20260402_133209,C:/Users/josh_fleming/AppData/LocalLow/DefaultCompany/DJI Drone Sim\BenchmarkRuns\session_20260402_133209,20260402_133249_run005,5,lateral_left,lateral_left,4,Normal,preroll,1.5,1,1.5,3,0.08,0,1.986423,40,0,-0.144945,0,0,0,0,-0.144945,0,0,0,0,0,0,0,0
session_20260402_133209,C:/Users/josh_fleming/AppData/LocalLow/DefaultCompany/DJI Drone Sim\BenchmarkRuns\session_20260402_133209,20260402_133249_run005,5,lateral_left,lateral_left,4,Normal,preroll,1.5,1,1.5,4,0.1,0,1.983802,40,0,-0.131031,0,0,0,0,-0.131031,0,0,0,0,0,0,0,0
session_20260402_133209,C:/Users/josh_fleming/AppData/LocalLow/DefaultCompany/DJI Drone Sim\BenchmarkRuns\session_20260402_133209,20260402_133249_run005,5,lateral_left,lateral_left,4,Normal,preroll,1.5,1,1.5,5,0.12,0,1.981433,40,0,-0.118452,0,0,0,0,-0.118452,0,0,0,0,0,0,0,0
session_20260402_133209,C:/Users/josh_fleming/AppData/LocalLow/DefaultCompany/DJI Drone Sim\BenchmarkRuns\session_20260402_133209,20260402_133249_run005,5,lateral_left,lateral_left,4,Normal,preroll,1.5,1,1.5,6,0.14,0,1.979292,40,0,-0.10708,0,0,0,0,-0.10708,0,0,0,0,0,0,0,0
session_20260402_133209,C:/Users/josh_fleming/AppData/LocalLow/DefaultCompany/DJI Drone Sim\BenchmarkRuns\session_20260402_133209,20260402_133249_run005,5,lateral_left,lateral_left,4,Normal,preroll,1.5,1,1.5,7,0.16,0,1.977356,40,0,-0.0968,0,0,0,0,-0.0968,0,0,0,0,0,0,0,0
session_20260402_133209,C:/Users/josh_fleming/AppData/LocalLow/DefaultCompany/DJI Drone Sim\BenchmarkRuns\session_20260402_133209,20260402_133249_run005,5,lateral_left,lateral_left,4,Normal,preroll,1.5,1,1.5,8,0.18,0,1.975606,40,0,-0.087508,0,0,0,0,-0.087508,0,0,0,0,0,0,0,0
session_20260402_133209,C:/Users/josh_fleming/AppData/LocalLow/DefaultCompany/DJI Drone Sim\BenchmarkRuns\session_20260402_133209,20260402_133249_run005,5,lateral_left,lateral_left,4,Normal,preroll,1.5,1,1.5,9,0.2,0,1.974024,40,0,-0.079107,0,0,0,0,-0.079107,0,0,0,0,0,0,0,0
session_20260402_133209,C:/Users/josh_fleming/AppData/LocalLow/DefaultCompany/DJI Drone Sim\BenchmarkRuns\session_20260402_133209,20260402_133249_run005,5,lateral_left,lateral_left,4,Normal,preroll,1.5,1,1.5,10,0.22,0,1.972593,40,0,-0.071513,0,0,0,0,-0.071513,0,0,0,0,0,0,0,0
session_20260402_133209,C:/Users/josh_fleming/AppData/LocalLow/DefaultCompany/DJI Drone Sim\BenchmarkRuns\session_20260402_133209,20260402_133249_run005,5,lateral_left,lateral_left,4,Normal,preroll,1.5,1,1.5,11,0.24,0,1.9713,40,0,-0.064647,0,0,0,0,-0.064647,0,0,0,0,0,0,0,0
session_20260402_133209,C:/Users/josh_fleming/AppData/LocalLow/DefaultCompany/DJI Drone Sim\BenchmarkRuns\session_20260402_133209,20260402_133249_run005,5,lateral_left,lateral_left,4,Normal,preroll,1.5,1,1.5,12,0.26,0,1.970132,40,0,-0.058441,0,0,0,0,-0.058441,0,0,0,0,0,0,0,0
session_20260402_133209,C:/Users/josh_fleming/AppData/LocalLow/DefaultCompany/DJI Drone Sim\BenchmarkRuns\session_20260402_133209,20260402_133249_run005,5,lateral_left,lateral_left,4,Normal,preroll,1.5,1,1.5,13,0.28,0,1.969075,40,0,-0.052831,0,0,0,0,-0.052831,0,0,0,0,0,0,0,0
session_20260402_133209,C:/Users/josh_fleming/AppData/LocalLow/DefaultCompany/DJI Drone Sim\BenchmarkRuns\session_20260402_133209,20260402_133249_run005,5,lateral_left,lateral_left,4,Normal,preroll,1.5,1,1.5,14,0.3,0,1.96812,40,0,-0.047759,0,0,0,0,-0.047759,0,0,0,0,0,0,0,0
session_20260402_133209,C:/Users/josh_fleming/AppData/LocalLow/DefaultCompany/DJI Drone Sim\BenchmarkRuns\session_20260402_133209,20260402_133249_run005,5,lateral_left,lateral_left,4,Normal,preroll,1.5,1,1.5,15,0.32,0,1.967256,40,0,-0.043174,0,0,0,0,-0.043174,0,0,0,0,0,0,0,0
session_20260402_133209,C:/Users/josh_fleming/AppData/LocalLow/DefaultCompany/DJI Drone Sim\BenchmarkRuns\session_20260402_133209,20260402_133249_run005,5,lateral_left,lateral_left,4,Normal,preroll,1.5,1,1.5,16,0.34,0,1.966476,40,0,-0.039029,0,0,0,0,-0.039029,0,0,0,0,0,0,0,0
session_20260402_133209,C:/Users/josh_fleming/AppData/LocalLow/DefaultCompany/DJI Drone Sim\BenchmarkRuns\session_20260402_133209,20260402_133249_run005,5,lateral_left,lateral_left,4,Normal,preroll,1.5,1,1.5,17,0.36,0,1.96577,40,0,-0.035283,0,0,0,0,-0.035283,0,0,0,0,0,0,0,0
session_20260402_133209,C:/Users/josh_fleming/AppData/LocalLow/DefaultCompany/DJI Drone Sim\BenchmarkRuns\session_20260402_133209,20260402_133249_run005,5,lateral_left,lateral_left,4,Normal,preroll,1.5,1,1.5,18,0.38,0,1.965132,40,0,-0.031896,0,0,0,0,-0.031896,0,0,0,0,0,0,0,0
session_20260402_133209,C:/Users/josh_fleming/AppData/LocalLow/DefaultCompany/DJI Drone Sim\BenchmarkRuns\session_20260402_133209,20260402_133249_run005,5,lateral_left,lateral_left,4,Normal,preroll,1.5,1,1.5,19,0.4,0,1.964556,40,0,-0.028834,0,0,0,0,-0.028834,0,0,0,0,0,0,0,0
session_20260402_133209,C:/Users/josh_fleming/AppData/LocalLow/DefaultCompany/DJI Drone Sim\BenchmarkRuns\session_20260402_133209,20260402_133249_run005,5,lateral_left,lateral_left,4,Normal,preroll,1.5,1,1.5,20,0.42,0,1.964034,40,0,-0.026066,0,0,0,0,-0.026066,0,0,0,0,0,0,0,0
session_20260402_133209,C:/Users/josh_fleming/AppData/LocalLow/DefaultCompany/DJI Drone Sim\BenchmarkRuns\session_20260402_133209,20260402_133249_run005,5,lateral_left,lateral_left,4,Normal,preroll,1.5,1,1.5,21,0.44,0,1.963563,40,0,-0.023563,0,0,0,0,-0.023563,0,0,0,0,0,0,0,0
session_20260402_133209,C:/Users/josh_fleming/AppData/LocalLow/DefaultCompany/DJI Drone Sim\BenchmarkRuns\session_20260402_133209,20260402_133249_run005,5,lateral_left,lateral_left,4,Normal,preroll,1.5,1,1.5,22,0.46,0,1.963137,40,0,-0.021301,0,0,0,0,-0.021301,0,0,0,0,0,0,0,0
session_20260402_133209,C:/Users/josh_fleming/AppData/LocalLow/DefaultCompany/DJI Drone Sim\BenchmarkRuns\session_20260402_133209,20260402_133249_run005,5,lateral_left,lateral_left,4,Normal,preroll,1.5,1,1.5,23,0.48,0,1.962752,40,0,-0.019256,0,0,0,0,-0.019256,0,0,0,0,0,0,0,0
session_20260402_133209,C:/Users/josh_fleming/AppData/LocalLow/DefaultCompany/DJI Drone Sim\BenchmarkRuns\session_20260402_133209,20260402_133249_run005,5,lateral_left,lateral_left,4,Normal,preroll,1.5,1,1.5,24,0.5,0,1.962404,40,0,-0.017408,0,0,0,0,-0.017408,0,0,0,0,0,0,0,0
session_20260402_133209,C:/Users/josh_fleming/AppData/LocalLow/DefaultCompany/DJI Drone Sim\BenchmarkRuns\session_20260402_133209,20260402_133249_run005,5,lateral_left,lateral_left,4,Normal,preroll,1.5,1,1.5,25,0.52,0,1.962089,40,0,-0.015736,0,0,0,0,-0.015736,0,0,0,0,0,0,0,0
session_20260402_133209,C:/Users/josh_fleming/AppData/LocalLow/DefaultCompany/DJI Drone Sim\BenchmarkRuns\session_20260402_133209,20260402_133249_run005,5,lateral_left,lateral_left,4,Normal,preroll,1.5,1,1.5,26,0.54,0,1.961804,40,0,-0.014226,0,0,0,0,-0.014226,0,0,0,0,0,0,0,0
session_20260402_133209,C:/Users/josh_fleming/AppData/LocalLow/DefaultCompany/DJI Drone Sim\BenchmarkRuns\session_20260402_133209,20260402_133249_run005,5,lateral_left,lateral_left,4,Normal,preroll,1.5,1,1.5,27,0.56,0,1.961547,40,0,-0.01286,0,0,0,0,-0.01286,0,0,0,0,0,0,0,0
session_20260402_133209,C:/Users/josh_fleming/AppData/LocalLow/DefaultCompany/DJI Drone Sim\BenchmarkRuns\session_20260402_133209,20260402_133249_run005,5,lateral_left,lateral_left,4,Normal,preroll,1.5,1,1.5,28,0.58,0,1.961315,40,0,-0.011626,0,0,0,0,-0.011626,0,0,0,0,0,0,0,0
session_20260402_133209,C:/Users/josh_fleming/AppData/LocalLow/DefaultCompany/DJI Drone Sim\BenchmarkRuns\session_20260402_133209,20260402_133249_run005,5,lateral_left,lateral_left,4,Normal,preroll,1.5,1,1.5,29,0.6,0,1.961104,40,0,-0.010509,0,0,0,0,-0.010509,0,0,0,0,0,0,0,0
session_20260402_133209,C:/Users/josh_fleming/AppData/LocalLow/DefaultCompany/DJI Drone Sim\BenchmarkRuns\session_20260402_133209,20260402_133249_run005,5,lateral_left,lateral_left,4,Normal,preroll,1.5,1,1.5,30,0.62,0,1.960914,40,0,-0.009501,0,0,0,0,-0.009501,0,0,0,0,0,0,0,0
session_20260402_133209,C:/Users/josh_fleming/AppData/LocalLow/DefaultCompany/DJI Drone Sim\BenchmarkRuns\session_20260402_133209,20260402_133249_run005,5,lateral_left,lateral_left,4,Normal,preroll,1.5,1,1.5,31,0.64,0,1.960743,40,0,-0.008588,0,0,0,0,-0.008588,0,0,0,0,0,0,0,0
session_20260402_133209,C:/Users/josh_fleming/AppData/LocalLow/DefaultCompany/DJI Drone Sim\BenchmarkRuns\session_20260402_133209,20260402_133249_run005,5,lateral_left,lateral_left,4,Normal,preroll,1.5,1,1.5,32,0.66,0,1.960587,40,0,-0.007764,0,0,0,0,-0.007764,0,0,0,0,0,0,0,0
session_20260402_133209,C:/Users/josh_fleming/AppData/LocalLow/DefaultCompany/DJI Drone Sim\BenchmarkRuns\session_20260402_133209,20260402_133249_run005,5,lateral_left,lateral_left,4,Normal,preroll,1.5,1,1.5,33,0.68,0,1.960447,40,0,-0.007019,0,0,0,0,-0.007019,0,0,0,0,0,0,0,0
session_20260402_133209,C:/Users/josh_fleming/AppData/LocalLow/DefaultCompany/DJI Drone Sim\BenchmarkRuns\session_20260402_133209,20260402_133249_run005,5,lateral_left,lateral_left,4,Normal,preroll,1.5,1,1.5,34,0.7,0,1.96032,40,0,-0.006345,0,0,0,0,-0.006345,0,0,0,0,0,0,0,0
session_20260402_133209,C:/Users/josh_fleming/AppData/LocalLow/DefaultCompany/DJI Drone Sim\BenchmarkRuns\session_20260402_133209,20260402_133249_run005,5,lateral_left,lateral_left,4,Normal,preroll,1.5,1,1.5,35,0.72,0,1.960205,40,0,-0.005736,0,0,0,0,-0.005736,0,0,0,0,0,0,0,0
session_20260402_133209,C:/Users/josh_fleming/AppData/LocalLow/DefaultCompany/DJI Drone Sim\BenchmarkRuns\session_20260402_133209,20260402_133249_run005,5,lateral_left,lateral_left,4,Normal,preroll,1.5,1,1.5,36,0.74,0,1.960102,40,0,-0.005185,0,0,0,0,-0.005185,0,0,0,0,0,0,0,0
session_20260402_133209,C:/Users/josh_fleming/AppData/LocalLow/DefaultCompany/DJI Drone Sim\BenchmarkRuns\session_20260402_133209,20260402_133249_run005,5,lateral_left,lateral_left,4,Normal,preroll,1.5,1,1.5,37,0.76,0,1.960008,40,0,-0.004687,0,0,0,0,-0.004687,0,0,0,0,0,0,0,0
session_20260402_133209,C:/Users/josh_fleming/AppData/LocalLow/DefaultCompany/DJI Drone Sim\BenchmarkRuns\session_20260402_133209,20260402_133249_run005,5,lateral_left,lateral_left,4,Normal,preroll,1.5,1,1.5,38,0.779999,0,1.959923,40,0,-0.004237,0,0,0,0,-0.004237,0,0,0,0,0,0,0,0
session_20260402_133209,C:/Users/josh_fleming/AppData/LocalLow/DefaultCompany/DJI Drone Sim\BenchmarkRuns\session_20260402_133209,20260402_133249_run005,5,lateral_left,lateral_left,4,Normal,preroll,1.5,1,1.5,39,0.799999,0,1.959846,40,0,-0.003831,0,0,0,0,-0.003831,0,0,0,0,0,0,0,0
session_20260402_133209,C:/Users/josh_fleming/AppData/LocalLow/DefaultCompany/DJI Drone Sim\BenchmarkRuns\session_20260402_133209,20260402_133249_run005,5,lateral_left,lateral_left,4,Normal,preroll,1.5,1,1.5,40,0.819999,0,1.959777,40,0,-0.003463,0,0,0,0,-0.003463,0,0,0,0,0,0,0,0
session_20260402_133209,C:/Users/josh_fleming/AppData/LocalLow/DefaultCompany/DJI Drone Sim\BenchmarkRuns\session_20260402_133209,20260402_133249_run005,5,lateral_left,lateral_left,4,Normal,preroll,1.5,1,1.5,41,0.839999,0,1.959715,40,0,-0.00313,0,0,0,0,-0.00313,0,0,0,0,0,0,0,0
session_20260402_133209,C:/Users/josh_fleming/AppData/LocalLow/DefaultCompany/DJI Drone Sim\BenchmarkRuns\session_20260402_133209,20260402_133249_run005,5,lateral_left,lateral_left,4,Normal,preroll,1.5,1,1.5,42,0.859999,0,1.959658,40,0,-0.00283,0,0,0,0,-0.00283,0,0,0,0,0,0,0,0
session_20260402_133209,C:/Users/josh_fleming/AppData/LocalLow/DefaultCompany/DJI Drone Sim\BenchmarkRuns\session_20260402_133209,20260402_133249_run005,5,lateral_left,lateral_left,4,Normal,preroll,1.5,1,1.5,43,0.879999,0,1.959607,40,0,-0.002558,0,0,0,0,-0.002558,0,0,0,0,0,0,0,0
session_20260402_133209,C:/Users/josh_fleming/AppData/LocalLow/DefaultCompany/DJI Drone Sim\BenchmarkRuns\session_20260402_133209,20260402_133249_run005,5,lateral_left,lateral_left,4,Normal,preroll,1.5,1,1.5,44,0.899999,0,1.959561,40,0,-0.002313,0,0,0,0,-0.002313,0,0,0,0,0,0,0,0
session_20260402_133209,C:/Users/josh_fleming/AppData/LocalLow/DefaultCompany/DJI Drone Sim\BenchmarkRuns\session_20260402_133209,20260402_133249_run005,5,lateral_left,lateral_left,4,Normal,preroll,1.5,1,1.5,45,0.919999,0,1.959519,40,0,-0.002091,0,0,0,0,-0.002091,0,0,0,0,0,0,0,0
session_20260402_133209,C:/Users/josh_fleming/AppData/LocalLow/DefaultCompany/DJI Drone Sim\BenchmarkRuns\session_20260402_133209,20260402_133249_run005,5,lateral_left,lateral_left,4,Normal,preroll,1.5,1,1.5,46,0.939999,0,1.959481,40,0,-0.00189,0,0,0,0,-0.00189,0,0,0,0,0,0,0,0
session_20260402_133209,C:/Users/josh_fleming/AppData/LocalLow/DefaultCompany/DJI Drone Sim\BenchmarkRuns\session_20260402_133209,20260402_133249_run005,5,lateral_left,lateral_left,4,Normal,preroll,1.5,1,1.5,47,0.959999,0,1.959447,40,0,-0.001708,0,0,0,0,-0.001708,0,0,0,0,0,0,0,0
session_20260402_133209,C:/Users/josh_fleming/AppData/LocalLow/DefaultCompany/DJI Drone Sim\BenchmarkRuns\session_20260402_133209,20260402_133249_run005,5,lateral_left,lateral_left,4,Normal,preroll,1.5,1,1.5,48,0.979999,0,1.959416,40,0,-0.001544,0,0,0,0,-0.001544,0,0,0,0,0,0,0,0
session_20260402_133209,C:/Users/josh_fleming/AppData/LocalLow/DefaultCompany/DJI Drone Sim\BenchmarkRuns\session_20260402_133209,20260402_133249_run005,5,lateral_left,lateral_left,4,Normal,preroll,1.5,1,1.5,49,0.999999,0,1.959388,40,0,-0.001396,0,0,0,0,-0.001396,0,0,0,0,0,0,0,0
session_20260402_133209,C:/Users/josh_fleming/AppData/LocalLow/DefaultCompany/DJI Drone Sim\BenchmarkRuns\session_20260402_133209,20260402_133249_run005,5,lateral_left,lateral_left,4,Normal,preroll,1.5,1,1.5,50,1.019999,0,1.959363,40,0,-0.001262,0,0,0,0,-0.001262,0,0,0,0,0,0,0,0
session_20260402_133209,C:/Users/josh_fleming/AppData/LocalLow/DefaultCompany/DJI Drone Sim\BenchmarkRuns\session_20260402_133209,20260402_133249_run005,5,lateral_left,lateral_left,4,Normal,preroll,1.5,1,1.5,51,1.039999,0,1.95934,40,0,-0.001141,0,0,0,0,-0.001141,0,0,0,0,0,0,0,0
session_20260402_133209,C:/Users/josh_fleming/AppData/LocalLow/DefaultCompany/DJI Drone Sim\BenchmarkRuns\session_20260402_133209,20260402_133249_run005,5,lateral_left,lateral_left,4,Normal,preroll,1.5,1,1.5,52,1.059999,0,1.959319,40,0,-0.001031,0,0,0,0,-0.001031,0,0,0,0,0,0,0,0
session_20260402_133209,C:/Users/josh_fleming/AppData/LocalLow/DefaultCompany/DJI Drone Sim\BenchmarkRuns\session_20260402_133209,20260402_133249_run005,5,lateral_left,lateral_left,4,Normal,preroll,1.5,1,1.5,53,1.079999,0,1.959301,40,0,-0.000932,0,0,0,0,-0.000932,0,0,0,0,0,0,0,0
session_20260402_133209,C:/Users/josh_fleming/AppData/LocalLow/DefaultCompany/DJI Drone Sim\BenchmarkRuns\session_20260402_133209,20260402_133249_run005,5,lateral_left,lateral_left,4,Normal,preroll,1.5,1,1.5,54,1.099999,0,1.959284,40,0,-0.000843,0,0,0,0,-0.000843,0,0,0,0,0,0,0,0
session_20260402_133209,C:/Users/josh_fleming/AppData/LocalLow/DefaultCompany/DJI Drone Sim\BenchmarkRuns\session_20260402_133209,20260402_133249_run005,5,lateral_left,lateral_left,4,Normal,preroll,1.5,1,1.5,55,1.119999,0,1.959269,40,0,-0.000762,0,0,0,0,-0.000762,0,0,0,0,0,0,0,0
session_20260402_133209,C:/Users/josh_fleming/AppData/LocalLow/DefaultCompany/DJI Drone Sim\BenchmarkRuns\session_20260402_133209,20260402_133249_run005,5,lateral_left,lateral_left,4,Normal,preroll,1.5,1,1.5,56,1.139999,0,1.959255,40,0,-0.000689,0,0,0,0,-0.000689,0,0,0,0,0,0,0,0
session_20260402_133209,C:/Users/josh_fleming/AppData/LocalLow/DefaultCompany/DJI Drone Sim\BenchmarkRuns\session_20260402_133209,20260402_133249_run005,5,lateral_left,lateral_left,4,Normal,preroll,1.5,1,1.5,57,1.159999,0,1.959242,40,0,-0.000623,0,0,0,0,-0.000623,0,0,0,0,0,0,0,0
session_20260402_133209,C:/Users/josh_fleming/AppData/LocalLow/DefaultCompany/DJI Drone Sim\BenchmarkRuns\session_20260402_133209,20260402_133249_run005,5,lateral_left,lateral_left,4,Normal,preroll,1.5,1,1.5,58,1.179999,0,1.959231,40,0,-0.000563,0,0,0,0,-0.000563,0,0,0,0,0,0,0,0
session_20260402_133209,C:/Users/josh_fleming/AppData/LocalLow/DefaultCompany/DJI Drone Sim\BenchmarkRuns\session_20260402_133209,20260402_133249_run005,5,lateral_left,lateral_left,4,Normal,preroll,1.5,1,1.5,59,1.199999,0,1.959221,40,0,-0.000509,0,0,0,0,-0.000509,0,0,0,0,0,0,0,0
session_20260402_133209,C:/Users/josh_fleming/AppData/LocalLow/DefaultCompany/DJI Drone Sim\BenchmarkRuns\session_20260402_133209,20260402_133249_run005,5,lateral_left,lateral_left,4,Normal,preroll,1.5,1,1.5,60,1.219999,0,1.959212,40,0,-0.00046,0,0,0,0,-0.00046,0,0,0,0,0,0,0,0
session_20260402_133209,C:/Users/josh_fleming/AppData/LocalLow/DefaultCompany/DJI Drone Sim\BenchmarkRuns\session_20260402_133209,20260402_133249_run005,5,lateral_left,lateral_left,4,Normal,preroll,1.5,1,1.5,61,1.239999,0,1.959204,40,0,-0.000416,0,0,0,0,-0.000416,0,0,0,0,0,0,0,0
session_20260402_133209,C:/Users/josh_fleming/AppData/LocalLow/DefaultCompany/DJI Drone Sim\BenchmarkRuns\session_20260402_133209,20260402_133249_run005,5,lateral_left,lateral_left,4,Normal,preroll,1.5,1,1.5,62,1.259999,0,1.959196,40,0,-0.000376,0,0,0,0,-0.000376,0,0,0,0,0,0,0,0
session_20260402_133209,C:/Users/josh_fleming/AppData/LocalLow/DefaultCompany/DJI Drone Sim\BenchmarkRuns\session_20260402_133209,20260402_133249_run005,5,lateral_left,lateral_left,4,Normal,preroll,1.5,1,1.5,63,1.279999,0,1.959189,40,0,-0.00034,0,0,0,0,-0.00034,0,0,0,0,0,0,0,0
session_20260402_133209,C:/Users/josh_fleming/AppData/LocalLow/DefaultCompany/DJI Drone Sim\BenchmarkRuns\session_20260402_133209,20260402_133249_run005,5,lateral_left,lateral_left,4,Normal,preroll,1.5,1,1.5,64,1.299999,0,1.959183,40,0,-0.000307,0,0,0,0,-0.000307,0,0,0,0,0,0,0,0
session_20260402_133209,C:/Users/josh_fleming/AppData/LocalLow/DefaultCompany/DJI Drone Sim\BenchmarkRuns\session_20260402_133209,20260402_133249_run005,5,lateral_left,lateral_left,4,Normal,preroll,1.5,1,1.5,65,1.319999,0,1.959177,40,0,-0.000278,0,0,0,0,-0.000278,0,0,0,0,0,0,0,0
session_20260402_133209,C:/Users/josh_fleming/AppData/LocalLow/DefaultCompany/DJI Drone Sim\BenchmarkRuns\session_20260402_133209,20260402_133249_run005,5,lateral_left,lateral_left,4,Normal,preroll,1.5,1,1.5,66,1.339999,0,1.959172,40,0,-0.000251,0,0,0,0,-0.000251,0,0,0,0,0,0,0,0
session_20260402_133209,C:/Users/josh_fleming/AppData/LocalLow/DefaultCompany/DJI Drone Sim\BenchmarkRuns\session_20260402_133209,20260402_133249_run005,5,lateral_left,lateral_left,4,Normal,preroll,1.5,1,1.5,67,1.359999,0,1.959168,40,0,-0.000227,0,0,0,0,-0.000227,0,0,0,0,0,0,0,0
session_20260402_133209,C:/Users/josh_fleming/AppData/LocalLow/DefaultCompany/DJI Drone Sim\BenchmarkRuns\session_20260402_133209,20260402_133249_run005,5,lateral_left,lateral_left,4,Normal,preroll,1.5,1,1.5,68,1.379999,0,1.959164,40,0,-0.000205,0,0,0,0,-0.000205,0,0,0,0,0,0,0,0
session_20260402_133209,C:/Users/josh_fleming/AppData/LocalLow/DefaultCompany/DJI Drone Sim\BenchmarkRuns\session_20260402_133209,20260402_133249_run005,5,lateral_left,lateral_left,4,Normal,preroll,1.5,1,1.5,69,1.399999,0,1.95916,40,0,-0.000185,0,0,0,0,-0.000185,0,0,0,0,0,0,0,0
session_20260402_133209,C:/Users/josh_fleming/AppData/LocalLow/DefaultCompany/DJI Drone Sim\BenchmarkRuns\session_20260402_133209,20260402_133249_run005,5,lateral_left,lateral_left,4,Normal,preroll,1.5,1,1.5,70,1.419999,0,1.959157,40,0,-0.000168,0,0,0,0,-0.000168,0,0,0,0,0,0,0,0
session_20260402_133209,C:/Users/josh_fleming/AppData/LocalLow/DefaultCompany/DJI Drone Sim\BenchmarkRuns\session_20260402_133209,20260402_133249_run005,5,lateral_left,lateral_left,4,Normal,preroll,1.5,1,1.5,71,1.439999,0,1.959154,40,0,-0.000152,0,0,0,0,-0.000152,0,0,0,0,0,0,0,0
session_20260402_133209,C:/Users/josh_fleming/AppData/LocalLow/DefaultCompany/DJI Drone Sim\BenchmarkRuns\session_20260402_133209,20260402_133249_run005,5,lateral_left,lateral_left,4,Normal,preroll,1.5,1,1.5,72,1.459999,0,1.959151,40,0,-0.000137,0,0,0,0,-0.000137,0,0,0,0,0,0,0,0
session_20260402_133209,C:/Users/josh_fleming/AppData/LocalLow/DefaultCompany/DJI Drone Sim\BenchmarkRuns\session_20260402_133209,20260402_133249_run005,5,lateral_left,lateral_left,4,Normal,preroll,1.5,1,1.5,73,1.479999,0,1.959149,40,0,-0.000124,0,0,0,0,-0.000124,0,0,0,0,0,0,0,0
session_20260402_133209,C:/Users/josh_fleming/AppData/LocalLow/DefaultCompany/DJI Drone Sim\BenchmarkRuns\session_20260402_133209,20260402_133249_run005,5,lateral_left,lateral_left,4,Normal,preroll,1.5,1,1.5,74,1.499999,0,1.959146,40,0,-0.000112,0,0,0,0,-0.000112,0,0,0,0,0,0,0,0
session_20260402_133209,C:/Users/josh_fleming/AppData/LocalLow/DefaultCompany/DJI Drone Sim\BenchmarkRuns\session_20260402_133209,20260402_133249_run005,5,lateral_left,lateral_left,4,Normal,preroll,1.5,1,1.5,75,1.519999,0,1.959144,40,0,-0.000101,0,0,0,0,-0.000101,0,0,0,0,0,0,0,0
session_20260402_133209,C:/Users/josh_fleming/AppData/LocalLow/DefaultCompany/DJI Drone Sim\BenchmarkRuns\session_20260402_133209,20260402_133249_run005,5,lateral_left,lateral_left,4,Normal,input,1.5,1,1.5,76,1.539999,0,1.959143,40,0,-0.000091,0,0,0,0,-0.000091,0,0,0,0,-1,0,0,0
session_20260402_133209,C:/Users/josh_fleming/AppData/LocalLow/DefaultCompany/DJI Drone Sim\BenchmarkRuns\session_20260402_133209,20260402_133249_run005,5,lateral_left,lateral_left,4,Normal,input,1.5,1,1.5,77,1.559999,0,1.959141,40,0,-0.000083,0,0,0,0,-0.000083,0,0,0,0,-1,0,0,0
session_20260402_133209,C:/Users/josh_fleming/AppData/LocalLow/DefaultCompany/DJI Drone Sim\BenchmarkRuns\session_20260402_133209,20260402_133249_run005,5,lateral_left,lateral_left,4,Normal,input,1.5,1,1.5,78,1.579999,-0.0032,1.959139,40,-0.16,-0.000075,0,0,-0.16,0.16,-0.000075,0,0,0,0,-1,0,0,0
session_20260402_133209,C:/Users/josh_fleming/AppData/LocalLow/DefaultCompany/DJI Drone Sim\BenchmarkRuns\session_20260402_133209,20260402_133249_run005,5,lateral_left,lateral_left,4,Normal,input,1.5,1,1.5,79,1.599999,-0.0096,1.959138,40,-0.32,-0.000068,0,0,-0.32,0.32,-0.000068,0,0,0,0.000003,-1,0,0,0
session_20260402_133209,C:/Users/josh_fleming/AppData/LocalLow/DefaultCompany/DJI Drone Sim\BenchmarkRuns\session_20260402_133209,20260402_133249_run005,5,lateral_left,lateral_left,4,Normal,input,1.5,1,1.5,80,1.619999,-0.0192,1.959137,40,-0.48,-0.000061,0,0,-0.48,0.48,-0.000061,0,0,0,0.000003,-1,0,0,0
session_20260402_133209,C:/Users/josh_fleming/AppData/LocalLow/DefaultCompany/DJI Drone Sim\BenchmarkRuns\session_20260402_133209,20260402_133249_run005,5,lateral_left,lateral_left,4,Normal,input,1.5,1,1.5,81,1.639999,-0.032,1.959136,40,-0.64,-0.000055,0,0,-0.64,0.64,-0.000055,0,0,0,0,-1,0,0,0
session_20260402_133209,C:/Users/josh_fleming/AppData/LocalLow/DefaultCompany/DJI Drone Sim\BenchmarkRuns\session_20260402_133209,20260402_133249_run005,5,lateral_left,lateral_left,4,Normal,input,1.5,1,1.5,82,1.659999,-0.048,1.959135,40,-0.8,-0.00005,0,0,-0.8,0.8,-0.00005,0,0,0,0.000011,-1,0,0,0
session_20260402_133209,C:/Users/josh_fleming/AppData/LocalLow/DefaultCompany/DJI Drone Sim\BenchmarkRuns\session_20260402_133209,20260402_133249_run005,5,lateral_left,lateral_left,4,Normal,input,1.5,1,1.5,83,1.679999,-0.0672,1.959134,40,-0.96,-0.000045,0,0,-0.96,0.96,-0.000045,0,0,0.000002,0.000001,-1,0,0,0
session_20260402_133209,C:/Users/josh_fleming/AppData/LocalLow/DefaultCompany/DJI Drone Sim\BenchmarkRuns\session_20260402_133209,20260402_133249_run005,5,lateral_left,lateral_left,4,Normal,input,1.5,1,1.5,84,1.699999,-0.0896,1.959133,40,-1.12,-0.000041,0,0,-1.12,1.12,-0.000041,0,0,0.000001,0.000005,-1,0,0,0
session_20260402_133209,C:/Users/josh_fleming/AppData/LocalLow/DefaultCompany/DJI Drone Sim\BenchmarkRuns\session_20260402_133209,20260402_133249_run005,5,lateral_left,lateral_left,4,Normal,input,1.5,1,1.5,85,1.719999,-0.1152,1.959132,40,-1.28,-0.000037,0,0,-1.28,1.28,-0.000037,0,0,0,0.000006,-1,0,0,0
session_20260402_133209,C:/Users/josh_fleming/AppData/LocalLow/DefaultCompany/DJI Drone Sim\BenchmarkRuns\session_20260402_133209,20260402_133249_run005,5,lateral_left,lateral_left,4,Normal,input,1.5,1,1.5,86,1.739999,-0.144,1.959132,40,-1.44,-0.000033,0,0,-1.44,1.44,-0.000033,0.000001,0,0,0.000005,-1,0,0,0
session_20260402_133209,C:/Users/josh_fleming/AppData/LocalLow/DefaultCompany/DJI Drone Sim\BenchmarkRuns\session_20260402_133209,20260402_133249_run005,5,lateral_left,lateral_left,4,Normal,input,1.5,1,1.5,87,1.759999,-0.176,1.959131,40,-1.6,-0.00003,0,0,-1.6,1.6,-0.00003,0.000001,0,0,0,-1,0,0,0
session_20260402_133209,C:/Users/josh_fleming/AppData/LocalLow/DefaultCompany/DJI Drone Sim\BenchmarkRuns\session_20260402_133209,20260402_133249_run005,5,lateral_left,lateral_left,4,Normal,input,1.5,1,1.5,88,1.779999,-0.2112,1.959131,40,-1.76,-0.000027,0,0,-1.76,1.76,-0.000027,0.000001,0,0,0.000011,-1,0,0,0
session_20260402_133209,C:/Users/josh_fleming/AppData/LocalLow/DefaultCompany/DJI Drone Sim\BenchmarkRuns\session_20260402_133209,20260402_133249_run005,5,lateral_left,lateral_left,4,Normal,input,1.5,1,1.5,89,1.799999,-0.2496,1.95913,40,-1.919999,-0.000025,0,0,-1.919999,1.919999,-0.000025,0.000002,0,0,0.000038,-1,0,0,0
session_20260402_133209,C:/Users/josh_fleming/AppData/LocalLow/DefaultCompany/DJI Drone Sim\BenchmarkRuns\session_20260402_133209,20260402_133249_run005,5,lateral_left,lateral_left,4,Normal,input,1.5,1,1.5,90,1.819999,-0.2912,1.95913,40,-2.079999,-0.000022,0,0,-2.079999,2.079999,-0.000022,0.000002,0,0,0.000001,-1,0,0,0
session_20260402_133209,C:/Users/josh_fleming/AppData/LocalLow/DefaultCompany/DJI Drone Sim\BenchmarkRuns\session_20260402_133209,20260402_133249_run005,5,lateral_left,lateral_left,4,Normal,input,1.5,1,1.5,91,1.839998,-0.336,1.959129,40,-2.239999,-0.00002,0,0,-2.239999,2.239999,-0.00002,0.000002,0,0,0,-1,0,0,0
session_20260402_133209,C:/Users/josh_fleming/AppData/LocalLow/DefaultCompany/DJI Drone Sim\BenchmarkRuns\session_20260402_133209,20260402_133249_run005,5,lateral_left,lateral_left,4,Normal,input,1.5,1,1.5,92,1.859998,-0.383936,1.959129,40,-2.396799,-0.000018,0,0,-2.396799,2.396799,-0.000018,0.000002,0,0,0.000018,-1,0,0,0
session_20260402_133209,C:/Users/josh_fleming/AppData/LocalLow/DefaultCompany/DJI Drone Sim\BenchmarkRuns\session_20260402_133209,20260402_133249_run005,5,lateral_left,lateral_left,4,Normal,input,1.5,1,1.5,93,1.879998,-0.434757,1.959128,40,-2.541055,-0.000016,0,0,-2.541055,2.541055,-0.000016,0.000004,0,0,0.000091,-1,0,0,0
session_20260402_133209,C:/Users/josh_fleming/AppData/LocalLow/DefaultCompany/DJI Drone Sim\BenchmarkRuns\session_20260402_133209,20260402_133249_run005,5,lateral_left,lateral_left,4,Normal,input,1.5,1,1.5,94,1.899998,-0.488232,1.959128,40,-2.673771,-0.000015,0,0,-2.673771,2.673771,-0.000015,0.000004,0,0,0.000005,-1,0,0,0
session_20260402_133209,C:/Users/josh_fleming/AppData/LocalLow/DefaultCompany/DJI Drone Sim\BenchmarkRuns\session_20260402_133209,20260402_133249_run005,5,lateral_left,lateral_left,4,Normal,input,1.5,1,1.5,95,1.919998,-0.54415,1.959128,40,-2.795869,-0.000013,0,0,-2.795869,2.795869,-0.000013,0.000004,0,0,0.000032,-1,0,0,0
session_20260402_133209,C:/Users/josh_fleming/AppData/LocalLow/DefaultCompany/DJI Drone Sim\BenchmarkRuns\session_20260402_133209,20260402_133249_run005,5,lateral_left,lateral_left,4,Normal,input,1.5,1,1.5,96,1.939998,-0.602314,1.959128,40,-2.908199,-0.000012,0,0,-2.908199,2.908199,-0.000012,0.000005,0,0,0.000021,-1,0,0,0
session_20260402_133209,C:/Users/josh_fleming/AppData/LocalLow/DefaultCompany/DJI Drone Sim\BenchmarkRuns\session_20260402_133209,20260402_133249_run005,5,lateral_left,lateral_left,4,Normal,input,1.5,1,1.5,97,1.959998,-0.662544,1.959128,40,-3.011543,-0.000011,0,0,-3.011543,3.011543,-0.000011,0.000006,0,0,0.000033,-1,0,0,0
session_20260402_133209,C:/Users/josh_fleming/AppData/LocalLow/DefaultCompany/DJI Drone Sim\BenchmarkRuns\session_20260402_133209,20260402_133249_run005,5,lateral_left,lateral_left,4,Normal,input,1.5,1,1.5,98,1.979998,-0.724677,1.959127,40,-3.10662,-0.00001,0,0,-3.10662,3.10662,-0.00001,0.000006,0,0,0.000015,-1,0,0,0
session_20260402_133209,C:/Users/josh_fleming/AppData/LocalLow/DefaultCompany/DJI Drone Sim\BenchmarkRuns\session_20260402_133209,20260402_133249_run005,5,lateral_left,lateral_left,4,Normal,input,1.5,1,1.5,99,1.999998,-0.788558,1.959127,40,-3.19409,-0.000009,0,0,-3.19409,3.19409,-0.000009,0.000007,0,0,0.000043,-1,0,0,0
session_20260402_133209,C:/Users/josh_fleming/AppData/LocalLow/DefaultCompany/DJI Drone Sim\BenchmarkRuns\session_20260402_133209,20260402_133249_run005,5,lateral_left,lateral_left,4,Normal,input,1.5,1,1.5,100,2.019998,-0.85405,1.959127,40,-3.274563,-0.000008,0,0,-3.274563,3.274563,-0.000008,0.000009,0,0,0.000107,-1,0,0,0
session_20260402_133209,C:/Users/josh_fleming/AppData/LocalLow/DefaultCompany/DJI Drone Sim\BenchmarkRuns\session_20260402_133209,20260402_133249_run005,5,lateral_left,lateral_left,4,Normal,input,1.5,1,1.5,101,2.039998,-0.921022,1.959127,40,-3.348598,-0.000007,0,0,-3.348598,3.348598,-0.000007,0.000011,0,0,0.000086,-1,0,0,0
session_20260402_133209,C:/Users/josh_fleming/AppData/LocalLow/DefaultCompany/DJI Drone Sim\BenchmarkRuns\session_20260402_133209,20260402_133249_run005,5,lateral_left,lateral_left,4,Normal,input,1.5,1,1.5,102,2.059998,-0.989356,1.959127,40,-3.41671,-0.000007,0,0,-3.41671,3.41671,-0.000007,0.000012,0,0,0.000053,-1,0,0,0
session_20260402_133209,C:/Users/josh_fleming/AppData/LocalLow/DefaultCompany/DJI Drone Sim\BenchmarkRuns\session_20260402_133209,20260402_133249_run005,5,lateral_left,lateral_left,4,Normal,input,1.5,1,1.5,103,2.079998,-1.058943,1.959127,40,-3.479373,-0.000006,0,0,-3.479373,3.479373,-0.000006,0.000013,0,0.000004,0.000052,-1,0,0,0
session_20260402_133209,C:/Users/josh_fleming/AppData/LocalLow/DefaultCompany/DJI Drone Sim\BenchmarkRuns\session_20260402_133209,20260402_133249_run005,5,lateral_left,lateral_left,4,Normal,input,1.5,1,1.5,104,2.099998,-1.129684,1.959127,40,-3.537023,-0.000005,0,0,-3.537023,3.537023,-0.000005,0.000012,0,0.000004,0,-1,0,0,0
session_20260402_133209,C:/Users/josh_fleming/AppData/LocalLow/DefaultCompany/DJI Drone Sim\BenchmarkRuns\session_20260402_133209,20260402_133249_run005,5,lateral_left,lateral_left,4,Normal,input,1.5,1,1.5,105,2.119998,-1.201485,1.959126,40,-3.590061,-0.000005,0.000001,0,-3.590061,3.590061,-0.000005,0.000011,0,0.000003,0,-1,0,0,0
session_20260402_133209,C:/Users/josh_fleming/AppData/LocalLow/DefaultCompany/DJI Drone Sim\BenchmarkRuns\session_20260402_133209,20260402_133249_run005,5,lateral_left,lateral_left,4,Normal,input,1.5,1,1.5,106,2.139998,-1.274262,1.959127,40,-3.638856,-0.000004,0.000001,0,-3.638856,3.638856,-0.000004,0.00001,0,0.000002,0,-1,0,0,0
session_20260402_133209,C:/Users/josh_fleming/AppData/LocalLow/DefaultCompany/DJI Drone Sim\BenchmarkRuns\session_20260402_133209,20260402_133249_run005,5,lateral_left,lateral_left,4,Normal,input,1.5,1,1.5,107,2.159998,-1.347937,1.959126,40,-3.683748,-0.000004,0.000001,0,-3.683748,3.683748,-0.000004,0.00001,0,0.000004,0,-1,0,0,0
session_20260402_133209,C:/Users/josh_fleming/AppData/LocalLow/DefaultCompany/DJI Drone Sim\BenchmarkRuns\session_20260402_133209,20260402_133249_run005,5,lateral_left,lateral_left,4,Normal,input,1.5,1,1.5,108,2.179998,-1.422438,1.959126,40,-3.725048,-0.000004,0.000001,0,-3.725048,3.725048,-0.000004,0.000009,0,0.000006,0,-1,0,0,0
session_20260402_133209,C:/Users/josh_fleming/AppData/LocalLow/DefaultCompany/DJI Drone Sim\BenchmarkRuns\session_20260402_133209,20260402_133249_run005,5,lateral_left,lateral_left,4,Normal,input,1.5,1,1.5,109,2.199998,-1.497699,1.959126,40,-3.763044,-0.000003,0.000001,0,-3.763044,3.763044,-0.000003,0.000009,0,0.000006,0.000013,-1,0,0,0
session_20260402_133209,C:/Users/josh_fleming/AppData/LocalLow/DefaultCompany/DJI Drone Sim\BenchmarkRuns\session_20260402_133209,20260402_133249_run005,5,lateral_left,lateral_left,4,Normal,input,1.5,1,1.5,110,2.219998,-1.573659,1.959126,40,-3.798,-0.000003,0.000001,0,-3.798,3.798,-0.000003,0.000009,0,0.000004,0.000009,-1,0,0,0
session_20260402_133209,C:/Users/josh_fleming/AppData/LocalLow/DefaultCompany/DJI Drone Sim\BenchmarkRuns\session_20260402_133209,20260402_133249_run005,5,lateral_left,lateral_left,4,Normal,input,1.5,1,1.5,111,2.239998,-1.650262,1.959126,40,-3.83016,-0.000003,0.000001,0,-3.83016,3.83016,-0.000003,0.000009,0,0.000003,0,-1,0,0,0
session_20260402_133209,C:/Users/josh_fleming/AppData/LocalLow/DefaultCompany/DJI Drone Sim\BenchmarkRuns\session_20260402_133209,20260402_133249_run005,5,lateral_left,lateral_left,4,Normal,input,1.5,1,1.5,112,2.259998,-1.727457,1.959126,40,-3.859747,-0.000002,0.000001,0,-3.859747,3.859747,-0.000002,0.000009,0,0.000003,0,-1,0,0,0
session_20260402_133209,C:/Users/josh_fleming/AppData/LocalLow/DefaultCompany/DJI Drone Sim\BenchmarkRuns\session_20260402_133209,20260402_133249_run005,5,lateral_left,lateral_left,4,Normal,input,1.5,1,1.5,113,2.279998,-1.805196,1.959126,40,-3.886968,-0.000002,0.000001,0,-3.886968,3.886968,-0.000002,0.000008,0,0.000005,0,-1,0,0,0
session_20260402_133209,C:/Users/josh_fleming/AppData/LocalLow/DefaultCompany/DJI Drone Sim\BenchmarkRuns\session_20260402_133209,20260402_133249_run005,5,lateral_left,lateral_left,4,Normal,input,1.5,1,1.5,114,2.299998,-1.883437,1.959126,40,-3.91201,-0.000002,0.000001,0,-3.91201,3.91201,-0.000002,0.000008,0,0.000006,0,-1,0,0,0
session_20260402_133209,C:/Users/josh_fleming/AppData/LocalLow/DefaultCompany/DJI Drone Sim\BenchmarkRuns\session_20260402_133209,20260402_133249_run005,5,lateral_left,lateral_left,4,Normal,input,1.5,1,1.5,115,2.319998,-1.962137,1.959126,40,-3.935049,-0.000002,0.000001,0,-3.935049,3.935049,-0.000002,0.000008,0,0.000005,0.000013,-1,0,0,0
session_20260402_133209,C:/Users/josh_fleming/AppData/LocalLow/DefaultCompany/DJI Drone Sim\BenchmarkRuns\session_20260402_133209,20260402_133249_run005,5,lateral_left,lateral_left,4,Normal,input,1.5,1,1.5,116,2.339998,-2.041262,1.959126,40,-3.956245,-0.000002,0.000001,0,-3.956245,3.956245,-0.000002,0.000008,0,0.000004,0,-1,0,0,0
session_20260402_133209,C:/Users/josh_fleming/AppData/LocalLow/DefaultCompany/DJI Drone Sim\BenchmarkRuns\session_20260402_133209,20260402_133249_run005,5,lateral_left,lateral_left,4,Normal,input,1.5,1,1.5,117,2.359998,-2.120777,1.959126,40,-3.975746,-0.000001,0.000001,0,-3.975746,3.975746,-0.000001,0.000007,0,0.000004,0,-1,0,0,0
session_20260402_133209,C:/Users/josh_fleming/AppData/LocalLow/DefaultCompany/DJI Drone Sim\BenchmarkRuns\session_20260402_133209,20260402_133249_run005,5,lateral_left,lateral_left,4,Normal,input,1.5,1,1.5,118,2.379998,-2.200651,1.959126,40,-3.993686,-0.000001,0.000001,0,-3.993686,3.993686,-0.000001,0.000007,0,0.000004,0,-1,0,0,0
session_20260402_133209,C:/Users/josh_fleming/AppData/LocalLow/DefaultCompany/DJI Drone Sim\BenchmarkRuns\session_20260402_133209,20260402_133249_run005,5,lateral_left,lateral_left,4,Normal,input,1.5,1,1.5,119,2.399998,-2.280855,1.959126,40,-4.010191,-0.000001,0.000001,0,-4.010191,4.010191,-0.000001,0.000007,0,0.000003,0,-1,0,0,0
session_20260402_133209,C:/Users/josh_fleming/AppData/LocalLow/DefaultCompany/DJI Drone Sim\BenchmarkRuns\session_20260402_133209,20260402_133249_run005,5,lateral_left,lateral_left,4,Normal,input,1.5,1,1.5,120,2.419998,-2.361362,1.959126,40,-4.025376,-0.000001,0.000001,0,-4.025376,4.025376,-0.000001,0.000007,0,0.000004,0.000017,-1,0,0,0
session_20260402_133209,C:/Users/josh_fleming/AppData/LocalLow/DefaultCompany/DJI Drone Sim\BenchmarkRuns\session_20260402_133209,20260402_133249_run005,5,lateral_left,lateral_left,4,Normal,input,1.5,1,1.5,121,2.439998,-2.442149,1.959126,40,-4.039346,-0.000001,0.000001,0,-4.039346,4.039346,-0.000001,0.000008,0,0.000005,0.000024,-1,0,0,0
session_20260402_133209,C:/Users/josh_fleming/AppData/LocalLow/DefaultCompany/DJI Drone Sim\BenchmarkRuns\session_20260402_133209,20260402_133249_run005,5,lateral_left,lateral_left,4,Normal,input,1.5,1,1.5,122,2.459998,-2.523193,1.959126,40,-4.052198,-0.000001,0.000001,0,-4.052198,4.052198,-0.000001,0.000008,0,0.000006,0.00002,-1,0,0,0
session_20260402_133209,C:/Users/josh_fleming/AppData/LocalLow/DefaultCompany/DJI Drone Sim\BenchmarkRuns\session_20260402_133209,20260402_133249_run005,5,lateral_left,lateral_left,4,Normal,input,1.5,1,1.5,123,2.479998,-2.604474,1.959126,40,-4.064022,-0.000001,0.000001,0,-4.064022,4.064022,-0.000001,0.000008,0,0.000007,0,-1,0,0,0
session_20260402_133209,C:/Users/josh_fleming/AppData/LocalLow/DefaultCompany/DJI Drone Sim\BenchmarkRuns\session_20260402_133209,20260402_133249_run005,5,lateral_left,lateral_left,4,Normal,input,1.5,1,1.5,124,2.499998,-2.685972,1.959126,40,-4.0749,-0.000001,0.000001,0,-4.0749,4.0749,-0.000001,0.000008,0,0.000007,0.000006,-1,0,0,0
session_20260402_133209,C:/Users/josh_fleming/AppData/LocalLow/DefaultCompany/DJI Drone Sim\BenchmarkRuns\session_20260402_133209,20260402_133249_run005,5,lateral_left,lateral_left,4,Normal,input,1.5,1,1.5,125,2.519998,-2.76767,1.959126,40,-4.084908,-0.000001,0.000001,0,-4.084908,4.084908,-0.000001,0.000008,0,0.000008,0.000001,-1,0,0,0
session_20260402_133209,C:/Users/josh_fleming/AppData/LocalLow/DefaultCompany/DJI Drone Sim\BenchmarkRuns\session_20260402_133209,20260402_133249_run005,5,lateral_left,lateral_left,4,Normal,input,1.5,1,1.5,126,2.539998,-2.849552,1.959126,40,-4.094115,0,0.000001,0,-4.094115,4.094115,0,0.000008,0,0.000008,0.000003,-1,0,0,0
session_20260402_133209,C:/Users/josh_fleming/AppData/LocalLow/DefaultCompany/DJI Drone Sim\BenchmarkRuns\session_20260402_133209,20260402_133249_run005,5,lateral_left,lateral_left,4,Normal,settle,1.5,1,1.5,127,2.559998,-2.931604,1.959126,40,-4.102586,0,0.000001,0,-4.102586,4.102586,0,0.000008,0,0.000008,0,0,0,0,0
session_20260402_133209,C:/Users/josh_fleming/AppData/LocalLow/DefaultCompany/DJI Drone Sim\BenchmarkRuns\session_20260402_133209,20260402_133249_run005,5,lateral_left,lateral_left,4,Normal,settle,1.5,1,1.5,128,2.579998,-3.013811,1.959126,40,-4.110379,0,0.000001,0,-4.110379,4.110379,0,0.000008,0,0.000008,0,0,0,0,0
session_20260402_133209,C:/Users/josh_fleming/AppData/LocalLow/DefaultCompany/DJI Drone Sim\BenchmarkRuns\session_20260402_133209,20260402_133249_run005,5,lateral_left,lateral_left,4,Normal,settle,1.5,1,1.5,129,2.599998,-3.092819,1.959126,40,-3.950379,0,0.000001,0,-3.950379,3.950379,0,0.000008,0,0.000008,0.000022,0,0,0,0
session_20260402_133209,C:/Users/josh_fleming/AppData/LocalLow/DefaultCompany/DJI Drone Sim\BenchmarkRuns\session_20260402_133209,20260402_133249_run005,5,lateral_left,lateral_left,4,Normal,settle,1.5,1,1.5,130,2.619998,-3.168627,1.959126,40,-3.790379,0,0.000001,0,-3.790379,3.790379,0,0.000008,0,0.000008,0,0,0,0,0
session_20260402_133209,C:/Users/josh_fleming/AppData/LocalLow/DefaultCompany/DJI Drone Sim\BenchmarkRuns\session_20260402_133209,20260402_133249_run005,5,lateral_left,lateral_left,4,Normal,settle,1.5,1,1.5,131,2.639998,-3.241234,1.959126,40,-3.630379,0,0.000001,0,-3.630379,3.630379,0,0.000008,0,0.000009,0,0,0,0,0
session_20260402_133209,C:/Users/josh_fleming/AppData/LocalLow/DefaultCompany/DJI Drone Sim\BenchmarkRuns\session_20260402_133209,20260402_133249_run005,5,lateral_left,lateral_left,4,Normal,settle,1.5,1,1.5,132,2.659998,-3.310642,1.959126,40,-3.470379,0,0,0,-3.470379,3.470379,0,0.000007,0,0.000005,0,0,0,0,0
session_20260402_133209,C:/Users/josh_fleming/AppData/LocalLow/DefaultCompany/DJI Drone Sim\BenchmarkRuns\session_20260402_133209,20260402_133249_run005,5,lateral_left,lateral_left,4,Normal,settle,1.5,1,1.5,133,2.679998,-3.376849,1.959126,40,-3.31038,0,0,0,-3.31038,3.31038,0,0.000006,0,0.000005,0,0,0,0,0
session_20260402_133209,C:/Users/josh_fleming/AppData/LocalLow/DefaultCompany/DJI Drone Sim\BenchmarkRuns\session_20260402_133209,20260402_133249_run005,5,lateral_left,lateral_left,4,Normal,settle,1.5,1,1.5,134,2.699998,-3.439857,1.959126,40,-3.15038,0,0,0,-3.15038,3.15038,0,0.000005,0,0.000003,0,0,0,0,0
session_20260402_133209,C:/Users/josh_fleming/AppData/LocalLow/DefaultCompany/DJI Drone Sim\BenchmarkRuns\session_20260402_133209,20260402_133249_run005,5,lateral_left,lateral_left,4,Normal,settle,1.5,1,1.5,135,2.719998,-3.499665,1.959126,40,-2.99038,0,0,0,-2.99038,2.99038,0,0.000004,0,0.000009,0,0,0,0,0
session_20260402_133209,C:/Users/josh_fleming/AppData/LocalLow/DefaultCompany/DJI Drone Sim\BenchmarkRuns\session_20260402_133209,20260402_133249_run005,5,lateral_left,lateral_left,4,Normal,settle,1.5,1,1.5,136,2.739998,-3.556273,1.959126,40,-2.83038,0,0,0,-2.83038,2.83038,0,0.000003,0,0.000009,0,0,0,0,0
session_20260402_133209,C:/Users/josh_fleming/AppData/LocalLow/DefaultCompany/DJI Drone Sim\BenchmarkRuns\session_20260402_133209,20260402_133249_run005,5,lateral_left,lateral_left,4,Normal,settle,1.5,1,1.5,137,2.759998,-3.60968,1.959126,40,-2.67038,0,0,0,-2.67038,2.67038,0,0.000002,0,0.000009,0,0,0,0,0
session_20260402_133209,C:/Users/josh_fleming/AppData/LocalLow/DefaultCompany/DJI Drone Sim\BenchmarkRuns\session_20260402_133209,20260402_133249_run005,5,lateral_left,lateral_left,4,Normal,settle,1.5,1,1.5,138,2.779998,-3.659888,1.959126,40,-2.51038,0,0,0,-2.51038,2.51038,0,0,0,0.000008,0,0,0,0,0
session_20260402_133209,C:/Users/josh_fleming/AppData/LocalLow/DefaultCompany/DJI Drone Sim\BenchmarkRuns\session_20260402_133209,20260402_133249_run005,5,lateral_left,lateral_left,4,Normal,settle,1.5,1,1.5,139,2.799998,-3.706895,1.959126,40,-2.35038,0,0,0,-2.35038,2.35038,0,0,0,0.000007,0,0,0,0,0
session_20260402_133209,C:/Users/josh_fleming/AppData/LocalLow/DefaultCompany/DJI Drone Sim\BenchmarkRuns\session_20260402_133209,20260402_133249_run005,5,lateral_left,lateral_left,4,Normal,settle,1.5,1,1.5,140,2.819998,-3.750703,1.959126,40,-2.190381,0,0,0,-2.190381,2.190381,0,0,0,0.000003,0,0,0,0,0
session_20260402_133209,C:/Users/josh_fleming/AppData/LocalLow/DefaultCompany/DJI Drone Sim\BenchmarkRuns\session_20260402_133209,20260402_133249_run005,5,lateral_left,lateral_left,4,Normal,settle,1.5,1,1.5,141,2.839998,-3.791311,1.959126,40,-2.030381,0,0,0,-2.030381,2.030381,0,0,0,0.000004,0,0,0,0,0
session_20260402_133209,C:/Users/josh_fleming/AppData/LocalLow/DefaultCompany/DJI Drone Sim\BenchmarkRuns\session_20260402_133209,20260402_133249_run005,5,lateral_left,lateral_left,4,Normal,settle,1.5,1,1.5,142,2.859998,-3.828718,1.959126,40,-1.870381,0,0,0,-1.870381,1.870381,0,0,0,0.000003,0,0,0,0,0
session_20260402_133209,C:/Users/josh_fleming/AppData/LocalLow/DefaultCompany/DJI Drone Sim\BenchmarkRuns\session_20260402_133209,20260402_133249_run005,5,lateral_left,lateral_left,4,Normal,settle,1.5,1,1.5,143,2.879997,-3.862926,1.959126,40,-1.710381,0,0,0,-1.710381,1.710381,0,0,0,0.000003,0,0,0,0,0
session_20260402_133209,C:/Users/josh_fleming/AppData/LocalLow/DefaultCompany/DJI Drone Sim\BenchmarkRuns\session_20260402_133209,20260402_133249_run005,5,lateral_left,lateral_left,4,Normal,settle,1.5,1,1.5,144,2.899997,-3.893933,1.959126,40,-1.550381,0,0,0,-1.550381,1.550381,0,0,0,0.000003,0,0,0,0,0
session_20260402_133209,C:/Users/josh_fleming/AppData/LocalLow/DefaultCompany/DJI Drone Sim\BenchmarkRuns\session_20260402_133209,20260402_133249_run005,5,lateral_left,lateral_left,4,Normal,settle,1.5,1,1.5,145,2.919997,-3.921741,1.959126,40,-1.390381,0,0,0,-1.390381,1.390381,0,0,0,0.000002,0,0,0,0,0
session_20260402_133209,C:/Users/josh_fleming/AppData/LocalLow/DefaultCompany/DJI Drone Sim\BenchmarkRuns\session_20260402_133209,20260402_133249_run005,5,lateral_left,lateral_left,4,Normal,settle,1.5,1,1.5,146,2.939997,-3.946349,1.959127,40,-1.230381,0,0,0,-1.230381,1.230381,0,0,0,0.000002,0,0,0,0,0
session_20260402_133209,C:/Users/josh_fleming/AppData/LocalLow/DefaultCompany/DJI Drone Sim\BenchmarkRuns\session_20260402_133209,20260402_133249_run005,5,lateral_left,lateral_left,4,Normal,settle,1.5,1,1.5,147,2.959997,-3.968053,1.959127,40,-1.085196,0,0,0,-1.085196,1.085196,0,0,0,0,0,0,0,0,0
session_20260402_133209,C:/Users/josh_fleming/AppData/LocalLow/DefaultCompany/DJI Drone Sim\BenchmarkRuns\session_20260402_133209,20260402_133249_run005,5,lateral_left,lateral_left,4,Normal,settle,1.5,1,1.5,148,2.979997,-3.987195,1.959127,40,-0.957143,0,0,0,-0.957143,0.957143,0,0,0,0,0,0,0,0,0
session_20260402_133209,C:/Users/josh_fleming/AppData/LocalLow/DefaultCompany/DJI Drone Sim\BenchmarkRuns\session_20260402_133209,20260402_133249_run005,5,lateral_left,lateral_left,4,Normal,settle,1.5,1,1.5,149,2.999997,-4.00408,1.959127,40,-0.8442,0,0,0,-0.8442,0.8442,0,0,0,0,0,0,0,0,0
session_20260402_133209,C:/Users/josh_fleming/AppData/LocalLow/DefaultCompany/DJI Drone Sim\BenchmarkRuns\session_20260402_133209,20260402_133249_run005,5,lateral_left,lateral_left,4,Normal,settle,1.5,1,1.5,150,3.019997,-4.018971,1.959127,40,-0.744585,0,0,0,-0.744585,0.744585,0,0,0,0,0,0,0,0,0
session_20260402_133209,C:/Users/josh_fleming/AppData/LocalLow/DefaultCompany/DJI Drone Sim\BenchmarkRuns\session_20260402_133209,20260402_133249_run005,5,lateral_left,lateral_left,4,Normal,settle,1.5,1,1.5,151,3.039997,-4.032106,1.959127,40,-0.656724,0,0,0,-0.656724,0.656724,0,0,0,0,0,0,0,0,0
session_20260402_133209,C:/Users/josh_fleming/AppData/LocalLow/DefaultCompany/DJI Drone Sim\BenchmarkRuns\session_20260402_133209,20260402_133249_run005,5,lateral_left,lateral_left,4,Normal,settle,1.5,1,1.5,152,3.059997,-4.043691,1.959127,40,-0.57923,0,0,0,-0.57923,0.57923,0,0,0,0.000001,0,0,0,0,0
session_20260402_133209,C:/Users/josh_fleming/AppData/LocalLow/DefaultCompany/DJI Drone Sim\BenchmarkRuns\session_20260402_133209,20260402_133249_run005,5,lateral_left,lateral_left,4,Normal,settle,1.5,1,1.5,153,3.079997,-4.053908,1.959127,40,-0.510881,0,0,0,-0.510881,0.510881,0,0,0,0,0,0,0,0,0
session_20260402_133209,C:/Users/josh_fleming/AppData/LocalLow/DefaultCompany/DJI Drone Sim\BenchmarkRuns\session_20260402_133209,20260402_133249_run005,5,lateral_left,lateral_left,4,Normal,settle,1.5,1,1.5,154,3.099997,-4.06292,1.959127,40,-0.450597,0,0,0,-0.450597,0.450597,0,0,0,0.000001,0,0,0,0,0
session_20260402_133209,C:/Users/josh_fleming/AppData/LocalLow/DefaultCompany/DJI Drone Sim\BenchmarkRuns\session_20260402_133209,20260402_133249_run005,5,lateral_left,lateral_left,4,Normal,settle,1.5,1,1.5,155,3.119997,-4.070868,1.959127,40,-0.397427,0,0,0,-0.397427,0.397427,0,0,0,0,0,0,0,0,0
session_20260402_133209,C:/Users/josh_fleming/AppData/LocalLow/DefaultCompany/DJI Drone Sim\BenchmarkRuns\session_20260402_133209,20260402_133249_run005,5,lateral_left,lateral_left,4,Normal,settle,1.5,1,1.5,156,3.139997,-4.077879,1.959127,40,-0.35053,0,0,0,-0.35053,0.35053,0,0,0,0,0,0,0,0,0
session_20260402_133209,C:/Users/josh_fleming/AppData/LocalLow/DefaultCompany/DJI Drone Sim\BenchmarkRuns\session_20260402_133209,20260402_133249_run005,5,lateral_left,lateral_left,4,Normal,settle,1.5,1,1.5,157,3.159997,-4.084062,1.959127,40,-0.309168,0,0,0,-0.309168,0.309168,0,0,0,0,0,0,0,0,0
session_20260402_133209,C:/Users/josh_fleming/AppData/LocalLow/DefaultCompany/DJI Drone Sim\BenchmarkRuns\session_20260402_133209,20260402_133249_run005,5,lateral_left,lateral_left,4,Normal,settle,1.5,1,1.5,158,3.179997,-4.089516,1.959127,40,-0.272686,0,0,0,-0.272686,0.272686,0,0,0,0,0,0,0,0,0
session_20260402_133209,C:/Users/josh_fleming/AppData/LocalLow/DefaultCompany/DJI Drone Sim\BenchmarkRuns\session_20260402_133209,20260402_133249_run005,5,lateral_left,lateral_left,4,Normal,settle,1.5,1,1.5,159,3.199997,-4.094326,1.959127,40,-0.240509,0,0,0,-0.240509,0.240509,0,0,0,0,0,0,0,0,0
session_20260402_133209,C:/Users/josh_fleming/AppData/LocalLow/DefaultCompany/DJI Drone Sim\BenchmarkRuns\session_20260402_133209,20260402_133249_run005,5,lateral_left,lateral_left,4,Normal,settle,1.5,1,1.5,160,3.219997,-4.098568,1.959127,40,-0.212129,0,0,0,-0.212129,0.212129,0,0,0,0,0,0,0,0,0
session_20260402_133209,C:/Users/josh_fleming/AppData/LocalLow/DefaultCompany/DJI Drone Sim\BenchmarkRuns\session_20260402_133209,20260402_133249_run005,5,lateral_left,lateral_left,4,Normal,settle,1.5,1,1.5,161,3.239997,-4.10231,1.959127,40,-0.187098,0,0,0,-0.187098,0.187098,0,0,0,0,0,0,0,0,0
session_20260402_133209,C:/Users/josh_fleming/AppData/LocalLow/DefaultCompany/DJI Drone Sim\BenchmarkRuns\session_20260402_133209,20260402_133249_run005,5,lateral_left,lateral_left,4,Normal,settle,1.5,1,1.5,162,3.259997,-4.10561,1.959127,40,-0.16502,0,0,0,-0.16502,0.16502,0,0,0,0,0,0,0,0,0
session_20260402_133209,C:/Users/josh_fleming/AppData/LocalLow/DefaultCompany/DJI Drone Sim\BenchmarkRuns\session_20260402_133209,20260402_133249_run005,5,lateral_left,lateral_left,4,Normal,settle,1.5,1,1.5,163,3.279997,-4.108521,1.959127,40,-0.145548,0,0,0,-0.145548,0.145548,0,0,0,0,0,0,0,0,0
session_20260402_133209,C:/Users/josh_fleming/AppData/LocalLow/DefaultCompany/DJI Drone Sim\BenchmarkRuns\session_20260402_133209,20260402_133249_run005,5,lateral_left,lateral_left,4,Normal,settle,1.5,1,1.5,164,3.299997,-4.111089,1.959127,40,-0.128373,0,0,0,-0.128373,0.128373,0,0,0,0,0,0,0,0,0
session_20260402_133209,C:/Users/josh_fleming/AppData/LocalLow/DefaultCompany/DJI Drone Sim\BenchmarkRuns\session_20260402_133209,20260402_133249_run005,5,lateral_left,lateral_left,4,Normal,settle,1.5,1,1.5,165,3.319997,-4.113353,1.959127,40,-0.113225,0,0,0,-0.113225,0.113225,0,0,0,0,0,0,0,0,0
session_20260402_133209,C:/Users/josh_fleming/AppData/LocalLow/DefaultCompany/DJI Drone Sim\BenchmarkRuns\session_20260402_133209,20260402_133249_run005,5,lateral_left,lateral_left,4,Normal,settle,1.5,1,1.5,166,3.339997,-4.115351,1.959127,40,-0.099865,0,0,0,-0.099865,0.099865,0,0,0,0,0,0,0,0,0
session_20260402_133209,C:/Users/josh_fleming/AppData/LocalLow/DefaultCompany/DJI Drone Sim\BenchmarkRuns\session_20260402_133209,20260402_133249_run005,5,lateral_left,lateral_left,4,Normal,settle,1.5,1,1.5,167,3.359997,-4.117112,1.959127,40,-0.088081,0,0,0,-0.088081,0.088081,0,0,0,0,0,0,0,0,0
session_20260402_133209,C:/Users/josh_fleming/AppData/LocalLow/DefaultCompany/DJI Drone Sim\BenchmarkRuns\session_20260402_133209,20260402_133249_run005,5,lateral_left,lateral_left,4,Normal,settle,1.5,1,1.5,168,3.379997,-4.118666,1.959127,40,-0.077687,0,0,0,-0.077687,0.077687,0,0,0,0,0,0,0,0,0
session_20260402_133209,C:/Users/josh_fleming/AppData/LocalLow/DefaultCompany/DJI Drone Sim\BenchmarkRuns\session_20260402_133209,20260402_133249_run005,5,lateral_left,lateral_left,4,Normal,settle,1.5,1,1.5,169,3.399997,-4.120036,1.959127,40,-0.06852,0,0,0,-0.06852,0.06852,0,0,0,0,0,0,0,0,0
session_20260402_133209,C:/Users/josh_fleming/AppData/LocalLow/DefaultCompany/DJI Drone Sim\BenchmarkRuns\session_20260402_133209,20260402_133249_run005,5,lateral_left,lateral_left,4,Normal,settle,1.5,1,1.5,170,3.419997,-4.121245,1.959127,40,-0.060435,0,0,0,-0.060435,0.060435,0,0,0,0,0,0,0,0,0
session_20260402_133209,C:/Users/josh_fleming/AppData/LocalLow/DefaultCompany/DJI Drone Sim\BenchmarkRuns\session_20260402_133209,20260402_133249_run005,5,lateral_left,lateral_left,4,Normal,settle,1.5,1,1.5,171,3.439997,-4.122311,1.959127,40,-0.053303,0,0,0,-0.053303,0.053303,0,0,0,0,0,0,0,0,0
session_20260402_133209,C:/Users/josh_fleming/AppData/LocalLow/DefaultCompany/DJI Drone Sim\BenchmarkRuns\session_20260402_133209,20260402_133249_run005,5,lateral_left,lateral_left,4,Normal,settle,1.5,1,1.5,172,3.459997,-4.123251,1.959127,40,-0.047014,0,0,0,-0.047014,0.047014,0,0,0,0,0,0,0,0,0
session_20260402_133209,C:/Users/josh_fleming/AppData/LocalLow/DefaultCompany/DJI Drone Sim\BenchmarkRuns\session_20260402_133209,20260402_133249_run005,5,lateral_left,lateral_left,4,Normal,settle,1.5,1,1.5,173,3.479997,-4.124081,1.959127,40,-0.041466,0,0,0,-0.041466,0.041466,0,0,0,0,0,0,0,0,0
session_20260402_133209,C:/Users/josh_fleming/AppData/LocalLow/DefaultCompany/DJI Drone Sim\BenchmarkRuns\session_20260402_133209,20260402_133249_run005,5,lateral_left,lateral_left,4,Normal,settle,1.5,1,1.5,174,3.499997,-4.124812,1.959127,40,-0.036573,0,0,0,-0.036573,0.036573,0,0,0,0,0,0,0,0,0
session_20260402_133209,C:/Users/josh_fleming/AppData/LocalLow/DefaultCompany/DJI Drone Sim\BenchmarkRuns\session_20260402_133209,20260402_133249_run005,5,lateral_left,lateral_left,4,Normal,settle,1.5,1,1.5,175,3.519997,-4.125457,1.959127,40,-0.032257,0,0,0,-0.032257,0.032257,0,0,0,0,0,0,0,0,0
session_20260402_133209,C:/Users/josh_fleming/AppData/LocalLow/DefaultCompany/DJI Drone Sim\BenchmarkRuns\session_20260402_133209,20260402_133249_run005,5,lateral_left,lateral_left,4,Normal,settle,1.5,1,1.5,176,3.539997,-4.126026,1.959127,40,-0.028451,0,0,0,-0.028451,0.028451,0,0,0,0,0,0,0,0,0
session_20260402_133209,C:/Users/josh_fleming/AppData/LocalLow/DefaultCompany/DJI Drone Sim\BenchmarkRuns\session_20260402_133209,20260402_133249_run005,5,lateral_left,lateral_left,4,Normal,settle,1.5,1,1.5,177,3.559997,-4.126528,1.959127,40,-0.025094,0,0,0,-0.025094,0.025094,0,0,0,0,0,0,0,0,0
session_20260402_133209,C:/Users/josh_fleming/AppData/LocalLow/DefaultCompany/DJI Drone Sim\BenchmarkRuns\session_20260402_133209,20260402_133249_run005,5,lateral_left,lateral_left,4,Normal,settle,1.5,1,1.5,178,3.579997,-4.126971,1.959127,40,-0.022133,0,0,0,-0.022133,0.022133,0,0,0,0,0,0,0,0,0
session_20260402_133209,C:/Users/josh_fleming/AppData/LocalLow/DefaultCompany/DJI Drone Sim\BenchmarkRuns\session_20260402_133209,20260402_133249_run005,5,lateral_left,lateral_left,4,Normal,settle,1.5,1,1.5,179,3.599997,-4.127361,1.959127,40,-0.019521,0,0,0,-0.019521,0.019521,0,0,0,0,0,0,0,0,0
session_20260402_133209,C:/Users/josh_fleming/AppData/LocalLow/DefaultCompany/DJI Drone Sim\BenchmarkRuns\session_20260402_133209,20260402_133249_run005,5,lateral_left,lateral_left,4,Normal,settle,1.5,1,1.5,180,3.619997,-4.127706,1.959127,40,-0.017218,0,0,0,-0.017218,0.017218,0,0,0,0,0,0,0,0,0
session_20260402_133209,C:/Users/josh_fleming/AppData/LocalLow/DefaultCompany/DJI Drone Sim\BenchmarkRuns\session_20260402_133209,20260402_133249_run005,5,lateral_left,lateral_left,4,Normal,settle,1.5,1,1.5,181,3.639997,-4.128009,1.959127,40,-0.015186,0,0,0,-0.015186,0.015186,0,0,0,0,0,0,0,0,0
session_20260402_133209,C:/Users/josh_fleming/AppData/LocalLow/DefaultCompany/DJI Drone Sim\BenchmarkRuns\session_20260402_133209,20260402_133249_run005,5,lateral_left,lateral_left,4,Normal,settle,1.5,1,1.5,182,3.659997,-4.128277,1.959127,40,-0.013394,0,0,0,-0.013394,0.013394,0,0,0,0,0,0,0,0,0
session_20260402_133209,C:/Users/josh_fleming/AppData/LocalLow/DefaultCompany/DJI Drone Sim\BenchmarkRuns\session_20260402_133209,20260402_133249_run005,5,lateral_left,lateral_left,4,Normal,settle,1.5,1,1.5,183,3.679997,-4.128513,1.959127,40,-0.011813,0,0,0,-0.011813,0.011813,0,0,0,0,0,0,0,0,0
session_20260402_133209,C:/Users/josh_fleming/AppData/LocalLow/DefaultCompany/DJI Drone Sim\BenchmarkRuns\session_20260402_133209,20260402_133249_run005,5,lateral_left,lateral_left,4,Normal,settle,1.5,1,1.5,184,3.699997,-4.128722,1.959127,40,-0.010419,0,0,0,-0.010419,0.010419,0,0,0,0,0,0,0,0,0
session_20260402_133209,C:/Users/josh_fleming/AppData/LocalLow/DefaultCompany/DJI Drone Sim\BenchmarkRuns\session_20260402_133209,20260402_133249_run005,5,lateral_left,lateral_left,4,Normal,settle,1.5,1,1.5,185,3.719997,-4.128905,1.959127,40,-0.00919,0,0,0,-0.00919,0.00919,0,0,0,0,0,0,0,0,0
session_20260402_133209,C:/Users/josh_fleming/AppData/LocalLow/DefaultCompany/DJI Drone Sim\BenchmarkRuns\session_20260402_133209,20260402_133249_run005,5,lateral_left,lateral_left,4,Normal,settle,1.5,1,1.5,186,3.739997,-4.129067,1.959127,40,-0.008106,0,0,0,-0.008106,0.008106,0,0,0,0,0,0,0,0,0
session_20260402_133209,C:/Users/josh_fleming/AppData/LocalLow/DefaultCompany/DJI Drone Sim\BenchmarkRuns\session_20260402_133209,20260402_133249_run005,5,lateral_left,lateral_left,4,Normal,settle,1.5,1,1.5,187,3.759997,-4.12921,1.959127,40,-0.007149,0,0,0,-0.007149,0.007149,0,0,0,0,0,0,0,0,0
session_20260402_133209,C:/Users/josh_fleming/AppData/LocalLow/DefaultCompany/DJI Drone Sim\BenchmarkRuns\session_20260402_133209,20260402_133249_run005,5,lateral_left,lateral_left,4,Normal,settle,1.5,1,1.5,188,3.779997,-4.129336,1.959127,40,-0.006306,0,0,0,-0.006306,0.006306,0,0,0,0,0,0,0,0,0
session_20260402_133209,C:/Users/josh_fleming/AppData/LocalLow/DefaultCompany/DJI Drone Sim\BenchmarkRuns\session_20260402_133209,20260402_133249_run005,5,lateral_left,lateral_left,4,Normal,settle,1.5,1,1.5,189,3.799997,-4.129447,1.959127,40,-0.005561,0,0,0,-0.005561,0.005561,0,0,0,0,0,0,0,0,0
session_20260402_133209,C:/Users/josh_fleming/AppData/LocalLow/DefaultCompany/DJI Drone Sim\BenchmarkRuns\session_20260402_133209,20260402_133249_run005,5,lateral_left,lateral_left,4,Normal,settle,1.5,1,1.5,190,3.819997,-4.129546,1.959127,40,-0.004905,0,0,0,-0.004905,0.004905,0,0,0,0,0,0,0,0,0
session_20260402_133209,C:/Users/josh_fleming/AppData/LocalLow/DefaultCompany/DJI Drone Sim\BenchmarkRuns\session_20260402_133209,20260402_133249_run005,5,lateral_left,lateral_left,4,Normal,settle,1.5,1,1.5,191,3.839997,-4.129632,1.959127,40,-0.004326,0,0,0,-0.004326,0.004326,0,0,0,0,0,0,0,0,0
session_20260402_133209,C:/Users/josh_fleming/AppData/LocalLow/DefaultCompany/DJI Drone Sim\BenchmarkRuns\session_20260402_133209,20260402_133249_run005,5,lateral_left,lateral_left,4,Normal,settle,1.5,1,1.5,192,3.859997,-4.129708,1.959127,40,-0.003816,0,0,0,-0.003816,0.003816,0,0,0,0,0,0,0,0,0
session_20260402_133209,C:/Users/josh_fleming/AppData/LocalLow/DefaultCompany/DJI Drone Sim\BenchmarkRuns\session_20260402_133209,20260402_133249_run005,5,lateral_left,lateral_left,4,Normal,settle,1.5,1,1.5,193,3.879997,-4.129776,1.959127,40,-0.003366,0,0,0,-0.003366,0.003366,0,0,0,0,0,0,0,0,0
session_20260402_133209,C:/Users/josh_fleming/AppData/LocalLow/DefaultCompany/DJI Drone Sim\BenchmarkRuns\session_20260402_133209,20260402_133249_run005,5,lateral_left,lateral_left,4,Normal,settle,1.5,1,1.5,194,3.899997,-4.129835,1.959127,40,-0.002968,0,0,0,-0.002968,0.002968,0,0,0,0,0,0,0,0,0
session_20260402_133209,C:/Users/josh_fleming/AppData/LocalLow/DefaultCompany/DJI Drone Sim\BenchmarkRuns\session_20260402_133209,20260402_133249_run005,5,lateral_left,lateral_left,4,Normal,settle,1.5,1,1.5,195,3.919997,-4.129888,1.959127,40,-0.002618,0,0,0,-0.002618,0.002618,0,0,0,0,0,0,0,0,0
session_20260402_133209,C:/Users/josh_fleming/AppData/LocalLow/DefaultCompany/DJI Drone Sim\BenchmarkRuns\session_20260402_133209,20260402_133249_run005,5,lateral_left,lateral_left,4,Normal,settle,1.5,1,1.5,196,3.939996,-4.129934,1.959127,40,-0.002309,0,0,0,-0.002309,0.002309,0,0,0,0.000001,0,0,0,0,0
session_20260402_133209,C:/Users/josh_fleming/AppData/LocalLow/DefaultCompany/DJI Drone Sim\BenchmarkRuns\session_20260402_133209,20260402_133249_run005,5,lateral_left,lateral_left,4,Normal,settle,1.5,1,1.5,197,3.959996,-4.129974,1.959127,40,-0.002037,0,0,0,-0.002037,0.002037,0,0,0,0.000001,0,0,0,0,0
session_20260402_133209,C:/Users/josh_fleming/AppData/LocalLow/DefaultCompany/DJI Drone Sim\BenchmarkRuns\session_20260402_133209,20260402_133249_run005,5,lateral_left,lateral_left,4,Normal,settle,1.5,1,1.5,198,3.979996,-4.13001,1.959127,40,-0.001796,0,0,0,-0.001796,0.001796,0,0,0,0.000001,0,0,0,0,0
session_20260402_133209,C:/Users/josh_fleming/AppData/LocalLow/DefaultCompany/DJI Drone Sim\BenchmarkRuns\session_20260402_133209,20260402_133249_run005,5,lateral_left,lateral_left,4,Normal,settle,1.5,1,1.5,199,3.999996,-4.130042,1.959127,40,-0.001584,0,0,0,-0.001584,0.001584,0,0,0,0.000001,0,0,0,0,0
