session_id,session_dir,run_label,run_number,maneuver_name,protocol_category,protocol_order,maneuver_mode,benchmark_phase,maneuver_preroll_s,maneuver_duration_s,maneuver_settle_s,sample_index,time_s,pos_x_m,pos_y_m,pos_z_m,vel_x_mps,vel_y_mps,vel_z_mps,forward_speed_mps,lateral_speed_mps,horizontal_speed_mps,vertical_speed_mps,yaw_deg,pitch_deg,roll_deg,yaw_rate_degps,input_roll,input_pitch,input_throttle,input_yaw
session_20260402_133209,C:/Users/josh_fleming/AppData/LocalLow/DefaultCompany/DJI Drone Sim\BenchmarkRuns\session_20260402_133209,20260402_133253_run006,6,climb,climb,5,Normal,preroll,1.5,1,1.5,0,0.02,0,1.996076,40,0,-0.1962,0,0,0,0,-0.1962,0,0,0,0,0,0,0,0
session_20260402_133209,C:/Users/josh_fleming/AppData/LocalLow/DefaultCompany/DJI Drone Sim\BenchmarkRuns\session_20260402_133209,20260402_133253_run006,6,climb,climb,5,Normal,preroll,1.5,1,1.5,1,0.04,0,1.992529,40,0,-0.177365,0,0,0,0,-0.177365,0,0,0,0,0,0,0,0
session_20260402_133209,C:/Users/josh_fleming/AppData/LocalLow/DefaultCompany/DJI Drone Sim\BenchmarkRuns\session_20260402_133209,20260402_133253_run006,6,climb,climb,5,Normal,preroll,1.5,1,1.5,2,0.06,0,1.989322,40,0,-0.160338,0,0,0,0,-0.160338,0,0,0,0,0,0,0,0
session_20260402_133209,C:/Users/josh_fleming/AppData/LocalLow/DefaultCompany/DJI Drone Sim\BenchmarkRuns\session_20260402_133209,20260402_133253_run006,6,climb,climb,5,Normal,preroll,1.5,1,1.5,3,0.08,0,1.986423,40,0,-0.144945,0,0,0,0,-0.144945,0,0,0,0,0,0,0,0
session_20260402_133209,C:/Users/josh_fleming/AppData/LocalLow/DefaultCompany/DJI Drone Sim\BenchmarkRuns\session_20260402_133209,20260402_133253_run006,6,climb,climb,5,Normal,preroll,1.5,1,1.5,4,0.1,0,1.983802,40,0,-0.131031,0,0,0,0,-0.131031,0,0,0,0,0,0,0,0
session_20260402_133209,C:/Users/josh_fleming/AppData/LocalLow/DefaultCompany/DJI Drone Sim\BenchmarkRuns\session_20260402_133209,20260402_133253_run006,6,climb,climb,5,Normal,preroll,1.5,1,1.5,5,0.12,0,1.981433,40,0,-0.118452,0,0,0,0,-0.118452,0,0,0,0,0,0,0,0
session_20260402_133209,C:/Users/josh_fleming/AppData/LocalLow/DefaultCompany/DJI Drone Sim\BenchmarkRuns\session_20260402_133209,20260402_133253_run006,6,climb,climb,5,Normal,preroll,1.5,1,1.5,6,0.14,0,1.979292,40,0,-0.10708,0,0,0,0,-0.10708,0,0,0,0,0,0,0,0
session_20260402_133209,C:/Users/josh_fleming/AppData/LocalLow/DefaultCompany/DJI Drone Sim\BenchmarkRuns\session_20260402_133209,20260402_133253_run006,6,climb,climb,5,Normal,preroll,1.5,1,1.5,7,0.16,0,1.977356,40,0,-0.0968,0,0,0,0,-0.0968,0,0,0,0,0,0,0,0
session_20260402_133209,C:/Users/josh_fleming/AppData/LocalLow/DefaultCompany/DJI Drone Sim\BenchmarkRuns\session_20260402_133209,20260402_133253_run006,6,climb,climb,5,Normal,preroll,1.5,1,1.5,8,0.18,0,1.975606,40,0,-0.087508,0,0,0,0,-0.087508,0,0,0,0,0,0,0,0
session_20260402_133209,C:/Users/josh_fleming/AppData/LocalLow/DefaultCompany/DJI Drone Sim\BenchmarkRuns\session_20260402_133209,20260402_133253_run006,6,climb,climb,5,Normal,preroll,1.5,1,1.5,9,0.2,0,1.974024,40,0,-0.079107,0,0,0,0,-0.079107,0,0,0,0,0,0,0,0
session_20260402_133209,C:/Users/josh_fleming/AppData/LocalLow/DefaultCompany/DJI Drone Sim\BenchmarkRuns\session_20260402_133209,20260402_133253_run006,6,climb,climb,5,Normal,preroll,1.5,1,1.5,10,0.22,0,1.972593,40,0,-0.071513,0,0,0,0,-0.071513,0,0,0,0,0,0,0,0
session_20260402_133209,C:/Users/josh_fleming/AppData/LocalLow/DefaultCompany/DJI Drone Sim\BenchmarkRuns\session_20260402_133209,20260402_133253_run006,6,climb,climb,5,Normal,preroll,1.5,1,1.5,11,0.24,0,1.9713,40,0,-0.064647,0,0,0,0,-0.064647,0,0,0,0,0,0,0,0
session_20260402_133209,C:/Users/josh_fleming/AppData/LocalLow/DefaultCompany/DJI Drone Sim\BenchmarkRuns\session_20260402_133209,20260402_133253_run006,6,climb,climb,5,Normal,preroll,1.5,1,1.5,12,0.26,0,1.970132,40,0,-0.058441,0,0,0,0,-0.058441,0,0,0,0,0,0,0,0
session_20260402_133209,C:/Users/josh_fleming/AppData/LocalLow/DefaultCompany/DJI Drone Sim\BenchmarkRuns\session_20260402_133209,20260402_133253_run006,6,climb,climb,5,Normal,preroll,1.5,1,1.5,13,0.28,0,1.969075,40,0,-0.052831,0,0,0,0,-0.052831,0,0,0,0,0,0,0,0
session_20260402_133209,C:/Users/josh_fleming/AppData/LocalLow/DefaultCompany/DJI Drone Sim\BenchmarkRuns\session_20260402_133209,20260402_133253_run006,6,climb,climb,5,Normal,preroll,1.5,1,1.5,14,0.3,0,1.96812,40,0,-0.047759,0,0,0,0,-0.047759,0,0,0,0,0,0,0,0
session_20260402_133209,C:/Users/josh_fleming/AppData/LocalLow/DefaultCompany/DJI Drone Sim\BenchmarkRuns\session_20260402_133209,20260402_133253_run006,6,climb,climb,5,Normal,preroll,1.5,1,1.5,15,0.32,0,1.967256,40,0,-0.043174,0,0,0,0,-0.043174,0,0,0,0,0,0,0,0
session_20260402_133209,C:/Users/josh_fleming/AppData/LocalLow/DefaultCompany/DJI Drone Sim\BenchmarkRuns\session_20260402_133209,20260402_133253_run006,6,climb,climb,5,Normal,preroll,1.5,1,1.5,16,0.34,0,1.966476,40,0,-0.039029,0,0,0,0,-0.039029,0,0,0,0,0,0,0,0
session_20260402_133209,C:/Users/josh_fleming/AppData/LocalLow/DefaultCompany/DJI Drone Sim\BenchmarkRuns\session_20260402_133209,20260402_133253_run006,6,climb,climb,5,Normal,preroll,1.5,1,1.5,17,0.36,0,1.96577,40,0,-0.035283,0,0,0,0,-0.035283,0,0,0,0,0,0,0,0
session_20260402_133209,C:/Users/josh_fleming/AppData/LocalLow/DefaultCompany/DJI Drone Sim\BenchmarkRuns\session_20260402_133209,20260402_133253_run006,6,climb,climb,5,Normal,preroll,1.5,1,1.5,18,0.38,0,1.965132,40,0,-0.031896,0,0,0,0,-0.031896,0,0,0,0,0,0,0,0
session_20260402_133209,C:/Users/josh_fleming/AppData/LocalLow/DefaultCompany/DJI Drone Sim\BenchmarkRuns\session_20260402_133209,20260402_133253_run006,6,climb,climb,5,Normal,preroll,1.5,1,1.5,19,0.4,0,1.964556,40,0,-0.028834,0,0,0,0,-0.028834,0,0,0,0,0,0,0,0
session_20260402_133209,C:/Users/josh_fleming/AppData/LocalLow/DefaultCompany/DJI Drone Sim\BenchmarkRuns\session_20260402_133209,20260402_133253_run006,6,climb,climb,5,Normal,preroll,1.5,1,1.5,20,0.42,0,1.964034,40,0,-0.026066,0,0,0,0,-0.026066,0,0,0,0,0,0,0,0
session_20260402_133209,C:/Users/josh_fleming/AppData/LocalLow/DefaultCompany/DJI Drone Sim\BenchmarkRuns\session_20260402_133209,20260402_133253_run006,6,climb,climb,5,Normal,preroll,1.5,1,1.5,21,0.44,0,1.963563,40,0,-0.023563,0,0,0,0,-0.023563,0,0,0,0,0,0,0,0
session_20260402_133209,C:/Users/josh_fleming/AppData/LocalLow/DefaultCompany/DJI Drone Sim\BenchmarkRuns\session_20260402_133209,20260402_133253_run006,6,climb,climb,5,Normal,preroll,1.5,1,1.5,22,0.46,0,1.963137,40,0,-0.021301,0,0,0,0,-0.021301,0,0,0,0,0,0,0,0
session_20260402_133209,C:/Users/josh_fleming/AppData/LocalLow/DefaultCompany/DJI Drone Sim\BenchmarkRuns\session_20260402_133209,20260402_133253_run006,6,climb,climb,5,Normal,preroll,1.5,1,1.5,23,0.48,0,1.962752,40,0,-0.019256,0,0,0,0,-0.019256,0,0,0,0,0,0,0,0
session_20260402_133209,C:/Users/josh_fleming/AppData/LocalLow/DefaultCompany/DJI Drone Sim\BenchmarkRuns\session_20260402_133209,20260402_133253_run006,6,climb,climb,5,Normal,preroll,1.5,1,1.5,24,0.5,0,1.962404,40,0,-0.017408,0,0,0,0,-0.017408,0,0,0,0,0,0,0,0
session_20260402_133209,C:/Users/josh_fleming/AppData/LocalLow/DefaultCompany/DJI Drone Sim\BenchmarkRuns\session_20260402_133209,20260402_133253_run006,6,climb,climb,5,Normal,preroll,1.5,1,1.5,25,0.52,0,1.962089,40,0,-0.015736,0,0,0,0,-0.015736,0,0,0,0,0,0,0,0
session_20260402_133209,C:/Users/josh_fleming/AppData/LocalLow/DefaultCompany/DJI Drone Sim\BenchmarkRuns\session_20260402_133209,20260402_133253_run006,6,climb,climb,5,Normal,preroll,1.5,1,1.5,26,0.54,0,1.961804,40,0,-0.014226,0,0,0,0,-0.014226,0,0,0,0,0,0,0,0
session_20260402_133209,C:/Users/josh_fleming/AppData/LocalLow/DefaultCompany/DJI Drone Sim\BenchmarkRuns\session_20260402_133209,20260402_133253_run006,6,climb,climb,5,Normal,preroll,1.5,1,1.5,27,0.56,0,1.961547,40,0,-0.01286,0,0,0,0,-0.01286,0,0,0,0,0,0,0,0
session_20260402_133209,C:/Users/josh_fleming/AppData/LocalLow/DefaultCompany/DJI Drone Sim\BenchmarkRuns\session_20260402_133209,20260402_133253_run006,6,climb,climb,5,Normal,preroll,1.5,1,1.5,28,0.58,0,1.961315,40,0,-0.011626,0,0,0,0,-0.011626,0,0,0,0,0,0,0,0
session_20260402_133209,C:/Users/josh_fleming/AppData/LocalLow/DefaultCompany/DJI Drone Sim\BenchmarkRuns\session_20260402_133209,20260402_133253_run006,6,climb,climb,5,Normal,preroll,1.5,1,1.5,29,0.6,0,1.961104,40,0,-0.010509,0,0,0,0,-0.010509,0,0,0,0,0,0,0,0
session_20260402_133209,C:/Users/josh_fleming/AppData/LocalLow/DefaultCompany/DJI Drone Sim\BenchmarkRuns\session_20260402_133209,20260402_133253_run006,6,climb,climb,5,Normal,preroll,1.5,1,1.5,30,0.62,0,1.960914,40,0,-0.009501,0,0,0,0,-0.009501,0,0,0,0,0,0,0,0
session_20260402_133209,C:/Users/josh_fleming/AppData/LocalLow/DefaultCompany/DJI Drone Sim\BenchmarkRuns\session_20260402_133209,20260402_133253_run006,6,climb,climb,5,Normal,preroll,1.5,1,1.5,31,0.64,0,1.960743,40,0,-0.008588,0,0,0,0,-0.008588,0,0,0,0,0,0,0,0
session_20260402_133209,C:/Users/josh_fleming/AppData/LocalLow/DefaultCompany/DJI Drone Sim\BenchmarkRuns\session_20260402_133209,20260402_133253_run006,6,climb,climb,5,Normal,preroll,1.5,1,1.5,32,0.66,0,1.960587,40,0,-0.007764,0,0,0,0,-0.007764,0,0,0,0,0,0,0,0
session_20260402_133209,C:/Users/josh_fleming/AppData/LocalLow/DefaultCompany/DJI Drone Sim\BenchmarkRuns\session_20260402_133209,20260402_133253_run006,6,climb,climb,5,Normal,preroll,1.5,1,1.5,33,0.68,0,1.960447,40,0,-0.007019,0,0,0,0,-0.007019,0,0,0,0,0,0,0,0
session_20260402_133209,C:/Users/josh_fleming/AppData/LocalLow/DefaultCompany/DJI Drone Sim\BenchmarkRuns\session_20260402_133209,20260402_133253_run006,6,climb,climb,5,Normal,preroll,1.5,1,1.5,34,0.7,0,1.96032,40,0,-0.006345,0,0,0,0,-0.006345,0,0,0,0,0,0,0,0
session_20260402_133209,C:/Users/josh_fleming/AppData/LocalLow/DefaultCompany/DJI Drone Sim\BenchmarkRuns\session_20260402_133209,20260402_133253_run006,6,climb,climb,5,Normal,preroll,1.5,1,1.5,35,0.72,0,1.960205,40,0,-0.005736,0,0,0,0,-0.005736,0,0,0,0,0,0,0,0
session_20260402_133209,C:/Users/josh_fleming/AppData/LocalLow/DefaultCompany/DJI Drone Sim\BenchmarkRuns\session_20260402_133209,20260402_133253_run006,6,climb,climb,5,Normal,preroll,1.5,1,1.5,36,0.74,0,1.960102,40,0,-0.005185,0,0,0,0,-0.005185,0,0,0,0,0,0,0,0
session_20260402_133209,C:/Users/josh_fleming/AppData/LocalLow/DefaultCompany/DJI Drone Sim\BenchmarkRuns\session_20260402_133209,20260402_133253_run006,6,climb,climb,5,Normal,preroll,1.5,1,1.5,37,0.76,0,1.960008,40,0,-0.004687,0,0,0,0,-0.004687,0,0,0,0,0,0,0,0
session_20260402_133209,C:/Users/josh_fleming/AppData/LocalLow/DefaultCompany/DJI Drone Sim\BenchmarkRuns\session_20260402_133209,20260402_133253_run006,6,climb,climb,5,Normal,preroll,1.5,1,1.5,38,0.779999,0,1.959923,40,0,-0.004237,0,0,0,0,-0.004237,0,0,0,0,0,0,0,0
session_20260402_133209,C:/Users/josh_fleming/AppData/LocalLow/DefaultCompany/DJI Drone Sim\BenchmarkRuns\session_20260402_133209,20260402_133253_run006,6,climb,climb,5,Normal,preroll,1.5,1,1.5,39,0.799999,0,1.959846,40,0,-0.003831,0,0,0,0,-0.003831,0,0,0,0,0,0,0,0
session_20260402_133209,C:/Users/josh_fleming/AppData/LocalLow/DefaultCompany/DJI Drone Sim\BenchmarkRuns\session_20260402_133209,20260402_133253_run006,6,climb,climb,5,Normal,preroll,1.5,1,1.5,40,0.819999,0,1.959777,40,0,-0.003463,0,0,0,0,-0.003463,0,0,0,0,0,0,0,0
session_20260402_133209,C:/Users/josh_fleming/AppData/LocalLow/DefaultCompany/DJI Drone Sim\BenchmarkRuns\session_20260402_133209,20260402_133253_run006,6,climb,climb,5,Normal,preroll,1.5,1,1.5,41,0.839999,0,1.959715,40,0,-0.00313,0,0,0,0,-0.00313,0,0,0,0,0,0,0,0
session_20260402_133209,C:/Users/josh_fleming/AppData/LocalLow/DefaultCompany/DJI Drone Sim\BenchmarkRuns\session_20260402_133209,20260402_133253_run006,6,climb,climb,5,Normal,preroll,1.5,1,1.5,42,0.859999,0,1.959658,40,0,-0.00283,0,0,0,0,-0.00283,0,0,0,0,0,0,0,0
session_20260402_133209,C:/Users/josh_fleming/AppData/LocalLow/DefaultCompany/DJI Drone Sim\BenchmarkRuns\session_20260402_133209,20260402_133253_run006,6,climb,climb,5,Normal,preroll,1.5,1,1.5,43,0.879999,0,1.959607,40,0,-0.002558,0,0,0,0,-0.002558,0,0,0,0,0,0,0,0
session_20260402_133209,C:/Users/josh_fleming/AppData/LocalLow/DefaultCompany/DJI Drone Sim\BenchmarkRuns\session_20260402_133209,20260402_133253_run006,6,climb,climb,5,Normal,preroll,1.5,1,1.5,44,0.899999,0,1.959561,40,0,-0.002313,0,0,0,0,-0.002313,0,0,0,0,0,0,0,0
session_20260402_133209,C:/Users/josh_fleming/AppData/LocalLow/DefaultCompany/DJI Drone Sim\BenchmarkRuns\session_20260402_133209,20260402_133253_run006,6,climb,climb,5,Normal,preroll,1.5,1,1.5,45,0.919999,0,1.959519,40,0,-0.002091,0,0,0,0,-0.002091,0,0,0,0,0,0,0,0
session_20260402_133209,C:/Users/josh_fleming/AppData/LocalLow/DefaultCompany/DJI Drone Sim\BenchmarkRuns\session_20260402_133209,20260402_133253_run006,6,climb,climb,5,Normal,preroll,1.5,1,1.5,46,0.939999,0,1.959481,40,0,-0.00189,0,0,0,0,-0.00189,0,0,0,0,0,0,0,0
session_20260402_133209,C:/Users/josh_fleming/AppData/LocalLow/DefaultCompany/DJI Drone Sim\BenchmarkRuns\session_20260402_133209,20260402_133253_run006,6,climb,climb,5,Normal,preroll,1.5,1,1.5,47,0.959999,0,1.959447,40,0,-0.001708,0,0,0,0,-0.001708,0,0,0,0,0,0,0,0
session_20260402_133209,C:/Users/josh_fleming/AppData/LocalLow/DefaultCompany/DJI Drone Sim\BenchmarkRuns\session_20260402_133209,20260402_133253_run006,6,climb,climb,5,Normal,preroll,1.5,1,1.5,48,0.979999,0,1.959416,40,0,-0.001544,0,0,0,0,-0.001544,0,0,0,0,0,0,0,0
session_20260402_133209,C:/Users/josh_fleming/AppData/LocalLow/DefaultCompany/DJI Drone Sim\BenchmarkRuns\session_20260402_133209,20260402_133253_run006,6,climb,climb,5,Normal,preroll,1.5,1,1.5,49,0.999999,0,1.959388,40,0,-0.001396,0,0,0,0,-0.001396,0,0,0,0,0,0,0,0
session_20260402_133209,C:/Users/josh_fleming/AppData/LocalLow/DefaultCompany/DJI Drone Sim\BenchmarkRuns\session_20260402_133209,20260402_133253_run006,6,climb,climb,5,Normal,preroll,1.5,1,1.5,50,1.019999,0,1.959363,40,0,-0.001262,0,0,0,0,-0.001262,0,0,0,0,0,0,0,0
session_20260402_133209,C:/Users/josh_fleming/AppData/LocalLow/DefaultCompany/DJI Drone Sim\BenchmarkRuns\session_20260402_133209,20260402_133253_run006,6,climb,climb,5,Normal,preroll,1.5,1,1.5,51,1.039999,0,1.95934,40,0,-0.001141,0,0,0,0,-0.001141,0,0,0,0,0,0,0,0
session_20260402_133209,C:/Users/josh_fleming/AppData/LocalLow/DefaultCompany/DJI Drone Sim\BenchmarkRuns\session_20260402_133209,20260402_133253_run006,6,climb,climb,5,Normal,preroll,1.5,1,1.5,52,1.059999,0,1.959319,40,0,-0.001031,0,0,0,0,-0.001031,0,0,0,0,0,0,0,0
session_20260402_133209,C:/Users/josh_fleming/AppData/LocalLow/DefaultCompany/DJI Drone Sim\BenchmarkRuns\session_20260402_133209,20260402_133253_run006,6,climb,climb,5,Normal,preroll,1.5,1,1.5,53,1.079999,0,1.959301,40,0,-0.000932,0,0,0,0,-0.000932,0,0,0,0,0,0,0,0
session_20260402_133209,C:/Users/josh_fleming/AppData/LocalLow/DefaultCompany/DJI Drone Sim\BenchmarkRuns\session_20260402_133209,20260402_133253_run006,6,climb,climb,5,Normal,preroll,1.5,1,1.5,54,1.099999,0,1.959284,40,0,-0.000843,0,0,0,0,-0.000843,0,0,0,0,0,0,0,0
session_20260402_133209,C:/Users/josh_fleming/AppData/LocalLow/DefaultCompany/DJI Drone Sim\BenchmarkRuns\session_20260402_133209,20260402_133253_run006,6,climb,climb,5,Normal,preroll,1.5,1,1.5,55,1.119999,0,1.959269,40,0,-0.000762,0,0,0,0,-0.000762,0,0,0,0,0,0,0,0
session_20260402_133209,C:/Users/josh_fleming/AppData/LocalLow/DefaultCompany/DJI Drone Sim\BenchmarkRuns\session_20260402_133209,20260402_133253_run006,6,climb,climb,5,Normal,preroll,1.5,1,1.5,56,1.139999,0,1.959255,40,0,-0.000689,0,0,0,0,-0.000689,0,0,0,0,0,0,0,0
session_20260402_133209,C:/Users/josh_fleming/AppData/LocalLow/DefaultCompany/DJI Drone Sim\BenchmarkRuns\session_20260402_133209,20260402_133253_run006,6,climb,climb,5,Normal,preroll,1.5,1,1.5,57,1.159999,0,1.959242,40,0,-0.000623,0,0,0,0,-0.000623,0,0,0,0,0,0,0,0
session_20260402_133209,C:/Users/josh_fleming/AppData/LocalLow/DefaultCompany/DJI Drone Sim\BenchmarkRuns\session_20260402_133209,20260402_133253_run006,6,climb,climb,5,Normal,preroll,1.5,1,1.5,58,1.179999,0,1.959231,40,0,-0.000563,0,0,0,0,-0.000563,0,0,0,0,0,0,0,0
session_20260402_133209,C:/Users/josh_fleming/AppData/LocalLow/DefaultCompany/DJI Drone Sim\BenchmarkRuns\session_20260402_133209,20260402_133253_run006,6,climb,climb,5,Normal,preroll,1.5,1,1.5,59,1.199999,0,1.959221,40,0,-0.000509,0,0,0,0,-0.000509,0,0,0,0,0,0,0,0
session_20260402_133209,C:/Users/josh_fleming/AppData/LocalLow/DefaultCompany/DJI Drone Sim\BenchmarkRuns\session_20260402_133209,20260402_133253_run006,6,climb,climb,5,Normal,preroll,1.5,1,1.5,60,1.219999,0,1.959212,40,0,-0.00046,0,0,0,0,-0.00046,0,0,0,0,0,0,0,0
session_20260402_133209,C:/Users/josh_fleming/AppData/LocalLow/DefaultCompany/DJI Drone Sim\BenchmarkRuns\session_20260402_133209,20260402_133253_run006,6,climb,climb,5,Normal,preroll,1.5,1,1.5,61,1.239999,0,1.959204,40,0,-0.000416,0,0,0,0,-0.000416,0,0,0,0,0,0,0,0
session_20260402_133209,C:/Users/josh_fleming/AppData/LocalLow/DefaultCompany/DJI Drone Sim\BenchmarkRuns\session_20260402_133209,20260402_133253_run006,6,climb,climb,5,Normal,preroll,1.5,1,1.5,62,1.259999,0,1.959196,40,0,-0.000376,0,0,0,0,-0.000376,0,0,0,0,0,0,0,0
session_20260402_133209,C:/Users/josh_fleming/AppData/LocalLow/DefaultCompany/DJI Drone Sim\BenchmarkRuns\session_20260402_133209,20260402_133253_run006,6,climb,climb,5,Normal,preroll,1.5,1,1.5,63,1.279999,0,1.959189,40,0,-0.00034,0,0,0,0,-0.00034,0,0,0,0,0,0,0,0
session_20260402_133209,C:/Users/josh_fleming/AppData/LocalLow/DefaultCompany/DJI Drone Sim\BenchmarkRuns\session_20260402_133209,20260402_133253_run006,6,climb,climb,5,Normal,preroll,1.5,1,1.5,64,1.299999,0,1.959183,40,0,-0.000307,0,0,0,0,-0.000307,0,0,0,0,0,0,0,0
session_20260402_133209,C:/Users/josh_fleming/AppData/LocalLow/DefaultCompany/DJI Drone Sim\BenchmarkRuns\session_20260402_133209,20260402_133253_run006,6,climb,climb,5,Normal,preroll,1.5,1,1.5,65,1.319999,0,1.959177,40,0,-0.000278,0,0,0,0,-0.000278,0,0,0,0,0,0,0,0
session_20260402_133209,C:/Users/josh_fleming/AppData/LocalLow/DefaultCompany/DJI Drone Sim\BenchmarkRuns\session_20260402_133209,20260402_133253_run006,6,climb,climb,5,Normal,preroll,1.5,1,1.5,66,1.339999,0,1.959172,40,0,-0.000251,0,0,0,0,-0.000251,0,0,0,0,0,0,0,0
session_20260402_133209,C:/Users/josh_fleming/AppData/LocalLow/DefaultCompany/DJI Drone Sim\BenchmarkRuns\session_20260402_133209,20260402_133253_run006,6,climb,climb,5,Normal,preroll,1.5,1,1.5,67,1.359999,0,1.959168,40,0,-0.000227,0,0,0,0,-0.000227,0,0,0,0,0,0,0,0
session_20260402_133209,C:/Users/josh_fleming/AppData/LocalLow/DefaultCompany/DJI Drone Sim\BenchmarkRuns\session_20260402_133209,20260402_133253_run006,6,climb,climb,5,Normal,preroll,1.5,1,1.5,68,1.379999,0,1.959164,40,0,-0.000205,0,0,0,0,-0.000205,0,0,0,0,0,0,0,0
session_20260402_133209,C:/Users/josh_fleming/AppData/LocalLow/DefaultCompany/DJI Drone Sim\BenchmarkRuns\session_20260402_133209,20260402_133253_run006,6,climb,climb,5,Normal,preroll,1.5,1,1.5,69,1.399999,0,1.95916,40,0,-0.000185,0,0,0,0,-0.000185,0,0,0,0,0,0,0,0
session_20260402_133209,C:/Users/josh_fleming/AppData/LocalLow/DefaultCompany/DJI Drone Sim\BenchmarkRuns\session_20260402_133209,20260402_133253_run006,6,climb,climb,5,Normal,preroll,1.5,1,1.5,70,1.419999,0,1.959157,40,0,-0.000168,0,0,0,0,-0.000168,0,0,0,0,0,0,0,0
session_20260402_133209,C:/Users/josh_fleming/AppData/LocalLow/DefaultCompany/DJI Drone Sim\BenchmarkRuns\session_20260402_133209,20260402_133253_run006,6,climb,climb,5,Normal,preroll,1.5,1,1.5,71,1.439999,0,1.959154,40,0,-0.000152,0,0,0,0,-0.000152,0,0,0,0,0,0,0,0
session_20260402_133209,C:/Users/josh_fleming/AppData/LocalLow/DefaultCompany/DJI Drone Sim\BenchmarkRuns\session_20260402_133209,20260402_133253_run006,6,climb,climb,5,Normal,preroll,1.5,1,1.5,72,1.459999,0,1.959151,40,0,-0.000137,0,0,0,0,-0.000137,0,0,0,0,0,0,0,0
session_20260402_133209,C:/Users/josh_fleming/AppData/LocalLow/DefaultCompany/DJI Drone Sim\BenchmarkRuns\session_20260402_133209,20260402_133253_run006,6,climb,climb,5,Normal,preroll,1.5,1,1.5,73,1.479999,0,1.959149,40,0,-0.000124,0,0,0,0,-0.000124,0,0,0,0,0,0,0,0
session_20260402_133209,C:/Users/josh_fleming/AppData/LocalLow/DefaultCompany/DJI Drone Sim\BenchmarkRuns\session_20260402_133209,20260402_133253_run006,6,climb,climb,5,Normal,preroll,1.5,1,1.5,74,1.499999,0,1.959146,40,0,-0.000112,0,0,0,0,-0.000112,0,0,0,0,0,0,0,0
session_20260402_133209,C:/Users/josh_fleming/AppData/LocalLow/DefaultCompany/DJI Drone Sim\BenchmarkRuns\session_20260402_133209,20260402_133253_run006,6,climb,climb,5,Normal,preroll,1.5,1,1.5,75,1.519999,0,1.959144,40,0,-0.000101,0,0,0,0,-0.000101,0,0,0,0,0,0,0,0
session_20260402_133209,C:/Users/josh_fleming/AppData/LocalLow/DefaultCompany/DJI Drone Sim\BenchmarkRuns\session_20260402_133209,20260402_133253_run006,6,climb,climb,5,Normal,input,1.5,1,1.5,76,1.539999,0,1.959143,40,0,-0.000091,0,0,0,0,-0.000091,0,0,0,0,0,0,1,0
session_20260402_133209,C:/Users/josh_fleming/AppData/LocalLow/DefaultCompany/DJI Drone Sim\BenchmarkRuns\session_20260402_133209,20260402_133253_run006,6,climb,climb,5,Normal,input,1.5,1,1.5,77,1.559999,0,1.959141,40,0,-0.000083,0,0,0,0,-0.000083,0,0,0,0,0,0,1,0
session_20260402_133209,C:/Users/josh_fleming/AppData/LocalLow/DefaultCompany/DJI Drone Sim\BenchmarkRuns\session_20260402_133209,20260402_133253_run006,6,climb,climb,5,Normal,input,1.5,1,1.5,78,1.579999,0,1.963139,40,0,0.199917,0,0,0,0,0.199917,0,0,0,0,0,0,1,0
session_20260402_133209,C:/Users/josh_fleming/AppData/LocalLow/DefaultCompany/DJI Drone Sim\BenchmarkRuns\session_20260402_133209,20260402_133253_run006,6,climb,climb,5,Normal,input,1.5,1,1.5,79,1.599999,0,1.971138,40,0,0.399917,0,0,0,0,0.399917,0,0,0,0,0,0,1,0
session_20260402_133209,C:/Users/josh_fleming/AppData/LocalLow/DefaultCompany/DJI Drone Sim\BenchmarkRuns\session_20260402_133209,20260402_133253_run006,6,climb,climb,5,Normal,input,1.5,1,1.5,80,1.619999,0,1.982976,40,0,0.591925,0,0,0,0,0.591925,0,0,0,0,0,0,1,0
session_20260402_133209,C:/Users/josh_fleming/AppData/LocalLow/DefaultCompany/DJI Drone Sim\BenchmarkRuns\session_20260402_133209,20260402_133253_run006,6,climb,climb,5,Normal,input,1.5,1,1.5,81,1.639999,0,1.998286,40,0,0.7655,0,0,0,0,0.7655,0,0,0,0,0,0,1,0
session_20260402_133209,C:/Users/josh_fleming/AppData/LocalLow/DefaultCompany/DJI Drone Sim\BenchmarkRuns\session_20260402_133209,20260402_133253_run006,6,climb,climb,5,Normal,input,1.5,1,1.5,82,1.659999,0,2.016734,40,0,0.922412,0,0,0,0,0.922412,0,0,0,0,0,0,1,0
session_20260402_133209,C:/Users/josh_fleming/AppData/LocalLow/DefaultCompany/DJI Drone Sim\BenchmarkRuns\session_20260402_133209,20260402_133253_run006,6,climb,climb,5,Normal,input,1.5,1,1.5,83,1.679999,0,2.03802,40,0,1.064261,0,0,0,0,1.064261,0,0,0,0,0,0,1,0
session_20260402_133209,C:/Users/josh_fleming/AppData/LocalLow/DefaultCompany/DJI Drone Sim\BenchmarkRuns\session_20260402_133209,20260402_133253_run006,6,climb,climb,5,Normal,input,1.5,1,1.5,84,1.699999,0,2.061869,40,0,1.192492,0,0,0,0,1.192492,0,0,0,0,0,0,1,0
session_20260402_133209,C:/Users/josh_fleming/AppData/LocalLow/DefaultCompany/DJI Drone Sim\BenchmarkRuns\session_20260402_133209,20260402_133253_run006,6,climb,climb,5,Normal,input,1.5,1,1.5,85,1.719999,0,2.088038,40,0,1.308413,0,0,0,0,1.308413,0,0,0,0,0,0,1,0
session_20260402_133209,C:/Users/josh_fleming/AppData/LocalLow/DefaultCompany/DJI Drone Sim\BenchmarkRuns\session_20260402_133209,20260402_133253_run006,6,climb,climb,5,Normal,input,1.5,1,1.5,86,1.739999,0,2.116302,40,0,1.413205,0,0,0,0,1.413205,0,0,0,0,0,0,1,0
session_20260402_133209,C:/Users/josh_fleming/AppData/LocalLow/DefaultCompany/DJI Drone Sim\BenchmarkRuns\session_20260402_133209,20260402_133253_run006,6,climb,climb,5,Normal,input,1.5,1,1.5,87,1.759999,0,2.146461,40,0,1.507937,0,0,0,0,1.507937,0,0,0,0,0,0,1,0
session_20260402_133209,C:/Users/josh_fleming/AppData/LocalLow/DefaultCompany/DJI Drone Sim\BenchmarkRuns\session_20260402_133209,20260402_133253_run006,6,climb,climb,5,Normal,input,1.5,1,1.5,88,1.779999,0,2.178332,40,0,1.593575,0,0,0,0,1.593575,0,0,0,0,0,0,1,0
session_20260402_133209,C:/Users/josh_fleming/AppData/LocalLow/DefaultCompany/DJI Drone Sim\BenchmarkRuns\session_20260402_133209,20260402_133253_run006,6,climb,climb,5,Normal,input,1.5,1,1.5,89,1.799999,0,2.211752,40,0,1.670992,0,0,0,0,1.670992,0,0,0,0,0,0,1,0
session_20260402_133209,C:/Users/josh_fleming/AppData/LocalLow/DefaultCompany/DJI Drone Sim\BenchmarkRuns\session_20260402_133209,20260402_133253_run006,6,climb,climb,5,Normal,input,1.5,1,1.5,90,1.819999,0,2.246572,40,0,1.740977,0,0,0,0,1.740977,0,0,0,0,0,0,1,0
session_20260402_133209,C:/Users/josh_fleming/AppData/LocalLow/DefaultCompany/DJI Drone Sim\BenchmarkRuns\session_20260402_133209,20260402_133253_run006,6,climb,climb,5,Normal,input,1.5,1,1.5,91,1.839998,0,2.282656,40,0,1.804243,0,0,0,0,1.804243,0,0,0,0,0,0,1,0
session_20260402_133209,C:/Users/josh_fleming/AppData/LocalLow/DefaultCompany/DJI Drone Sim\BenchmarkRuns\session_20260402_133209,20260402_133253_run006,6,climb,climb,5,Normal,input,1.5,1,1.5,92,1.859998,0,2.319885,40,0,1.861436,0,0,0,0,1.861436,0,0,0,0,0,0,1,0
session_20260402_133209,C:/Users/josh_fleming/AppData/LocalLow/DefaultCompany/DJI Drone Sim\BenchmarkRuns\session_20260402_133209,20260402_133253_run006,6,climb,climb,5,Normal,input,1.5,1,1.5,93,1.879998,0,2.358148,40,0,1.913138,0,0,0,0,1.913138,0,0,0,0,0,0,1,0
session_20260402_133209,C:/Users/josh_fleming/AppData/LocalLow/DefaultCompany/DJI Drone Sim\BenchmarkRuns\session_20260402_133209,20260402_133253_run006,6,climb,climb,5,Normal,input,1.5,1,1.5,94,1.899998,0,2.397345,40,0,1.959877,0,0,0,0,1.959877,0,0,0,0,0,0,1,0
session_20260402_133209,C:/Users/josh_fleming/AppData/LocalLow/DefaultCompany/DJI Drone Sim\BenchmarkRuns\session_20260402_133209,20260402_133253_run006,6,climb,climb,5,Normal,input,1.5,1,1.5,95,1.919998,0,2.437388,40,0,2.002129,0,0,0,0,2.002129,0,0,0,0,0,0,1,0
session_20260402_133209,C:/Users/josh_fleming/AppData/LocalLow/DefaultCompany/DJI Drone Sim\BenchmarkRuns\session_20260402_133209,20260402_133253_run006,6,climb,climb,5,Normal,input,1.5,1,1.5,96,1.939998,0,2.478194,40,0,2.040324,0,0,0,0,2.040324,0,0,0,0,0,0,1,0
session_20260402_133209,C:/Users/josh_fleming/AppData/LocalLow/DefaultCompany/DJI Drone Sim\BenchmarkRuns\session_20260402_133209,20260402_133253_run006,6,climb,climb,5,Normal,input,1.5,1,1.5,97,1.959998,0,2.519691,40,0,2.074853,0,0,0,0,2.074853,0,0,0,0,0,0,1,0
session_20260402_133209,C:/Users/josh_fleming/AppData/LocalLow/DefaultCompany/DJI Drone Sim\BenchmarkRuns\session_20260402_133209,20260402_133253_run006,6,climb,climb,5,Normal,input,1.5,1,1.5,98,1.979998,0,2.561813,40,0,2.106068,0,0,0,0,2.106068,0,0,0,0,0,0,1,0
session_20260402_133209,C:/Users/josh_fleming/AppData/LocalLow/DefaultCompany/DJI Drone Sim\BenchmarkRuns\session_20260402_133209,20260402_133253_run006,6,climb,climb,5,Normal,input,1.5,1,1.5,99,1.999998,0,2.604499,40,0,2.134285,0,0,0,0,2.134285,0,0,0,0,0,0,1,0
session_20260402_133209,C:/Users/josh_fleming/AppData/LocalLow/DefaultCompany/DJI Drone Sim\BenchmarkRuns\session_20260402_133209,20260402_133253_run006,6,climb,climb,5,Normal,input,1.5,1,1.5,100,2.019998,0,2.647695,40,0,2.159794,0,0,0,0,2.159794,0,0,0,0,0,0,1,0
session_20260402_133209,C:/Users/josh_fleming/AppData/LocalLow/DefaultCompany/DJI Drone Sim\BenchmarkRuns\session_20260402_133209,20260402_133253_run006,6,climb,climb,5,Normal,input,1.5,1,1.5,101,2.039998,0,2.691352,40,0,2.182854,0,0,0,0,2.182854,0,0,0,0,0,0,1,0
session_20260402_133209,C:/Users/josh_fleming/AppData/LocalLow/DefaultCompany/DJI Drone Sim\BenchmarkRuns\session_20260402_133209,20260402_133253_run006,6,climb,climb,5,Normal,input,1.5,1,1.5,102,2.059998,0,2.735426,40,0,2.2037,0,0,0,0,2.2037,0,0,0,0,0,0,1,0
session_20260402_133209,C:/Users/josh_fleming/AppData/LocalLow/DefaultCompany/DJI Drone Sim\BenchmarkRuns\session_20260402_133209,20260402_133253_run006,6,climb,climb,5,Normal,input,1.5,1,1.5,103,2.079998,0,2.779876,40,0,2.222545,0,0,0,0,2.222545,0,0,0,0,0,0,1,0
session_20260402_133209,C:/Users/josh_fleming/AppData/LocalLow/DefaultCompany/DJI Drone Sim\BenchmarkRuns\session_20260402_133209,20260402_133253_run006,6,climb,climb,5,Normal,input,1.5,1,1.5,104,2.099998,0,2.824668,40,0,2.23958,0,0,0,0,2.23958,0,0,0,0,0,0,1,0
session_20260402_133209,C:/Users/josh_fleming/AppData/LocalLow/DefaultCompany/DJI Drone Sim\BenchmarkRuns\session_20260402_133209,20260402_133253_run006,6,climb,climb,5,Normal,input,1.5,1,1.5,105,2.119998,0,2.869768,40,0,2.254981,0,0,0,0,2.254981,0,0,0,0,0,0,1,0
session_20260402_133209,C:/Users/josh_fleming/AppData/LocalLow/DefaultCompany/DJI Drone Sim\BenchmarkRuns\session_20260402_133209,20260402_133253_run006,6,climb,climb,5,Normal,input,1.5,1,1.5,106,2.139998,0,2.915146,40,0,2.268903,0,0,0,0,2.268903,0,0,0,0,0,0,1,0
session_20260402_133209,C:/Users/josh_fleming/AppData/LocalLow/DefaultCompany/DJI Drone Sim\BenchmarkRuns\session_20260402_133209,20260402_133253_run006,6,climb,climb,5,Normal,input,1.5,1,1.5,107,2.159998,0,2.960775,40,0,2.281488,0,0,0,0,2.281488,0,0,0,0,0,0,1,0
session_20260402_133209,C:/Users/josh_fleming/AppData/LocalLow/DefaultCompany/DJI Drone Sim\BenchmarkRuns\session_20260402_133209,20260402_133253_run006,6,climb,climb,5,Normal,input,1.5,1,1.5,108,2.179998,0,3.006633,40,0,2.292865,0,0,0,0,2.292865,0,0,0,0,0,0,1,0
session_20260402_133209,C:/Users/josh_fleming/AppData/LocalLow/DefaultCompany/DJI Drone Sim\BenchmarkRuns\session_20260402_133209,20260402_133253_run006,6,climb,climb,5,Normal,input,1.5,1,1.5,109,2.199998,0,3.052696,40,0,2.30315,0,0,0,0,2.30315,0,0,0,0,0,0,1,0
session_20260402_133209,C:/Users/josh_fleming/AppData/LocalLow/DefaultCompany/DJI Drone Sim\BenchmarkRuns\session_20260402_133209,20260402_133253_run006,6,climb,climb,5,Normal,input,1.5,1,1.5,110,2.219998,0,3.098944,40,0,2.312448,0,0,0,0,2.312448,0,0,0,0,0,0,1,0
session_20260402_133209,C:/Users/josh_fleming/AppData/LocalLow/DefaultCompany/DJI Drone Sim\BenchmarkRuns\session_20260402_133209,20260402_133253_run006,6,climb,climb,5,Normal,input,1.5,1,1.5,111,2.239998,0,3.145361,40,0,2.320853,0,0,0,0,2.320853,0,0,0,0,0,0,1,0
session_20260402_133209,C:/Users/josh_fleming/AppData/LocalLow/DefaultCompany/DJI Drone Sim\BenchmarkRuns\session_20260402_133209,20260402_133253_run006,6,climb,climb,5,Normal,input,1.5,1,1.5,112,2.259998,0,3.191931,40,0,2.328451,0,0,0,0,2.328451,0,0,0,0,0,0,1,0
session_20260402_133209,C:/Users/josh_fleming/AppData/LocalLow/DefaultCompany/DJI Drone Sim\BenchmarkRuns\session_20260402_133209,20260402_133253_run006,6,climb,climb,5,Normal,input,1.5,1,1.5,113,2.279998,0,3.238637,40,0,2.33532,0,0,0,0,2.33532,0,0,0,0,0,0,1,0
session_20260402_133209,C:/Users/josh_fleming/AppData/LocalLow/DefaultCompany/DJI Drone Sim\BenchmarkRuns\session_20260402_133209,20260402_133253_run006,6,climb,climb,5,Normal,input,1.5,1,1.5,114,2.299998,0,3.285468,40,0,2.341529,0,0,0,0,2.341529,0,0,0,0,0,0,1,0
session_20260402_133209,C:/Users/josh_fleming/AppData/LocalLow/DefaultCompany/DJI Drone Sim\BenchmarkRuns\session_20260402_133209,20260402_133253_run006,6,climb,climb,5,Normal,input,1.5,1,1.5,115,2.319998,0,3.332411,40,0,2.347142,0,0,0,0,2.347142,0,0,0,0,0,0,1,0
session_20260402_133209,C:/Users/josh_fleming/AppData/LocalLow/DefaultCompany/DJI Drone Sim\BenchmarkRuns\session_20260402_133209,20260402_133253_run006,6,climb,climb,5,Normal,input,1.5,1,1.5,116,2.339998,0,3.379455,40,0,2.352217,0,0,0,0,2.352217,0,0,0,0,0,0,1,0
session_20260402_133209,C:/Users/josh_fleming/AppData/LocalLow/DefaultCompany/DJI Drone Sim\BenchmarkRuns\session_20260402_133209,20260402_133253_run006,6,climb,climb,5,Normal,input,1.5,1,1.5,117,2.359998,0,3.426591,40,0,2.356804,0,0,0,0,2.356804,0,0,0,0,0,0,1,0
session_20260402_133209,C:/Users/josh_fleming/AppData/LocalLow/DefaultCompany/DJI Drone Sim\BenchmarkRuns\session_20260402_133209,20260402_133253_run006,6,climb,climb,5,Normal,input,1.5,1,1.5,118,2.379998,0,3.47381,40,0,2.360951,0,0,0,0,2.360951,0,0,0,0,0,0,1,0
session_20260402_133209,C:/Users/josh_fleming/AppData/LocalLow/DefaultCompany/DJI Drone Sim\BenchmarkRuns\session_20260402_133209,20260402_133253_run006,6,climb,climb,5,Normal,input,1.5,1,1.5,119,2.399998,0,3.521104,40,0,2.364699,0,0,0,0,2.364699,0,0,0,0,0,0,1,0
session_20260402_133209,C:/Users/josh_fleming/AppData/LocalLow/DefaultCompany/DJI Drone Sim\BenchmarkRuns\session_20260402_133209,20260402_133253_run006,6,climb,climb,5,Normal,input,1.5,1,1.5,120,2.419998,0,3.568466,40,0,2.368088,0,0,0,0,2.368088,0,0,0,0,0,0,1,0
session_20260402_133209,C:/Users/josh_fleming/AppData/LocalLow/DefaultCompany/DJI Drone Sim\BenchmarkRuns\session_20260402_133209,20260402_133253_run006,6,climb,climb,5,Normal,input,1.5,1,1.5,121,2.439998,0,3.615889,40,0,2.371152,0,0,0,0,2.371152,0,0,0,0,0,0,1,0
session_20260402_133209,C:/Users/josh_fleming/AppData/LocalLow/DefaultCompany/DJI Drone Sim\BenchmarkRuns\session_20260402_133209,20260402_133253_run006,6,climb,climb,5,Normal,input,1.5,1,1.5,122,2.459998,0,3.663367,40,0,2.373921,0,0,0,0,2.373921,0,0,0,0,0,0,1,0
session_20260402_133209,C:/Users/josh_fleming/AppData/LocalLow/DefaultCompany/DJI Drone Sim\BenchmarkRuns\session_20260402_133209,20260402_133253_run006,6,climb,climb,5,Normal,input,1.5,1,1.5,123,2.479998,0,3.710896,40,0,2.376425,0,0,0,0,2.376425,0,0,0,0,0,0,1,0
session_20260402_133209,C:/Users/josh_fleming/AppData/LocalLow/DefaultCompany/DJI Drone Sim\BenchmarkRuns\session_20260402_133209,20260402_133253_run006,6,climb,climb,5,Normal,input,1.5,1,1.5,124,2.499998,0,3.75847,40,0,2.378688,0,0,0,0,2.378688,0,0,0,0,0,0,1,0
session_20260402_133209,C:/Users/josh_fleming/AppData/LocalLow/DefaultCompany/DJI Drone Sim\BenchmarkRuns\session_20260402_133209,20260402_133253_run006,6,climb,climb,5,Normal,input,1.5,1,1.5,125,2.519998,0,3.806084,40,0,2.380734,0,0,0,0,2.380734,0,0,0,0,0,0,1,0
session_20260402_133209,C:/Users/josh_fleming/AppData/LocalLow/DefaultCompany/DJI Drone Sim\BenchmarkRuns\session_20260402_133209,20260402_133253_run006,6,climb,climb,5,Normal,input,1.5,1,1.5,126,2.539998,0,3.853736,40,0,2.382584,0,0,0,0,2.382584,0,0,0,0,0,0,1,0
session_20260402_133209,C:/Users/josh_fleming/AppData/LocalLow/DefaultCompany/DJI Drone Sim\BenchmarkRuns\session_20260402_133209,20260402_133253_run006,6,climb,climb,5,Normal,settle,1.5,1,1.5,127,2.559998,0,3.901421,40,0,2.384256,0,0,0,0,2.384256,0,0,0,0,0,0,0,0
session_20260402_133209,C:/Users/josh_fleming/AppData/LocalLow/DefaultCompany/DJI Drone Sim\BenchmarkRuns\session_20260402_133209,20260402_133253_run006,6,climb,climb,5,Normal,settle,1.5,1,1.5,128,2.579998,0,3.949136,40,0,2.385767,0,0,0,0,2.385767,0,0,0,0,0,0,0,0
session_20260402_133209,C:/Users/josh_fleming/AppData/LocalLow/DefaultCompany/DJI Drone Sim\BenchmarkRuns\session_20260402_133209,20260402_133253_run006,6,climb,climb,5,Normal,settle,1.5,1,1.5,129,2.599998,0,3.992852,40,0,2.185768,0,0,0,0,2.185768,0,0,0,0,0,0,0,0
session_20260402_133209,C:/Users/josh_fleming/AppData/LocalLow/DefaultCompany/DJI Drone Sim\BenchmarkRuns\session_20260402_133209,20260402_133253_run006,6,climb,climb,5,Normal,settle,1.5,1,1.5,130,2.619998,0,4.032568,40,0,1.985768,0,0,0,0,1.985768,0,0,0,0,0,0,0,0
session_20260402_133209,C:/Users/josh_fleming/AppData/LocalLow/DefaultCompany/DJI Drone Sim\BenchmarkRuns\session_20260402_133209,20260402_133253_run006,6,climb,climb,5,Normal,settle,1.5,1,1.5,131,2.639998,0,4.06847,40,0,1.795134,0,0,0,0,1.795134,0,0,0,0,0,0,0,0
session_20260402_133209,C:/Users/josh_fleming/AppData/LocalLow/DefaultCompany/DJI Drone Sim\BenchmarkRuns\session_20260402_133209,20260402_133253_run006,6,climb,climb,5,Normal,settle,1.5,1,1.5,132,2.659998,0,4.100926,40,0,1.622801,0,0,0,0,1.622801,0,0,0,0,0,0,0,0
session_20260402_133209,C:/Users/josh_fleming/AppData/LocalLow/DefaultCompany/DJI Drone Sim\BenchmarkRuns\session_20260402_133209,20260402_133253_run006,6,climb,climb,5,Normal,settle,1.5,1,1.5,133,2.679998,0,4.130266,40,0,1.467013,0,0,0,0,1.467013,0,0,0,0,0,0,0,0
session_20260402_133209,C:/Users/josh_fleming/AppData/LocalLow/DefaultCompany/DJI Drone Sim\BenchmarkRuns\session_20260402_133209,20260402_133253_run006,6,climb,climb,5,Normal,settle,1.5,1,1.5,134,2.699998,0,4.15679,40,0,1.326179,0,0,0,0,1.326179,0,0,0,0,0,0,0,0
session_20260402_133209,C:/Users/josh_fleming/AppData/LocalLow/DefaultCompany/DJI Drone Sim\BenchmarkRuns\session_20260402_133209,20260402_133253_run006,6,climb,climb,5,Normal,settle,1.5,1,1.5,135,2.719998,0,4.180767,40,0,1.198866,0,0,0,0,1.198866,0,0,0,0,0,0,0,0
session_20260402_133209,C:/Users/josh_fleming/AppData/LocalLow/DefaultCompany/DJI Drone Sim\BenchmarkRuns\session_20260402_133209,20260402_133253_run006,6,climb,climb,5,Normal,settle,1.5,1,1.5,136,2.739998,0,4.202443,40,0,1.083775,0,0,0,0,1.083775,0,0,0,0,0,0,0,0
session_20260402_133209,C:/Users/josh_fleming/AppData/LocalLow/DefaultCompany/DJI Drone Sim\BenchmarkRuns\session_20260402_133209,20260402_133253_run006,6,climb,climb,5,Normal,settle,1.5,1,1.5,137,2.759998,0,4.222037,40,0,0.979733,0,0,0,0,0.979733,0,0,0,0,0,0,0,0
session_20260402_133209,C:/Users/josh_fleming/AppData/LocalLow/DefaultCompany/DJI Drone Sim\BenchmarkRuns\session_20260402_133209,20260402_133253_run006,6,climb,climb,5,Normal,settle,1.5,1,1.5,138,2.779998,0,4.239751,40,0,0.885679,0,0,0,0,0.885679,0,0,0,0,0,0,0,0
session_20260402_133209,C:/Users/josh_fleming/AppData/LocalLow/DefaultCompany/DJI Drone Sim\BenchmarkRuns\session_20260402_133209,20260402_133253_run006,6,climb,climb,5,Normal,settle,1.5,1,1.5,139,2.799998,0,4.255764,40,0,0.800654,0,0,0,0,0.800654,0,0,0,0,0,0,0,0
session_20260402_133209,C:/Users/josh_fleming/AppData/LocalLow/DefaultCompany/DJI Drone Sim\BenchmarkRuns\session_20260402_133209,20260402_133253_run006,6,climb,climb,5,Normal,settle,1.5,1,1.5,140,2.819998,0,4.27024,40,0,0.723791,0,0,0,0,0.723791,0,0,0,0,0,0,0,0
session_20260402_133209,C:/Users/josh_fleming/AppData/LocalLow/DefaultCompany/DJI Drone Sim\BenchmarkRuns\session_20260402_133209,20260402_133253_run006,6,climb,climb,5,Normal,settle,1.5,1,1.5,141,2.839998,0,4.283326,40,0,0.654307,0,0,0,0,0.654307,0,0,0,0,0,0,0,0
session_20260402_133209,C:/Users/josh_fleming/AppData/LocalLow/DefaultCompany/DJI Drone Sim\BenchmarkRuns\session_20260402_133209,20260402_133253_run006,6,climb,climb,5,Normal,settle,1.5,1,1.5,142,2.859998,0,4.295156,40,0,0.591494,0,0,0,0,0.591494,0,0,0,0,0,0,0,0
session_20260402_133209,C:/Users/josh_fleming/AppData/LocalLow/DefaultCompany/DJI Drone Sim\BenchmarkRuns\session_20260402_133209,20260402_133253_run006,6,climb,climb,5,Normal,settle,1.5,1,1.5,143,2.879997,0,4.30585,40,0,0.53471,0,0,0,0,0.53471,0,0,0,0,0,0,0,0
session_20260402_133209,C:/Users/josh_fleming/AppData/LocalLow/DefaultCompany/DJI Drone Sim\BenchmarkRuns\session_20260402_133209,20260402_133253_run006,6,climb,climb,5,Normal,settle,1.5,1,1.5,144,2.899997,0,4.315517,40,0,0.483378,0,0,0,0,0.483378,0,0,0,0,0,0,0,0
session_20260402_133209,C:/Users/josh_fleming/AppData/LocalLow/DefaultCompany/DJI Drone Sim\BenchmarkRuns\session_20260402_133209,20260402_133253_run006,6,climb,climb,5,Normal,settle,1.5,1,1.5,145,2.919997,0,4.324257,40,0,0.436974,0,0,0,0,0.436974,0,0,0,0,0,0,0,0
session_20260402_133209,C:/Users/josh_fleming/AppData/LocalLow/DefaultCompany/DJI Drone Sim\BenchmarkRuns\session_20260402_133209,20260402_133253_run006,6,climb,climb,5,Normal,settle,1.5,1,1.5,146,2.939997,0,4.332158,40,0,0.395024,0,0,0,0,0.395024,0,0,0,0,0,0,0,0
session_20260402_133209,C:/Users/josh_fleming/AppData/LocalLow/DefaultCompany/DJI Drone Sim\BenchmarkRuns\session_20260402_133209,20260402_133253_run006,6,climb,climb,5,Normal,settle,1.5,1,1.5,147,2.959997,0,4.3393,40,0,0.357102,0,0,0,0,0.357102,0,0,0,0,0,0,0,0
session_20260402_133209,C:/Users/josh_fleming/AppData/LocalLow/DefaultCompany/DJI Drone Sim\BenchmarkRuns\session_20260402_133209,20260402_133253_run006,6,climb,climb,5,Normal,settle,1.5,1,1.5,148,2.979997,0,4.345756,40,0,0.32282,0,0,0,0,0.32282,0,0,0,0,0,0,0,0
session_20260402_133209,C:/Users/josh_fleming/AppData/LocalLow/DefaultCompany/DJI Drone Sim\BenchmarkRuns\session_20260402_133209,20260402_133253_run006,6,climb,climb,5,Normal,settle,1.5,1,1.5,149,2.999997,0,4.351593,40,0,0.29183,0,0,0,0,0.29183,0,0,0,0,0,0,0,0
session_20260402_133209,C:/Users/josh_fleming/AppData/LocalLow/DefaultCompany/DJI Drone Sim\BenchmarkRuns\session_20260402_133209,20260402_133253_run006,6,climb,climb,5,Normal,settle,1.5,1,1.5,150,3.019997,0,4.356869,40,0,0.263814,0,0,0,0,0.263814,0,0,0,0,0,0,0,0
session_20260402_133209,C:/Users/josh_fleming/AppData/LocalLow/DefaultCompany/DJI Drone Sim\BenchmarkRuns\session_20260402_133209,20260402_133253_run006,6,climb,climb,5,Normal,settle,1.5,1,1.5,151,3.039997,0,4.361639,40,0,0.238488,0,0,0,0,0.238488,0,0,0,0,0,0,0,0
session_20260402_133209,C:/Users/josh_fleming/AppData/LocalLow/DefaultCompany/DJI Drone Sim\BenchmarkRuns\session_20260402_133209,20260402_133253_run006,6,climb,climb,5,Normal,settle,1.5,1,1.5,152,3.059997,0,4.365951,40,0,0.215593,0,0,0,0,0.215593,0,0,0,0,0,0,0,0
session_20260402_133209,C:/Users/josh_fleming/AppData/LocalLow/DefaultCompany/DJI Drone Sim\BenchmarkRuns\session_20260402_133209,20260402_133253_run006,6,climb,climb,5,Normal,settle,1.5,1,1.5,153,3.079997,0,4.369849,40,0,0.194896,0,0,0,0,0.194896,0,0,0,0,0,0,0,0
session_20260402_133209,C:/Users/josh_fleming/AppData/LocalLow/DefaultCompany/DJI Drone Sim\BenchmarkRuns\session_20260402_133209,20260402_133253_run006,6,climb,climb,5,Normal,settle,1.5,1,1.5,154,3.099997,0,4.373373,40,0,0.176186,0,0,0,0,0.176186,0,0,0,0,0,0,0,0
session_20260402_133209,C:/Users/josh_fleming/AppData/LocalLow/DefaultCompany/DJI Drone Sim\BenchmarkRuns\session_20260402_133209,20260402_133253_run006,6,climb,climb,5,Normal,settle,1.5,1,1.5,155,3.119997,0,4.376558,40,0,0.159272,0,0,0,0,0.159272,0,0,0,0,0,0,0,0
session_20260402_133209,C:/Users/josh_fleming/AppData/LocalLow/DefaultCompany/DJI Drone Sim\BenchmarkRuns\session_20260402_133209,20260402_133253_run006,6,climb,climb,5,Normal,settle,1.5,1,1.5,156,3.139997,0,4.379437,40,0,0.143982,0,0,0,0,0.143982,0,0,0,0,0,0,0,0
session_20260402_133209,C:/Users/josh_fleming/AppData/LocalLow/DefaultCompany/DJI Drone Sim\BenchmarkRuns\session_20260402_133209,20260402_133253_run006,6,climb,climb,5,Normal,settle,1.5,1,1.5,157,3.159997,0,4.382041,40,0,0.13016,0,0,0,0,0.13016,0,0,0,0,0,0,0,0
session_20260402_133209,C:/Users/josh_fleming/AppData/LocalLow/DefaultCompany/DJI Drone Sim\BenchmarkRuns\session_20260402_133209,20260402_133253_run006,6,climb,climb,5,Normal,settle,1.5,1,1.5,158,3.179997,0,4.384394,40,0,0.117665,0,0,0,0,0.117665,0,0,0,0,0,0,0,0
session_20260402_133209,C:/Users/josh_fleming/AppData/LocalLow/DefaultCompany/DJI Drone Sim\BenchmarkRuns\session_20260402_133209,20260402_133253_run006,6,climb,climb,5,Normal,settle,1.5,1,1.5,159,3.199997,0,4.386521,40,0,0.106369,0,0,0,0,0.106369,0,0,0,0,0,0,0,0
session_20260402_133209,C:/Users/josh_fleming/AppData/LocalLow/DefaultCompany/DJI Drone Sim\BenchmarkRuns\session_20260402_133209,20260402_133253_run006,6,climb,climb,5,Normal,settle,1.5,1,1.5,160,3.219997,0,4.388444,40,0,0.096157,0,0,0,0,0.096157,0,0,0,0,0,0,0,0
session_20260402_133209,C:/Users/josh_fleming/AppData/LocalLow/DefaultCompany/DJI Drone Sim\BenchmarkRuns\session_20260402_133209,20260402_133253_run006,6,climb,climb,5,Normal,settle,1.5,1,1.5,161,3.239997,0,4.390182,40,0,0.086926,0,0,0,0,0.086926,0,0,0,0,0,0,0,0
session_20260402_133209,C:/Users/josh_fleming/AppData/LocalLow/DefaultCompany/DJI Drone Sim\BenchmarkRuns\session_20260402_133209,20260402_133253_run006,6,climb,climb,5,Normal,settle,1.5,1,1.5,162,3.259997,0,4.391754,40,0,0.078581,0,0,0,0,0.078581,0,0,0,0,0,0,0,0
session_20260402_133209,C:/Users/josh_fleming/AppData/LocalLow/DefaultCompany/DJI Drone Sim\BenchmarkRuns\session_20260402_133209,20260402_133253_run006,6,climb,climb,5,Normal,settle,1.5,1,1.5,163,3.279997,0,4.393175,40,0,0.071038,0,0,0,0,0.071038,0,0,0,0,0,0,0,0
session_20260402_133209,C:/Users/josh_fleming/AppData/LocalLow/DefaultCompany/DJI Drone Sim\BenchmarkRuns\session_20260402_133209,20260402_133253_run006,6,climb,climb,5,Normal,settle,1.5,1,1.5,164,3.299997,0,4.394459,40,0,0.064218,0,0,0,0,0.064218,0,0,0,0,0,0,0,0
session_20260402_133209,C:/Users/josh_fleming/AppData/LocalLow/DefaultCompany/DJI Drone Sim\BenchmarkRuns\session_20260402_133209,20260402_133253_run006,6,climb,climb,5,Normal,settle,1.5,1,1.5,165,3.319997,0,4.39562,40,0,0.058053,0,0,0,0,0.058053,0,0,0,0,0,0,0,0
session_20260402_133209,C:/Users/josh_fleming/AppData/LocalLow/DefaultCompany/DJI Drone Sim\BenchmarkRuns\session_20260402_133209,20260402_133253_run006,6,climb,climb,5,Normal,settle,1.5,1,1.5,166,3.339997,0,4.39667,40,0,0.05248,0,0,0,0,0.05248,0,0,0,0,0,0,0,0
session_20260402_133209,C:/Users/josh_fleming/AppData/LocalLow/DefaultCompany/DJI Drone Sim\BenchmarkRuns\session_20260402_133209,20260402_133253_run006,6,climb,climb,5,Normal,settle,1.5,1,1.5,167,3.359997,0,4.397619,40,0,0.047442,0,0,0,0,0.047442,0,0,0,0,0,0,0,0
session_20260402_133209,C:/Users/josh_fleming/AppData/LocalLow/DefaultCompany/DJI Drone Sim\BenchmarkRuns\session_20260402_133209,20260402_133253_run006,6,climb,climb,5,Normal,settle,1.5,1,1.5,168,3.379997,0,4.398477,40,0,0.042887,0,0,0,0,0.042887,0,0,0,0,0,0,0,0
session_20260402_133209,C:/Users/josh_fleming/AppData/LocalLow/DefaultCompany/DJI Drone Sim\BenchmarkRuns\session_20260402_133209,20260402_133253_run006,6,climb,climb,5,Normal,settle,1.5,1,1.5,169,3.399997,0,4.399252,40,0,0.03877,0,0,0,0,0.03877,0,0,0,0,0,0,0,0
session_20260402_133209,C:/Users/josh_fleming/AppData/LocalLow/DefaultCompany/DJI Drone Sim\BenchmarkRuns\session_20260402_133209,20260402_133253_run006,6,climb,climb,5,Normal,settle,1.5,1,1.5,170,3.419997,0,4.399953,40,0,0.035048,0,0,0,0,0.035048,0,0,0,0,0,0,0,0
session_20260402_133209,C:/Users/josh_fleming/AppData/LocalLow/DefaultCompany/DJI Drone Sim\BenchmarkRuns\session_20260402_133209,20260402_133253_run006,6,climb,climb,5,Normal,settle,1.5,1,1.5,171,3.439997,0,4.400587,40,0,0.031684,0,0,0,0,0.031684,0,0,0,0,0,0,0,0
session_20260402_133209,C:/Users/josh_fleming/AppData/LocalLow/DefaultCompany/DJI Drone Sim\BenchmarkRuns\session_20260402_133209,20260402_133253_run006,6,climb,climb,5,Normal,settle,1.5,1,1.5,172,3.459997,0,4.401159,40,0,0.028642,0,0,0,0,0.028642,0,0,0,0,0,0,0,0
session_20260402_133209,C:/Users/josh_fleming/AppData/LocalLow/DefaultCompany/DJI Drone Sim\BenchmarkRuns\session_20260402_133209,20260402_133253_run006,6,climb,climb,5,Normal,settle,1.5,1,1.5,173,3.479997,0,4.401677,40,0,0.025892,0,0,0,0,0.025892,0,0,0,0,0,0,0,0
session_20260402_133209,C:/Users/josh_fleming/AppData/LocalLow/DefaultCompany/DJI Drone Sim\BenchmarkRuns\session_20260402_133209,20260402_133253_run006,6,climb,climb,5,Normal,settle,1.5,1,1.5,174,3.499997,0,4.402145,40,0,0.023407,0,0,0,0,0.023407,0,0,0,0,0,0,0,0
session_20260402_133209,C:/Users/josh_fleming/AppData/LocalLow/DefaultCompany/DJI Drone Sim\BenchmarkRuns\session_20260402_133209,20260402_133253_run006,6,climb,climb,5,Normal,settle,1.5,1,1.5,175,3.519997,0,4.402569,40,0,0.02116,0,0,0,0,0.02116,0,0,0,0,0,0,0,0
session_20260402_133209,C:/Users/josh_fleming/AppData/LocalLow/DefaultCompany/DJI Drone Sim\BenchmarkRuns\session_20260402_133209,20260402_133253_run006,6,climb,climb,5,Normal,settle,1.5,1,1.5,176,3.539997,0,4.402951,40,0,0.019128,0,0,0,0,0.019128,0,0,0,0,0,0,0,0
session_20260402_133209,C:/Users/josh_fleming/AppData/LocalLow/DefaultCompany/DJI Drone Sim\BenchmarkRuns\session_20260402_133209,20260402_133253_run006,6,climb,climb,5,Normal,settle,1.5,1,1.5,177,3.559997,0,4.403297,40,0,0.017292,0,0,0,0,0.017292,0,0,0,0,0,0,0,0
session_20260402_133209,C:/Users/josh_fleming/AppData/LocalLow/DefaultCompany/DJI Drone Sim\BenchmarkRuns\session_20260402_133209,20260402_133253_run006,6,climb,climb,5,Normal,settle,1.5,1,1.5,178,3.579997,0,4.40361,40,0,0.015632,0,0,0,0,0.015632,0,0,0,0,0,0,0,0
session_20260402_133209,C:/Users/josh_fleming/AppData/LocalLow/DefaultCompany/DJI Drone Sim\BenchmarkRuns\session_20260402_133209,20260402_133253_run006,6,climb,climb,5,Normal,settle,1.5,1,1.5,179,3.599997,0,4.403893,40,0,0.014131,0,0,0,0,0.014131,0,0,0,0,0,0,0,0
session_20260402_133209,C:/Users/josh_fleming/AppData/LocalLow/DefaultCompany/DJI Drone Sim\BenchmarkRuns\session_20260402_133209,20260402_133253_run006,6,climb,climb,5,Normal,settle,1.5,1,1.5,180,3.619997,0,4.404148,40,0,0.012775,0,0,0,0,0.012775,0,0,0,0,0,0,0,0
session_20260402_133209,C:/Users/josh_fleming/AppData/LocalLow/DefaultCompany/DJI Drone Sim\BenchmarkRuns\session_20260402_133209,20260402_133253_run006,6,climb,climb,5,Normal,settle,1.5,1,1.5,181,3.639997,0,4.404379,40,0,0.011548,0,0,0,0,0.011548,0,0,0,0,0,0,0,0
session_20260402_133209,C:/Users/josh_fleming/AppData/LocalLow/DefaultCompany/DJI Drone Sim\BenchmarkRuns\session_20260402_133209,20260402_133253_run006,6,climb,climb,5,Normal,settle,1.5,1,1.5,182,3.659997,0,4.404588,40,0,0.01044,0,0,0,0,0.01044,0,0,0,0,0,0,0,0
session_20260402_133209,C:/Users/josh_fleming/AppData/LocalLow/DefaultCompany/DJI Drone Sim\BenchmarkRuns\session_20260402_133209,20260402_133253_run006,6,climb,climb,5,Normal,settle,1.5,1,1.5,183,3.679997,0,4.404777,40,0,0.009438,0,0,0,0,0.009438,0,0,0,0,0,0,0,0
session_20260402_133209,C:/Users/josh_fleming/AppData/LocalLow/DefaultCompany/DJI Drone Sim\BenchmarkRuns\session_20260402_133209,20260402_133253_run006,6,climb,climb,5,Normal,settle,1.5,1,1.5,184,3.699997,0,4.404947,40,0,0.008532,0,0,0,0,0.008532,0,0,0,0,0,0,0,0
session_20260402_133209,C:/Users/josh_fleming/AppData/LocalLow/DefaultCompany/DJI Drone Sim\BenchmarkRuns\session_20260402_133209,20260402_133253_run006,6,climb,climb,5,Normal,settle,1.5,1,1.5,185,3.719997,0,4.405101,40,0,0.007713,0,0,0,0,0.007713,0,0,0,0,0,0,0,0
session_20260402_133209,C:/Users/josh_fleming/AppData/LocalLow/DefaultCompany/DJI Drone Sim\BenchmarkRuns\session_20260402_133209,20260402_133253_run006,6,climb,climb,5,Normal,settle,1.5,1,1.5,186,3.739997,0,4.405241,40,0,0.006972,0,0,0,0,0.006972,0,0,0,0,0,0,0,0
session_20260402_133209,C:/Users/josh_fleming/AppData/LocalLow/DefaultCompany/DJI Drone Sim\BenchmarkRuns\session_20260402_133209,20260402_133253_run006,6,climb,climb,5,Normal,settle,1.5,1,1.5,187,3.759997,0,4.405366,40,0,0.006303,0,0,0,0,0.006303,0,0,0,0,0,0,0,0
session_20260402_133209,C:/Users/josh_fleming/AppData/LocalLow/DefaultCompany/DJI Drone Sim\BenchmarkRuns\session_20260402_133209,20260402_133253_run006,6,climb,climb,5,Normal,settle,1.5,1,1.5,188,3.779997,0,4.40548,40,0,0.005698,0,0,0,0,0.005698,0,0,0,0,0,0,0,0
session_20260402_133209,C:/Users/josh_fleming/AppData/LocalLow/DefaultCompany/DJI Drone Sim\BenchmarkRuns\session_20260402_133209,20260402_133253_run006,6,climb,climb,5,Normal,settle,1.5,1,1.5,189,3.799997,0,4.405583,40,0,0.005151,0,0,0,0,0.005151,0,0,0,0,0,0,0,0
session_20260402_133209,C:/Users/josh_fleming/AppData/LocalLow/DefaultCompany/DJI Drone Sim\BenchmarkRuns\session_20260402_133209,20260402_133253_run006,6,climb,climb,5,Normal,settle,1.5,1,1.5,190,3.819997,0,4.405676,40,0,0.004656,0,0,0,0,0.004656,0,0,0,0,0,0,0,0
session_20260402_133209,C:/Users/josh_fleming/AppData/LocalLow/DefaultCompany/DJI Drone Sim\BenchmarkRuns\session_20260402_133209,20260402_133253_run006,6,climb,climb,5,Normal,settle,1.5,1,1.5,191,3.839997,0,4.405761,40,0,0.004209,0,0,0,0,0.004209,0,0,0,0,0,0,0,0
session_20260402_133209,C:/Users/josh_fleming/AppData/LocalLow/DefaultCompany/DJI Drone Sim\BenchmarkRuns\session_20260402_133209,20260402_133253_run006,6,climb,climb,5,Normal,settle,1.5,1,1.5,192,3.859997,0,4.405837,40,0,0.003805,0,0,0,0,0.003805,0,0,0,0,0,0,0,0
session_20260402_133209,C:/Users/josh_fleming/AppData/LocalLow/DefaultCompany/DJI Drone Sim\BenchmarkRuns\session_20260402_133209,20260402_133253_run006,6,climb,climb,5,Normal,settle,1.5,1,1.5,193,3.879997,0,4.405906,40,0,0.00344,0,0,0,0,0.00344,0,0,0,0,0,0,0,0
session_20260402_133209,C:/Users/josh_fleming/AppData/LocalLow/DefaultCompany/DJI Drone Sim\BenchmarkRuns\session_20260402_133209,20260402_133253_run006,6,climb,climb,5,Normal,settle,1.5,1,1.5,194,3.899997,0,4.405968,40,0,0.00311,0,0,0,0,0.00311,0,0,0,0,0,0,0,0
session_20260402_133209,C:/Users/josh_fleming/AppData/LocalLow/DefaultCompany/DJI Drone Sim\BenchmarkRuns\session_20260402_133209,20260402_133253_run006,6,climb,climb,5,Normal,settle,1.5,1,1.5,195,3.919997,0,4.406024,40,0,0.002811,0,0,0,0,0.002811,0,0,0,0,0,0,0,0
session_20260402_133209,C:/Users/josh_fleming/AppData/LocalLow/DefaultCompany/DJI Drone Sim\BenchmarkRuns\session_20260402_133209,20260402_133253_run006,6,climb,climb,5,Normal,settle,1.5,1,1.5,196,3.939996,0,4.406075,40,0,0.002541,0,0,0,0,0.002541,0,0,0,0,0,0,0,0
session_20260402_133209,C:/Users/josh_fleming/AppData/LocalLow/DefaultCompany/DJI Drone Sim\BenchmarkRuns\session_20260402_133209,20260402_133253_run006,6,climb,climb,5,Normal,settle,1.5,1,1.5,197,3.959996,0,4.406121,40,0,0.002297,0,0,0,0,0.002297,0,0,0,0,0,0,0,0
session_20260402_133209,C:/Users/josh_fleming/AppData/LocalLow/DefaultCompany/DJI Drone Sim\BenchmarkRuns\session_20260402_133209,20260402_133253_run006,6,climb,climb,5,Normal,settle,1.5,1,1.5,198,3.979996,0,4.406162,40,0,0.002077,0,0,0,0,0.002077,0,0,0,0,0,0,0,0
session_20260402_133209,C:/Users/josh_fleming/AppData/LocalLow/DefaultCompany/DJI Drone Sim\BenchmarkRuns\session_20260402_133209,20260402_133253_run006,6,climb,climb,5,Normal,settle,1.5,1,1.5,199,3.999996,0,4.4062,40,0,0.001877,0,0,0,0,0.001877,0,0,0,0,0,0,0,0
session_20260402_133209,C:/Users/josh_fleming/AppData/LocalLow/DefaultCompany/DJI Drone Sim\BenchmarkRuns\session_20260402_133209,20260402_133253_run006,6,climb,climb,5,Normal,settle,1.5,1,1.5,200,4.019997,0,4.406234,40,0,0.001697,0,0,0,0,0.001697,0,0,0,0,0,0,0,0
session_20260402_133209,C:/Users/josh_fleming/AppData/LocalLow/DefaultCompany/DJI Drone Sim\BenchmarkRuns\session_20260402_133209,20260402_133253_run006,6,climb,climb,5,Normal,settle,1.5,1,1.5,201,4.039997,0,4.406264,40,0,0.001534,0,0,0,0,0.001534,0,0,0,0,0,0,0,0
session_20260402_133209,C:/Users/josh_fleming/AppData/LocalLow/DefaultCompany/DJI Drone Sim\BenchmarkRuns\session_20260402_133209,20260402_133253_run006,6,climb,climb,5,Normal,settle,1.5,1,1.5,202,4.059997,0,4.406292,40,0,0.001387,0,0,0,0,0.001387,0,0,0,0,0,0,0,0
