session_id,session_dir,run_label,run_number,maneuver_name,protocol_category,protocol_order,maneuver_mode,benchmark_phase,maneuver_preroll_s,maneuver_duration_s,maneuver_settle_s,sample_index,time_s,pos_x_m,pos_y_m,pos_z_m,vel_x_mps,vel_y_mps,vel_z_mps,forward_speed_mps,lateral_speed_mps,horizontal_speed_mps,vertical_speed_mps,yaw_deg,pitch_deg,roll_deg,yaw_rate_degps,input_roll,input_pitch,input_throttle,input_yaw
session_20260402_133209,C:/Users/josh_fleming/AppData/LocalLow/DefaultCompany/DJI Drone Sim\BenchmarkRuns\session_20260402_133209,20260402_133241_run003,3,forward_step,forward_step,2,Normal,preroll,1.5,1,1.5,0,0.02,0,1.996076,40,0,-0.1962,0,0,0,0,-0.1962,0,0,0,0,0,0,0,0
session_20260402_133209,C:/Users/josh_fleming/AppData/LocalLow/DefaultCompany/DJI Drone Sim\BenchmarkRuns\session_20260402_133209,20260402_133241_run003,3,forward_step,forward_step,2,Normal,preroll,1.5,1,1.5,1,0.04,0,1.992529,40,0,-0.177365,0,0,0,0,-0.177365,0,0,0,0,0,0,0,0
session_20260402_133209,C:/Users/josh_fleming/AppData/LocalLow/DefaultCompany/DJI Drone Sim\BenchmarkRuns\session_20260402_133209,20260402_133241_run003,3,forward_step,forward_step,2,Normal,preroll,1.5,1,1.5,2,0.06,0,1.989322,40,0,-0.160338,0,0,0,0,-0.160338,0,0,0,0,0,0,0,0
session_20260402_133209,C:/Users/josh_fleming/AppData/LocalLow/DefaultCompany/DJI Drone Sim\BenchmarkRuns\session_20260402_133209,20260402_133241_run003,3,forward_step,forward_step,2,Normal,preroll,1.5,1,1.5,3,0.08,0,1.986423,40,0,-0.144945,0,0,0,0,-0.144945,0,0,0,0,0,0,0,0
session_20260402_133209,C:/Users/josh_fleming/AppData/LocalLow/DefaultCompany/DJI Drone Sim\BenchmarkRuns\session_20260402_133209,20260402_133241_run003,3,forward_step,forward_step,2,Normal,preroll,1.5,1,1.5,4,0.1,0,1.983802,40,0,-0.131031,0,0,0,0,-0.131031,0,0,0,0,0,0,0,0
session_20260402_133209,C:/Users/josh_fleming/AppData/LocalLow/DefaultCompany/DJI Drone Sim\BenchmarkRuns\session_20260402_133209,20260402_133241_run003,3,forward_step,forward_step,2,Normal,preroll,1.5,1,1.5,5,0.12,0,1.981433,40,0,-0.118452,0,0,0,0,-0.118452,0,0,0,0,0,0,0,0
session_20260402_133209,C:/Users/josh_fleming/AppData/LocalLow/DefaultCompany/DJI Drone Sim\BenchmarkRuns\session_20260402_133209,20260402_133241_run003,3,forward_step,forward_step,2,Normal,preroll,1.5,1,1.5,6,0.14,0,1.979292,40,0,-0.10708,0,0,0,0,-0.10708,0,0,0,0,0,0,0,0
session_20260402_133209,C:/Users/josh_fleming/AppData/LocalLow/DefaultCompany/DJI Drone Sim\BenchmarkRuns\session_20260402_133209,20260402_133241_run003,3,forward_step,forward_step,2,Normal,preroll,1.5,1,1.5,7,0.16,0,1.977356,40,0,-0.0968,0,0,0,0,-0.0968,0,0,0,0,0,0,0,0
session_20260402_133209,C:/Users/josh_fleming/AppData/LocalLow/DefaultCompany/DJI Drone Sim\BenchmarkRuns\session_20260402_133209,20260402_133241_run003,3,forward_step,forward_step,2,Normal,preroll,1.5,1,1.5,8,0.18,0,1.975606,40,0,-0.087508,0,0,0,0,-0.087508,0,0,0,0,0,0,0,0
session_20260402_133209,C:/Users/josh_fleming/AppData/LocalLow/DefaultCompany/DJI Drone Sim\BenchmarkRuns\session_20260402_133209,20260402_133241_run003,3,forward_step,forward_step,2,Normal,preroll,1.5,1,1.5,9,0.2,0,1.974024,40,0,-0.079107,0,0,0,0,-0.079107,0,0,0,0,0,0,0,0
session_20260402_133209,C:/Users/josh_fleming/AppData/LocalLow/DefaultCompany/DJI Drone Sim\BenchmarkRuns\session_20260402_133209,20260402_133241_run003,3,forward_step,forward_step,2,Normal,preroll,1.5,1,1.5,10,0.22,0,1.972593,40,0,-0.071513,0,0,0,0,-0.071513,0,0,0,0,0,0,0,0
session_20260402_133209,C:/Users/josh_fleming/AppData/LocalLow/DefaultCompany/DJI Drone Sim\BenchmarkRuns\session_20260402_133209,20260402_133241_run003,3,forward_step,forward_step,2,Normal,preroll,1.5,1,1.5,11,0.24,0,1.9713,40,0,-0.064647,0,0,0,0,-0.064647,0,0,0,0,0,0,0,0
session_20260402_133209,C:/Users/josh_fleming/AppData/LocalLow/DefaultCompany/DJI Drone Sim\BenchmarkRuns\session_20260402_133209,20260402_133241_run003,3,forward_step,forward_step,2,Normal,preroll,1.5,1,1.5,12,0.26,0,1.970132,40,0,-0.058441,0,0,0,0,-0.058441,0,0,0,0,0,0,0,0
session_20260402_133209,C:/Users/josh_fleming/AppData/LocalLow/DefaultCompany/DJI Drone Sim\BenchmarkRuns\session_20260402_133209,20260402_133241_run003,3,forward_step,forward_step,2,Normal,preroll,1.5,1,1.5,13,0.28,0,1.969075,40,0,-0.052831,0,0,0,0,-0.052831,0,0,0,0,0,0,0,0
session_20260402_133209,C:/Users/josh_fleming/AppData/LocalLow/DefaultCompany/DJI Drone Sim\BenchmarkRuns\session_20260402_133209,20260402_133241_run003,3,forward_step,forward_step,2,Normal,preroll,1.5,1,1.5,14,0.3,0,1.96812,40,0,-0.047759,0,0,0,0,-0.047759,0,0,0,0,0,0,0,0
session_20260402_133209,C:/Users/josh_fleming/AppData/LocalLow/DefaultCompany/DJI Drone Sim\BenchmarkRuns\session_20260402_133209,20260402_133241_run003,3,forward_step,forward_step,2,Normal,preroll,1.5,1,1.5,15,0.32,0,1.967256,40,0,-0.043174,0,0,0,0,-0.043174,0,0,0,0,0,0,0,0
session_20260402_133209,C:/Users/josh_fleming/AppData/LocalLow/DefaultCompany/DJI Drone Sim\BenchmarkRuns\session_20260402_133209,20260402_133241_run003,3,forward_step,forward_step,2,Normal,preroll,1.5,1,1.5,16,0.34,0,1.966476,40,0,-0.039029,0,0,0,0,-0.039029,0,0,0,0,0,0,0,0
session_20260402_133209,C:/Users/josh_fleming/AppData/LocalLow/DefaultCompany/DJI Drone Sim\BenchmarkRuns\session_20260402_133209,20260402_133241_run003,3,forward_step,forward_step,2,Normal,preroll,1.5,1,1.5,17,0.36,0,1.96577,40,0,-0.035283,0,0,0,0,-0.035283,0,0,0,0,0,0,0,0
session_20260402_133209,C:/Users/josh_fleming/AppData/LocalLow/DefaultCompany/DJI Drone Sim\BenchmarkRuns\session_20260402_133209,20260402_133241_run003,3,forward_step,forward_step,2,Normal,preroll,1.5,1,1.5,18,0.38,0,1.965132,40,0,-0.031896,0,0,0,0,-0.031896,0,0,0,0,0,0,0,0
session_20260402_133209,C:/Users/josh_fleming/AppData/LocalLow/DefaultCompany/DJI Drone Sim\BenchmarkRuns\session_20260402_133209,20260402_133241_run003,3,forward_step,forward_step,2,Normal,preroll,1.5,1,1.5,19,0.4,0,1.964556,40,0,-0.028834,0,0,0,0,-0.028834,0,0,0,0,0,0,0,0
session_20260402_133209,C:/Users/josh_fleming/AppData/LocalLow/DefaultCompany/DJI Drone Sim\BenchmarkRuns\session_20260402_133209,20260402_133241_run003,3,forward_step,forward_step,2,Normal,preroll,1.5,1,1.5,20,0.42,0,1.964034,40,0,-0.026066,0,0,0,0,-0.026066,0,0,0,0,0,0,0,0
session_20260402_133209,C:/Users/josh_fleming/AppData/LocalLow/DefaultCompany/DJI Drone Sim\BenchmarkRuns\session_20260402_133209,20260402_133241_run003,3,forward_step,forward_step,2,Normal,preroll,1.5,1,1.5,21,0.44,0,1.963563,40,0,-0.023563,0,0,0,0,-0.023563,0,0,0,0,0,0,0,0
session_20260402_133209,C:/Users/josh_fleming/AppData/LocalLow/DefaultCompany/DJI Drone Sim\BenchmarkRuns\session_20260402_133209,20260402_133241_run003,3,forward_step,forward_step,2,Normal,preroll,1.5,1,1.5,22,0.46,0,1.963137,40,0,-0.021301,0,0,0,0,-0.021301,0,0,0,0,0,0,0,0
session_20260402_133209,C:/Users/josh_fleming/AppData/LocalLow/DefaultCompany/DJI Drone Sim\BenchmarkRuns\session_20260402_133209,20260402_133241_run003,3,forward_step,forward_step,2,Normal,preroll,1.5,1,1.5,23,0.48,0,1.962752,40,0,-0.019256,0,0,0,0,-0.019256,0,0,0,0,0,0,0,0
session_20260402_133209,C:/Users/josh_fleming/AppData/LocalLow/DefaultCompany/DJI Drone Sim\BenchmarkRuns\session_20260402_133209,20260402_133241_run003,3,forward_step,forward_step,2,Normal,preroll,1.5,1,1.5,24,0.5,0,1.962404,40,0,-0.017408,0,0,0,0,-0.017408,0,0,0,0,0,0,0,0
session_20260402_133209,C:/Users/josh_fleming/AppData/LocalLow/DefaultCompany/DJI Drone Sim\BenchmarkRuns\session_20260402_133209,20260402_133241_run003,3,forward_step,forward_step,2,Normal,preroll,1.5,1,1.5,25,0.52,0,1.962089,40,0,-0.015736,0,0,0,0,-0.015736,0,0,0,0,0,0,0,0
session_20260402_133209,C:/Users/josh_fleming/AppData/LocalLow/DefaultCompany/DJI Drone Sim\BenchmarkRuns\session_20260402_133209,20260402_133241_run003,3,forward_step,forward_step,2,Normal,preroll,1.5,1,1.5,26,0.54,0,1.961804,40,0,-0.014226,0,0,0,0,-0.014226,0,0,0,0,0,0,0,0
session_20260402_133209,C:/Users/josh_fleming/AppData/LocalLow/DefaultCompany/DJI Drone Sim\BenchmarkRuns\session_20260402_133209,20260402_133241_run003,3,forward_step,forward_step,2,Normal,preroll,1.5,1,1.5,27,0.56,0,1.961547,40,0,-0.01286,0,0,0,0,-0.01286,0,0,0,0,0,0,0,0
session_20260402_133209,C:/Users/josh_fleming/AppData/LocalLow/DefaultCompany/DJI Drone Sim\BenchmarkRuns\session_20260402_133209,20260402_133241_run003,3,forward_step,forward_step,2,Normal,preroll,1.5,1,1.5,28,0.58,0,1.961315,40,0,-0.011626,0,0,0,0,-0.011626,0,0,0,0,0,0,0,0
session_20260402_133209,C:/Users/josh_fleming/AppData/LocalLow/DefaultCompany/DJI Drone Sim\BenchmarkRuns\session_20260402_133209,20260402_133241_run003,3,forward_step,forward_step,2,Normal,preroll,1.5,1,1.5,29,0.6,0,1.961104,40,0,-0.010509,0,0,0,0,-0.010509,0,0,0,0,0,0,0,0
session_20260402_133209,C:/Users/josh_fleming/AppData/LocalLow/DefaultCompany/DJI Drone Sim\BenchmarkRuns\session_20260402_133209,20260402_133241_run003,3,forward_step,forward_step,2,Normal,preroll,1.5,1,1.5,30,0.62,0,1.960914,40,0,-0.009501,0,0,0,0,-0.009501,0,0,0,0,0,0,0,0
session_20260402_133209,C:/Users/josh_fleming/AppData/LocalLow/DefaultCompany/DJI Drone Sim\BenchmarkRuns\session_20260402_133209,20260402_133241_run003,3,forward_step,forward_step,2,Normal,preroll,1.5,1,1.5,31,0.64,0,1.960743,40,0,-0.008588,0,0,0,0,-0.008588,0,0,0,0,0,0,0,0
session_20260402_133209,C:/Users/josh_fleming/AppData/LocalLow/DefaultCompany/DJI Drone Sim\BenchmarkRuns\session_20260402_133209,20260402_133241_run003,3,forward_step,forward_step,2,Normal,preroll,1.5,1,1.5,32,0.66,0,1.960587,40,0,-0.007764,0,0,0,0,-0.007764,0,0,0,0,0,0,0,0
session_20260402_133209,C:/Users/josh_fleming/AppData/LocalLow/DefaultCompany/DJI Drone Sim\BenchmarkRuns\session_20260402_133209,20260402_133241_run003,3,forward_step,forward_step,2,Normal,preroll,1.5,1,1.5,33,0.68,0,1.960447,40,0,-0.007019,0,0,0,0,-0.007019,0,0,0,0,0,0,0,0
session_20260402_133209,C:/Users/josh_fleming/AppData/LocalLow/DefaultCompany/DJI Drone Sim\BenchmarkRuns\session_20260402_133209,20260402_133241_run003,3,forward_step,forward_step,2,Normal,preroll,1.5,1,1.5,34,0.7,0,1.96032,40,0,-0.006345,0,0,0,0,-0.006345,0,0,0,0,0,0,0,0
session_20260402_133209,C:/Users/josh_fleming/AppData/LocalLow/DefaultCompany/DJI Drone Sim\BenchmarkRuns\session_20260402_133209,20260402_133241_run003,3,forward_step,forward_step,2,Normal,preroll,1.5,1,1.5,35,0.72,0,1.960205,40,0,-0.005736,0,0,0,0,-0.005736,0,0,0,0,0,0,0,0
session_20260402_133209,C:/Users/josh_fleming/AppData/LocalLow/DefaultCompany/DJI Drone Sim\BenchmarkRuns\session_20260402_133209,20260402_133241_run003,3,forward_step,forward_step,2,Normal,preroll,1.5,1,1.5,36,0.74,0,1.960102,40,0,-0.005185,0,0,0,0,-0.005185,0,0,0,0,0,0,0,0
session_20260402_133209,C:/Users/josh_fleming/AppData/LocalLow/DefaultCompany/DJI Drone Sim\BenchmarkRuns\session_20260402_133209,20260402_133241_run003,3,forward_step,forward_step,2,Normal,preroll,1.5,1,1.5,37,0.76,0,1.960008,40,0,-0.004687,0,0,0,0,-0.004687,0,0,0,0,0,0,0,0
session_20260402_133209,C:/Users/josh_fleming/AppData/LocalLow/DefaultCompany/DJI Drone Sim\BenchmarkRuns\session_20260402_133209,20260402_133241_run003,3,forward_step,forward_step,2,Normal,preroll,1.5,1,1.5,38,0.779999,0,1.959923,40,0,-0.004237,0,0,0,0,-0.004237,0,0,0,0,0,0,0,0
session_20260402_133209,C:/Users/josh_fleming/AppData/LocalLow/DefaultCompany/DJI Drone Sim\BenchmarkRuns\session_20260402_133209,20260402_133241_run003,3,forward_step,forward_step,2,Normal,preroll,1.5,1,1.5,39,0.799999,0,1.959846,40,0,-0.003831,0,0,0,0,-0.003831,0,0,0,0,0,0,0,0
session_20260402_133209,C:/Users/josh_fleming/AppData/LocalLow/DefaultCompany/DJI Drone Sim\BenchmarkRuns\session_20260402_133209,20260402_133241_run003,3,forward_step,forward_step,2,Normal,preroll,1.5,1,1.5,40,0.819999,0,1.959777,40,0,-0.003463,0,0,0,0,-0.003463,0,0,0,0,0,0,0,0
session_20260402_133209,C:/Users/josh_fleming/AppData/LocalLow/DefaultCompany/DJI Drone Sim\BenchmarkRuns\session_20260402_133209,20260402_133241_run003,3,forward_step,forward_step,2,Normal,preroll,1.5,1,1.5,41,0.839999,0,1.959715,40,0,-0.00313,0,0,0,0,-0.00313,0,0,0,0,0,0,0,0
session_20260402_133209,C:/Users/josh_fleming/AppData/LocalLow/DefaultCompany/DJI Drone Sim\BenchmarkRuns\session_20260402_133209,20260402_133241_run003,3,forward_step,forward_step,2,Normal,preroll,1.5,1,1.5,42,0.859999,0,1.959658,40,0,-0.00283,0,0,0,0,-0.00283,0,0,0,0,0,0,0,0
session_20260402_133209,C:/Users/josh_fleming/AppData/LocalLow/DefaultCompany/DJI Drone Sim\BenchmarkRuns\session_20260402_133209,20260402_133241_run003,3,forward_step,forward_step,2,Normal,preroll,1.5,1,1.5,43,0.879999,0,1.959607,40,0,-0.002558,0,0,0,0,-0.002558,0,0,0,0,0,0,0,0
session_20260402_133209,C:/Users/josh_fleming/AppData/LocalLow/DefaultCompany/DJI Drone Sim\BenchmarkRuns\session_20260402_133209,20260402_133241_run003,3,forward_step,forward_step,2,Normal,preroll,1.5,1,1.5,44,0.899999,0,1.959561,40,0,-0.002313,0,0,0,0,-0.002313,0,0,0,0,0,0,0,0
session_20260402_133209,C:/Users/josh_fleming/AppData/LocalLow/DefaultCompany/DJI Drone Sim\BenchmarkRuns\session_20260402_133209,20260402_133241_run003,3,forward_step,forward_step,2,Normal,preroll,1.5,1,1.5,45,0.919999,0,1.959519,40,0,-0.002091,0,0,0,0,-0.002091,0,0,0,0,0,0,0,0
session_20260402_133209,C:/Users/josh_fleming/AppData/LocalLow/DefaultCompany/DJI Drone Sim\BenchmarkRuns\session_20260402_133209,20260402_133241_run003,3,forward_step,forward_step,2,Normal,preroll,1.5,1,1.5,46,0.939999,0,1.959481,40,0,-0.00189,0,0,0,0,-0.00189,0,0,0,0,0,0,0,0
session_20260402_133209,C:/Users/josh_fleming/AppData/LocalLow/DefaultCompany/DJI Drone Sim\BenchmarkRuns\session_20260402_133209,20260402_133241_run003,3,forward_step,forward_step,2,Normal,preroll,1.5,1,1.5,47,0.959999,0,1.959447,40,0,-0.001708,0,0,0,0,-0.001708,0,0,0,0,0,0,0,0
session_20260402_133209,C:/Users/josh_fleming/AppData/LocalLow/DefaultCompany/DJI Drone Sim\BenchmarkRuns\session_20260402_133209,20260402_133241_run003,3,forward_step,forward_step,2,Normal,preroll,1.5,1,1.5,48,0.979999,0,1.959416,40,0,-0.001544,0,0,0,0,-0.001544,0,0,0,0,0,0,0,0
session_20260402_133209,C:/Users/josh_fleming/AppData/LocalLow/DefaultCompany/DJI Drone Sim\BenchmarkRuns\session_20260402_133209,20260402_133241_run003,3,forward_step,forward_step,2,Normal,preroll,1.5,1,1.5,49,0.999999,0,1.959388,40,0,-0.001396,0,0,0,0,-0.001396,0,0,0,0,0,0,0,0
session_20260402_133209,C:/Users/josh_fleming/AppData/LocalLow/DefaultCompany/DJI Drone Sim\BenchmarkRuns\session_20260402_133209,20260402_133241_run003,3,forward_step,forward_step,2,Normal,preroll,1.5,1,1.5,50,1.019999,0,1.959363,40,0,-0.001262,0,0,0,0,-0.001262,0,0,0,0,0,0,0,0
session_20260402_133209,C:/Users/josh_fleming/AppData/LocalLow/DefaultCompany/DJI Drone Sim\BenchmarkRuns\session_20260402_133209,20260402_133241_run003,3,forward_step,forward_step,2,Normal,preroll,1.5,1,1.5,51,1.039999,0,1.95934,40,0,-0.001141,0,0,0,0,-0.001141,0,0,0,0,0,0,0,0
session_20260402_133209,C:/Users/josh_fleming/AppData/LocalLow/DefaultCompany/DJI Drone Sim\BenchmarkRuns\session_20260402_133209,20260402_133241_run003,3,forward_step,forward_step,2,Normal,preroll,1.5,1,1.5,52,1.059999,0,1.959319,40,0,-0.001031,0,0,0,0,-0.001031,0,0,0,0,0,0,0,0
session_20260402_133209,C:/Users/josh_fleming/AppData/LocalLow/DefaultCompany/DJI Drone Sim\BenchmarkRuns\session_20260402_133209,20260402_133241_run003,3,forward_step,forward_step,2,Normal,preroll,1.5,1,1.5,53,1.079999,0,1.959301,40,0,-0.000932,0,0,0,0,-0.000932,0,0,0,0,0,0,0,0
session_20260402_133209,C:/Users/josh_fleming/AppData/LocalLow/DefaultCompany/DJI Drone Sim\BenchmarkRuns\session_20260402_133209,20260402_133241_run003,3,forward_step,forward_step,2,Normal,preroll,1.5,1,1.5,54,1.099999,0,1.959284,40,0,-0.000843,0,0,0,0,-0.000843,0,0,0,0,0,0,0,0
session_20260402_133209,C:/Users/josh_fleming/AppData/LocalLow/DefaultCompany/DJI Drone Sim\BenchmarkRuns\session_20260402_133209,20260402_133241_run003,3,forward_step,forward_step,2,Normal,preroll,1.5,1,1.5,55,1.119999,0,1.959269,40,0,-0.000762,0,0,0,0,-0.000762,0,0,0,0,0,0,0,0
session_20260402_133209,C:/Users/josh_fleming/AppData/LocalLow/DefaultCompany/DJI Drone Sim\BenchmarkRuns\session_20260402_133209,20260402_133241_run003,3,forward_step,forward_step,2,Normal,preroll,1.5,1,1.5,56,1.139999,0,1.959255,40,0,-0.000689,0,0,0,0,-0.000689,0,0,0,0,0,0,0,0
session_20260402_133209,C:/Users/josh_fleming/AppData/LocalLow/DefaultCompany/DJI Drone Sim\BenchmarkRuns\session_20260402_133209,20260402_133241_run003,3,forward_step,forward_step,2,Normal,preroll,1.5,1,1.5,57,1.159999,0,1.959242,40,0,-0.000623,0,0,0,0,-0.000623,0,0,0,0,0,0,0,0
session_20260402_133209,C:/Users/josh_fleming/AppData/LocalLow/DefaultCompany/DJI Drone Sim\BenchmarkRuns\session_20260402_133209,20260402_133241_run003,3,forward_step,forward_step,2,Normal,preroll,1.5,1,1.5,58,1.179999,0,1.959231,40,0,-0.000563,0,0,0,0,-0.000563,0,0,0,0,0,0,0,0
session_20260402_133209,C:/Users/josh_fleming/AppData/LocalLow/DefaultCompany/DJI Drone Sim\BenchmarkRuns\session_20260402_133209,20260402_133241_run003,3,forward_step,forward_step,2,Normal,preroll,1.5,1,1.5,59,1.199999,0,1.959221,40,0,-0.000509,0,0,0,0,-0.000509,0,0,0,0,0,0,0,0
session_20260402_133209,C:/Users/josh_fleming/AppData/LocalLow/DefaultCompany/DJI Drone Sim\BenchmarkRuns\session_20260402_133209,20260402_133241_run003,3,forward_step,forward_step,2,Normal,preroll,1.5,1,1.5,60,1.219999,0,1.959212,40,0,-0.00046,0,0,0,0,-0.00046,0,0,0,0,0,0,0,0
session_20260402_133209,C:/Users/josh_fleming/AppData/LocalLow/DefaultCompany/DJI Drone Sim\BenchmarkRuns\session_20260402_133209,20260402_133241_run003,3,forward_step,forward_step,2,Normal,preroll,1.5,1,1.5,61,1.239999,0,1.959204,40,0,-0.000416,0,0,0,0,-0.000416,0,0,0,0,0,0,0,0
session_20260402_133209,C:/Users/josh_fleming/AppData/LocalLow/DefaultCompany/DJI Drone Sim\BenchmarkRuns\session_20260402_133209,20260402_133241_run003,3,forward_step,forward_step,2,Normal,preroll,1.5,1,1.5,62,1.259999,0,1.959196,40,0,-0.000376,0,0,0,0,-0.000376,0,0,0,0,0,0,0,0
session_20260402_133209,C:/Users/josh_fleming/AppData/LocalLow/DefaultCompany/DJI Drone Sim\BenchmarkRuns\session_20260402_133209,20260402_133241_run003,3,forward_step,forward_step,2,Normal,preroll,1.5,1,1.5,63,1.279999,0,1.959189,40,0,-0.00034,0,0,0,0,-0.00034,0,0,0,0,0,0,0,0
session_20260402_133209,C:/Users/josh_fleming/AppData/LocalLow/DefaultCompany/DJI Drone Sim\BenchmarkRuns\session_20260402_133209,20260402_133241_run003,3,forward_step,forward_step,2,Normal,preroll,1.5,1,1.5,64,1.299999,0,1.959183,40,0,-0.000307,0,0,0,0,-0.000307,0,0,0,0,0,0,0,0
session_20260402_133209,C:/Users/josh_fleming/AppData/LocalLow/DefaultCompany/DJI Drone Sim\BenchmarkRuns\session_20260402_133209,20260402_133241_run003,3,forward_step,forward_step,2,Normal,preroll,1.5,1,1.5,65,1.319999,0,1.959177,40,0,-0.000278,0,0,0,0,-0.000278,0,0,0,0,0,0,0,0
session_20260402_133209,C:/Users/josh_fleming/AppData/LocalLow/DefaultCompany/DJI Drone Sim\BenchmarkRuns\session_20260402_133209,20260402_133241_run003,3,forward_step,forward_step,2,Normal,preroll,1.5,1,1.5,66,1.339999,0,1.959172,40,0,-0.000251,0,0,0,0,-0.000251,0,0,0,0,0,0,0,0
session_20260402_133209,C:/Users/josh_fleming/AppData/LocalLow/DefaultCompany/DJI Drone Sim\BenchmarkRuns\session_20260402_133209,20260402_133241_run003,3,forward_step,forward_step,2,Normal,preroll,1.5,1,1.5,67,1.359999,0,1.959168,40,0,-0.000227,0,0,0,0,-0.000227,0,0,0,0,0,0,0,0
session_20260402_133209,C:/Users/josh_fleming/AppData/LocalLow/DefaultCompany/DJI Drone Sim\BenchmarkRuns\session_20260402_133209,20260402_133241_run003,3,forward_step,forward_step,2,Normal,preroll,1.5,1,1.5,68,1.379999,0,1.959164,40,0,-0.000205,0,0,0,0,-0.000205,0,0,0,0,0,0,0,0
session_20260402_133209,C:/Users/josh_fleming/AppData/LocalLow/DefaultCompany/DJI Drone Sim\BenchmarkRuns\session_20260402_133209,20260402_133241_run003,3,forward_step,forward_step,2,Normal,preroll,1.5,1,1.5,69,1.399999,0,1.95916,40,0,-0.000185,0,0,0,0,-0.000185,0,0,0,0,0,0,0,0
session_20260402_133209,C:/Users/josh_fleming/AppData/LocalLow/DefaultCompany/DJI Drone Sim\BenchmarkRuns\session_20260402_133209,20260402_133241_run003,3,forward_step,forward_step,2,Normal,preroll,1.5,1,1.5,70,1.419999,0,1.959157,40,0,-0.000168,0,0,0,0,-0.000168,0,0,0,0,0,0,0,0
session_20260402_133209,C:/Users/josh_fleming/AppData/LocalLow/DefaultCompany/DJI Drone Sim\BenchmarkRuns\session_20260402_133209,20260402_133241_run003,3,forward_step,forward_step,2,Normal,preroll,1.5,1,1.5,71,1.439999,0,1.959154,40,0,-0.000152,0,0,0,0,-0.000152,0,0,0,0,0,0,0,0
session_20260402_133209,C:/Users/josh_fleming/AppData/LocalLow/DefaultCompany/DJI Drone Sim\BenchmarkRuns\session_20260402_133209,20260402_133241_run003,3,forward_step,forward_step,2,Normal,preroll,1.5,1,1.5,72,1.459999,0,1.959151,40,0,-0.000137,0,0,0,0,-0.000137,0,0,0,0,0,0,0,0
session_20260402_133209,C:/Users/josh_fleming/AppData/LocalLow/DefaultCompany/DJI Drone Sim\BenchmarkRuns\session_20260402_133209,20260402_133241_run003,3,forward_step,forward_step,2,Normal,preroll,1.5,1,1.5,73,1.479999,0,1.959149,40,0,-0.000124,0,0,0,0,-0.000124,0,0,0,0,0,0,0,0
session_20260402_133209,C:/Users/josh_fleming/AppData/LocalLow/DefaultCompany/DJI Drone Sim\BenchmarkRuns\session_20260402_133209,20260402_133241_run003,3,forward_step,forward_step,2,Normal,preroll,1.5,1,1.5,74,1.499999,0,1.959146,40,0,-0.000112,0,0,0,0,-0.000112,0,0,0,0,0,0,0,0
session_20260402_133209,C:/Users/josh_fleming/AppData/LocalLow/DefaultCompany/DJI Drone Sim\BenchmarkRuns\session_20260402_133209,20260402_133241_run003,3,forward_step,forward_step,2,Normal,preroll,1.5,1,1.5,75,1.519999,0,1.959144,40,0,-0.000101,0,0,0,0,-0.000101,0,0,0,0,0,0,0,0
session_20260402_133209,C:/Users/josh_fleming/AppData/LocalLow/DefaultCompany/DJI Drone Sim\BenchmarkRuns\session_20260402_133209,20260402_133241_run003,3,forward_step,forward_step,2,Normal,input,1.5,1,1.5,76,1.539999,0,1.959143,40,0,-0.000091,0,0,0,0,-0.000091,0,0,0,0,0,0.77,0,0
session_20260402_133209,C:/Users/josh_fleming/AppData/LocalLow/DefaultCompany/DJI Drone Sim\BenchmarkRuns\session_20260402_133209,20260402_133241_run003,3,forward_step,forward_step,2,Normal,input,1.5,1,1.5,77,1.559999,0,1.959141,40,0,-0.000083,0,0,0,0,-0.000083,0,0,0,0,0,0.77,0,0
session_20260402_133209,C:/Users/josh_fleming/AppData/LocalLow/DefaultCompany/DJI Drone Sim\BenchmarkRuns\session_20260402_133209,20260402_133241_run003,3,forward_step,forward_step,2,Normal,input,1.5,1,1.5,78,1.579999,0,1.959139,40.0032,0,-0.000075,0.16,0.16,0,0.16,-0.000075,0,0,0,0,0,0.77,0,0
session_20260402_133209,C:/Users/josh_fleming/AppData/LocalLow/DefaultCompany/DJI Drone Sim\BenchmarkRuns\session_20260402_133209,20260402_133241_run003,3,forward_step,forward_step,2,Normal,input,1.5,1,1.5,79,1.599999,0,1.959138,40.0096,0,-0.000068,0.32,0.32,0,0.32,-0.000068,0,0,0,0.000003,0,0.77,0,0
session_20260402_133209,C:/Users/josh_fleming/AppData/LocalLow/DefaultCompany/DJI Drone Sim\BenchmarkRuns\session_20260402_133209,20260402_133241_run003,3,forward_step,forward_step,2,Normal,input,1.5,1,1.5,80,1.619999,0,1.959137,40.0192,0,-0.000061,0.48,0.48,0,0.48,-0.000061,0,0,0,0,0,0.77,0,0
session_20260402_133209,C:/Users/josh_fleming/AppData/LocalLow/DefaultCompany/DJI Drone Sim\BenchmarkRuns\session_20260402_133209,20260402_133241_run003,3,forward_step,forward_step,2,Normal,input,1.5,1,1.5,81,1.639999,0,1.959136,40.032,0,-0.000055,0.64,0.64,0,0.64,-0.000055,0,0.000003,0,0,0,0.77,0,0
session_20260402_133209,C:/Users/josh_fleming/AppData/LocalLow/DefaultCompany/DJI Drone Sim\BenchmarkRuns\session_20260402_133209,20260402_133241_run003,3,forward_step,forward_step,2,Normal,input,1.5,1,1.5,82,1.659999,0,1.959135,40.048,0,-0.00005,0.8,0.8,0,0.8,-0.00005,0,0.000005,0,0,0,0.77,0,0
session_20260402_133209,C:/Users/josh_fleming/AppData/LocalLow/DefaultCompany/DJI Drone Sim\BenchmarkRuns\session_20260402_133209,20260402_133241_run003,3,forward_step,forward_step,2,Normal,input,1.5,1,1.5,83,1.679999,0,1.959134,40.0672,0,-0.000045,0.96,0.96,0,0.96,-0.000045,0,0.000004,0,0,0,0.77,0,0
session_20260402_133209,C:/Users/josh_fleming/AppData/LocalLow/DefaultCompany/DJI Drone Sim\BenchmarkRuns\session_20260402_133209,20260402_133241_run003,3,forward_step,forward_step,2,Normal,input,1.5,1,1.5,84,1.699999,0,1.959133,40.0896,0,-0.000041,1.12,1.12,0,1.12,-0.000041,0,0.000005,0,0,0,0.77,0,0
session_20260402_133209,C:/Users/josh_fleming/AppData/LocalLow/DefaultCompany/DJI Drone Sim\BenchmarkRuns\session_20260402_133209,20260402_133241_run003,3,forward_step,forward_step,2,Normal,input,1.5,1,1.5,85,1.719999,0,1.959132,40.1152,0,-0.000037,1.28,1.28,0,1.28,-0.000037,0,0.000003,0,0,0,0.77,0,0
session_20260402_133209,C:/Users/josh_fleming/AppData/LocalLow/DefaultCompany/DJI Drone Sim\BenchmarkRuns\session_20260402_133209,20260402_133241_run003,3,forward_step,forward_step,2,Normal,input,1.5,1,1.5,86,1.739999,0,1.959132,40.144,0,-0.000033,1.44,1.44,0,1.44,-0.000033,0,0.000002,0,0,0,0.77,0,0
session_20260402_133209,C:/Users/josh_fleming/AppData/LocalLow/DefaultCompany/DJI Drone Sim\BenchmarkRuns\session_20260402_133209,20260402_133241_run003,3,forward_step,forward_step,2,Normal,input,1.5,1,1.5,87,1.759999,0,1.959131,40.176,0,-0.00003,1.6,1.6,0,1.6,-0.00003,0,0.000002,0,0,0,0.77,0,0
session_20260402_133209,C:/Users/josh_fleming/AppData/LocalLow/DefaultCompany/DJI Drone Sim\BenchmarkRuns\session_20260402_133209,20260402_133241_run003,3,forward_step,forward_step,2,Normal,input,1.5,1,1.5,88,1.779999,0,1.95913,40.2112,0,-0.000027,1.76,1.76,0,1.76,-0.000027,0,0.000003,0,0,0,0.77,0,0
session_20260402_133209,C:/Users/josh_fleming/AppData/LocalLow/DefaultCompany/DJI Drone Sim\BenchmarkRuns\session_20260402_133209,20260402_133241_run003,3,forward_step,forward_step,2,Normal,input,1.5,1,1.5,89,1.799999,0,1.95913,40.2496,0,-0.000025,1.919999,1.919999,0,1.919999,-0.000025,0,0.000002,0,0,0,0.77,0,0
session_20260402_133209,C:/Users/josh_fleming/AppData/LocalLow/DefaultCompany/DJI Drone Sim\BenchmarkRuns\session_20260402_133209,20260402_133241_run003,3,forward_step,forward_step,2,Normal,input,1.5,1,1.5,90,1.819999,0,1.959129,40.2912,0,-0.000022,2.079999,2.079999,0,2.079999,-0.000022,0,0,0,0,0,0.77,0,0
session_20260402_133209,C:/Users/josh_fleming/AppData/LocalLow/DefaultCompany/DJI Drone Sim\BenchmarkRuns\session_20260402_133209,20260402_133241_run003,3,forward_step,forward_step,2,Normal,input,1.5,1,1.5,91,1.839998,0,1.959129,40.336,0,-0.00002,2.239999,2.239999,0,2.239999,-0.00002,0,0,0,0,0,0.77,0,0
session_20260402_133209,C:/Users/josh_fleming/AppData/LocalLow/DefaultCompany/DJI Drone Sim\BenchmarkRuns\session_20260402_133209,20260402_133241_run003,3,forward_step,forward_step,2,Normal,input,1.5,1,1.5,92,1.859998,0,1.959129,40.384,0,-0.000018,2.399999,2.399999,0,2.399999,-0.000018,0,0,0,0,0,0.77,0,0
session_20260402_133209,C:/Users/josh_fleming/AppData/LocalLow/DefaultCompany/DJI Drone Sim\BenchmarkRuns\session_20260402_133209,20260402_133241_run003,3,forward_step,forward_step,2,Normal,input,1.5,1,1.5,93,1.879998,0,1.959128,40.43495,0,-0.000016,2.547567,2.547567,0,2.547567,-0.000016,0,0,0,0,0,0.77,0,0
session_20260402_133209,C:/Users/josh_fleming/AppData/LocalLow/DefaultCompany/DJI Drone Sim\BenchmarkRuns\session_20260402_133209,20260402_133241_run003,3,forward_step,forward_step,2,Normal,input,1.5,1,1.5,94,1.899998,0,1.959128,40.48858,0,-0.000015,2.681559,2.681559,0,2.681559,-0.000015,0,0.000002,0,0,0,0.77,0,0
session_20260402_133209,C:/Users/josh_fleming/AppData/LocalLow/DefaultCompany/DJI Drone Sim\BenchmarkRuns\session_20260402_133209,20260402_133241_run003,3,forward_step,forward_step,2,Normal,input,1.5,1,1.5,95,1.919998,0,1.959128,40.54465,0,-0.000013,2.803223,2.803223,0,2.803223,-0.000013,0,0,0,0,0,0.77,0,0
session_20260402_133209,C:/Users/josh_fleming/AppData/LocalLow/DefaultCompany/DJI Drone Sim\BenchmarkRuns\session_20260402_133209,20260402_133241_run003,3,forward_step,forward_step,2,Normal,input,1.5,1,1.5,96,1.939998,0,1.959128,40.60292,0,-0.000012,2.913695,2.913695,0,2.913695,-0.000012,0,0.000001,0,0,0,0.77,0,0
session_20260402_133209,C:/Users/josh_fleming/AppData/LocalLow/DefaultCompany/DJI Drone Sim\BenchmarkRuns\session_20260402_133209,20260402_133241_run003,3,forward_step,forward_step,2,Normal,input,1.5,1,1.5,97,1.959998,0,1.959127,40.6632,0,-0.000011,3.014003,3.014003,0,3.014003,-0.000011,0,0,0,0,0,0.77,0,0
session_20260402_133209,C:/Users/josh_fleming/AppData/LocalLow/DefaultCompany/DJI Drone Sim\BenchmarkRuns\session_20260402_133209,20260402_133241_run003,3,forward_step,forward_step,2,Normal,input,1.5,1,1.5,98,1.979998,0,1.959127,40.7253,0,-0.00001,3.105083,3.105083,0,3.105083,-0.00001,0,0.000003,0,0,0,0.77,0,0
session_20260402_133209,C:/Users/josh_fleming/AppData/LocalLow/DefaultCompany/DJI Drone Sim\BenchmarkRuns\session_20260402_133209,20260402_133241_run003,3,forward_step,forward_step,2,Normal,input,1.5,1,1.5,99,1.999998,0,1.959127,40.78906,0,-0.000009,3.187783,3.187783,0,3.187783,-0.000009,0,0.000002,0,0,0,0.77,0,0
session_20260402_133209,C:/Users/josh_fleming/AppData/LocalLow/DefaultCompany/DJI Drone Sim\BenchmarkRuns\session_20260402_133209,20260402_133241_run003,3,forward_step,forward_step,2,Normal,input,1.5,1,1.5,100,2.019998,0,1.959127,40.85432,0,-0.000008,3.262875,3.262875,0,3.262875,-0.000008,0,0.000004,0,0,0,0.77,0,0
session_20260402_133209,C:/Users/josh_fleming/AppData/LocalLow/DefaultCompany/DJI Drone Sim\BenchmarkRuns\session_20260402_133209,20260402_133241_run003,3,forward_step,forward_step,2,Normal,input,1.5,1,1.5,101,2.039998,0,1.959127,40.92094,0,-0.000007,3.331058,3.331058,0,3.331058,-0.000007,0,0.000006,0,0,0,0.77,0,0
session_20260402_133209,C:/Users/josh_fleming/AppData/LocalLow/DefaultCompany/DJI Drone Sim\BenchmarkRuns\session_20260402_133209,20260402_133241_run003,3,forward_step,forward_step,2,Normal,input,1.5,1,1.5,102,2.059998,0,1.959127,40.9888,0,-0.000007,3.392969,3.392969,0,3.392969,-0.000007,0,0.000007,0,0,0,0.77,0,0
session_20260402_133209,C:/Users/josh_fleming/AppData/LocalLow/DefaultCompany/DJI Drone Sim\BenchmarkRuns\session_20260402_133209,20260402_133241_run003,3,forward_step,forward_step,2,Normal,input,1.5,1,1.5,103,2.079998,0,1.959127,41.05778,0,-0.000006,3.449183,3.449183,0,3.449183,-0.000006,0,0.000006,0,0,0,0.77,0,0
session_20260402_133209,C:/Users/josh_fleming/AppData/LocalLow/DefaultCompany/DJI Drone Sim\BenchmarkRuns\session_20260402_133209,20260402_133241_run003,3,forward_step,forward_step,2,Normal,input,1.5,1,1.5,104,2.099998,0,1.959126,41.12778,0,-0.000005,3.500226,3.500226,0,3.500226,-0.000005,0,0.000008,0,0,0,0.77,0,0
session_20260402_133209,C:/Users/josh_fleming/AppData/LocalLow/DefaultCompany/DJI Drone Sim\BenchmarkRuns\session_20260402_133209,20260402_133241_run003,3,forward_step,forward_step,2,Normal,input,1.5,1,1.5,105,2.119998,0,1.959126,41.19872,0,-0.000005,3.546574,3.546574,0,3.546574,-0.000005,0,0.000008,0,0,0,0.77,0,0
session_20260402_133209,C:/Users/josh_fleming/AppData/LocalLow/DefaultCompany/DJI Drone Sim\BenchmarkRuns\session_20260402_133209,20260402_133241_run003,3,forward_step,forward_step,2,Normal,input,1.5,1,1.5,106,2.139998,0,1.959126,41.27049,0,-0.000004,3.588657,3.588657,0,3.588657,-0.000004,0,0.000006,0,0,0,0.77,0,0
session_20260402_133209,C:/Users/josh_fleming/AppData/LocalLow/DefaultCompany/DJI Drone Sim\BenchmarkRuns\session_20260402_133209,20260402_133241_run003,3,forward_step,forward_step,2,Normal,input,1.5,1,1.5,107,2.159998,0,1.959126,41.34303,0,-0.000004,3.626868,3.626868,0,3.626868,-0.000004,0,0.000005,0,0,0,0.77,0,0
session_20260402_133209,C:/Users/josh_fleming/AppData/LocalLow/DefaultCompany/DJI Drone Sim\BenchmarkRuns\session_20260402_133209,20260402_133241_run003,3,forward_step,forward_step,2,Normal,input,1.5,1,1.5,108,2.179998,0,1.959126,41.41626,0,-0.000004,3.661565,3.661565,0,3.661565,-0.000004,0,0.000005,0,0,0,0.77,0,0
session_20260402_133209,C:/Users/josh_fleming/AppData/LocalLow/DefaultCompany/DJI Drone Sim\BenchmarkRuns\session_20260402_133209,20260402_133241_run003,3,forward_step,forward_step,2,Normal,input,1.5,1,1.5,109,2.199998,0,1.959126,41.49012,0,-0.000003,3.693069,3.693069,0,3.693069,-0.000003,0,0.000005,0,0,0,0.77,0,0
session_20260402_133209,C:/Users/josh_fleming/AppData/LocalLow/DefaultCompany/DJI Drone Sim\BenchmarkRuns\session_20260402_133209,20260402_133241_run003,3,forward_step,forward_step,2,Normal,input,1.5,1,1.5,110,2.219998,0,1.959126,41.56455,0,-0.000003,3.721674,3.721674,0,3.721674,-0.000003,0,0.000004,0,0,0,0.77,0,0
session_20260402_133209,C:/Users/josh_fleming/AppData/LocalLow/DefaultCompany/DJI Drone Sim\BenchmarkRuns\session_20260402_133209,20260402_133241_run003,3,forward_step,forward_step,2,Normal,input,1.5,1,1.5,111,2.239998,0,1.959126,41.6395,0,-0.000003,3.747648,3.747648,0,3.747648,-0.000003,0,0.000004,0,0,0,0.77,0,0
session_20260402_133209,C:/Users/josh_fleming/AppData/LocalLow/DefaultCompany/DJI Drone Sim\BenchmarkRuns\session_20260402_133209,20260402_133241_run003,3,forward_step,forward_step,2,Normal,input,1.5,1,1.5,112,2.259998,0,1.959126,41.71492,0,-0.000002,3.771233,3.771233,0,3.771233,-0.000002,0,0.000004,0,0,0,0.77,0,0
session_20260402_133209,C:/Users/josh_fleming/AppData/LocalLow/DefaultCompany/DJI Drone Sim\BenchmarkRuns\session_20260402_133209,20260402_133241_run003,3,forward_step,forward_step,2,Normal,input,1.5,1,1.5,113,2.279998,0,1.959126,41.79077,0,-0.000002,3.792647,3.792647,0,3.792647,-0.000002,0,0.000003,0,0,0,0.77,0,0
session_20260402_133209,C:/Users/josh_fleming/AppData/LocalLow/DefaultCompany/DJI Drone Sim\BenchmarkRuns\session_20260402_133209,20260402_133241_run003,3,forward_step,forward_step,2,Normal,input,1.5,1,1.5,114,2.299998,0,1.959126,41.86701,0,-0.000002,3.812092,3.812092,0,3.812092,-0.000002,0,0.000003,0,0,0,0.77,0,0
session_20260402_133209,C:/Users/josh_fleming/AppData/LocalLow/DefaultCompany/DJI Drone Sim\BenchmarkRuns\session_20260402_133209,20260402_133241_run003,3,forward_step,forward_step,2,Normal,input,1.5,1,1.5,115,2.319998,0,1.959126,41.94361,0,-0.000002,3.829747,3.829747,0,3.829747,-0.000002,0,0.000004,0,0,0,0.77,0,0
session_20260402_133209,C:/Users/josh_fleming/AppData/LocalLow/DefaultCompany/DJI Drone Sim\BenchmarkRuns\session_20260402_133209,20260402_133241_run003,3,forward_step,forward_step,2,Normal,input,1.5,1,1.5,116,2.339998,0,1.959126,42.02052,0,-0.000002,3.845778,3.845778,0,3.845778,-0.000002,0,0.000004,0,0,0,0.77,0,0
session_20260402_133209,C:/Users/josh_fleming/AppData/LocalLow/DefaultCompany/DJI Drone Sim\BenchmarkRuns\session_20260402_133209,20260402_133241_run003,3,forward_step,forward_step,2,Normal,input,1.5,1,1.5,117,2.359998,0,1.959126,42.09773,0,-0.000001,3.860335,3.860335,0,3.860335,-0.000001,0,0.000005,0,0,0,0.77,0,0
session_20260402_133209,C:/Users/josh_fleming/AppData/LocalLow/DefaultCompany/DJI Drone Sim\BenchmarkRuns\session_20260402_133209,20260402_133241_run003,3,forward_step,forward_step,2,Normal,input,1.5,1,1.5,118,2.379998,0,1.959126,42.1752,0,-0.000001,3.873552,3.873552,0,3.873552,-0.000001,0,0.000005,0,0,0,0.77,0,0
session_20260402_133209,C:/Users/josh_fleming/AppData/LocalLow/DefaultCompany/DJI Drone Sim\BenchmarkRuns\session_20260402_133209,20260402_133241_run003,3,forward_step,forward_step,2,Normal,input,1.5,1,1.5,119,2.399998,0,1.959126,42.25291,0,-0.000001,3.885553,3.885553,0,3.885553,-0.000001,0,0.000005,0,0,0,0.77,0,0
session_20260402_133209,C:/Users/josh_fleming/AppData/LocalLow/DefaultCompany/DJI Drone Sim\BenchmarkRuns\session_20260402_133209,20260402_133241_run003,3,forward_step,forward_step,2,Normal,input,1.5,1,1.5,120,2.419998,0,1.959126,42.33084,0,-0.000001,3.896451,3.896451,0,3.896451,-0.000001,0,0.000005,0,0,0,0.77,0,0
session_20260402_133209,C:/Users/josh_fleming/AppData/LocalLow/DefaultCompany/DJI Drone Sim\BenchmarkRuns\session_20260402_133209,20260402_133241_run003,3,forward_step,forward_step,2,Normal,input,1.5,1,1.5,121,2.439998,0,1.959126,42.40897,0,-0.000001,3.906345,3.906345,0,3.906345,-0.000001,0,0.000006,0,0,0,0.77,0,0
session_20260402_133209,C:/Users/josh_fleming/AppData/LocalLow/DefaultCompany/DJI Drone Sim\BenchmarkRuns\session_20260402_133209,20260402_133241_run003,3,forward_step,forward_step,2,Normal,input,1.5,1,1.5,122,2.459998,0,1.959126,42.48727,0,-0.000001,3.915329,3.915329,0,3.915329,-0.000001,0,0.000006,0,0,0,0.77,0,0
session_20260402_133209,C:/Users/josh_fleming/AppData/LocalLow/DefaultCompany/DJI Drone Sim\BenchmarkRuns\session_20260402_133209,20260402_133241_run003,3,forward_step,forward_step,2,Normal,input,1.5,1,1.5,123,2.479998,0,1.959126,42.56574,0,-0.000001,3.923487,3.923487,0,3.923487,-0.000001,0,0.000007,0,0,0,0.77,0,0
session_20260402_133209,C:/Users/josh_fleming/AppData/LocalLow/DefaultCompany/DJI Drone Sim\BenchmarkRuns\session_20260402_133209,20260402_133241_run003,3,forward_step,forward_step,2,Normal,input,1.5,1,1.5,124,2.499998,0,1.959126,42.64436,0,-0.000001,3.930894,3.930894,0,3.930894,-0.000001,0,0.000007,0,0,0,0.77,0,0
session_20260402_133209,C:/Users/josh_fleming/AppData/LocalLow/DefaultCompany/DJI Drone Sim\BenchmarkRuns\session_20260402_133209,20260402_133241_run003,3,forward_step,forward_step,2,Normal,input,1.5,1,1.5,125,2.519998,0,1.959126,42.72311,0,-0.000001,3.93762,3.93762,0,3.93762,-0.000001,0,0.000007,0,0,0,0.77,0,0
session_20260402_133209,C:/Users/josh_fleming/AppData/LocalLow/DefaultCompany/DJI Drone Sim\BenchmarkRuns\session_20260402_133209,20260402_133241_run003,3,forward_step,forward_step,2,Normal,input,1.5,1,1.5,126,2.539998,0,1.959126,42.80198,0,0,3.943727,3.943727,0,3.943727,0,0,0.000007,0,0,0,0.77,0,0
session_20260402_133209,C:/Users/josh_fleming/AppData/LocalLow/DefaultCompany/DJI Drone Sim\BenchmarkRuns\session_20260402_133209,20260402_133241_run003,3,forward_step,forward_step,2,Normal,settle,1.5,1,1.5,127,2.559998,0,1.959126,42.88097,0,0,3.949272,3.949272,0,3.949272,0,0,0.000007,0,0,0,0,0,0
session_20260402_133209,C:/Users/josh_fleming/AppData/LocalLow/DefaultCompany/DJI Drone Sim\BenchmarkRuns\session_20260402_133209,20260402_133241_run003,3,forward_step,forward_step,2,Normal,settle,1.5,1,1.5,128,2.579998,0,1.959126,42.96006,0,0,3.954307,3.954307,0,3.954307,0,0,0.000007,0,0,0,0,0,0
session_20260402_133209,C:/Users/josh_fleming/AppData/LocalLow/DefaultCompany/DJI Drone Sim\BenchmarkRuns\session_20260402_133209,20260402_133241_run003,3,forward_step,forward_step,2,Normal,settle,1.5,1,1.5,129,2.599998,0,1.959126,43.03594,0,0,3.794307,3.794307,0,3.794307,0,0,0.000006,0,0,0,0,0,0
session_20260402_133209,C:/Users/josh_fleming/AppData/LocalLow/DefaultCompany/DJI Drone Sim\BenchmarkRuns\session_20260402_133209,20260402_133241_run003,3,forward_step,forward_step,2,Normal,settle,1.5,1,1.5,130,2.619998,0,1.959126,43.10863,0,0,3.634307,3.634307,0,3.634307,0,0,0.000005,0,0,0,0,0,0
session_20260402_133209,C:/Users/josh_fleming/AppData/LocalLow/DefaultCompany/DJI Drone Sim\BenchmarkRuns\session_20260402_133209,20260402_133241_run003,3,forward_step,forward_step,2,Normal,settle,1.5,1,1.5,131,2.639998,0,1.959126,43.17811,0,0,3.474308,3.474308,0,3.474308,0,0,0.000003,0,0,0,0,0,0
session_20260402_133209,C:/Users/josh_fleming/AppData/LocalLow/DefaultCompany/DJI Drone Sim\BenchmarkRuns\session_20260402_133209,20260402_133241_run003,3,forward_step,forward_step,2,Normal,settle,1.5,1,1.5,132,2.659998,0,1.959126,43.2444,0,0,3.314308,3.314308,0,3.314308,0,0,0.000001,0,0,0,0,0,0
session_20260402_133209,C:/Users/josh_fleming/AppData/LocalLow/DefaultCompany/DJI Drone Sim\BenchmarkRuns\session_20260402_133209,20260402_133241_run003,3,forward_step,forward_step,2,Normal,settle,1.5,1,1.5,133,2.679998,0,1.959126,43.30748,0,0,3.154308,3.154308,0,3.154308,0,0,0.000003,0,0,0,0,0,0
session_20260402_133209,C:/Users/josh_fleming/AppData/LocalLow/DefaultCompany/DJI Drone Sim\BenchmarkRuns\session_20260402_133209,20260402_133241_run003,3,forward_step,forward_step,2,Normal,settle,1.5,1,1.5,134,2.699998,0,1.959126,43.36737,0,0,2.994308,2.994308,0,2.994308,0,0,0.000004,0,0,0,0,0,0
session_20260402_133209,C:/Users/josh_fleming/AppData/LocalLow/DefaultCompany/DJI Drone Sim\BenchmarkRuns\session_20260402_133209,20260402_133241_run003,3,forward_step,forward_step,2,Normal,settle,1.5,1,1.5,135,2.719998,0,1.959126,43.42405,0,0,2.834308,2.834308,0,2.834308,0,0,0.000003,0,0,0,0,0,0
session_20260402_133209,C:/Users/josh_fleming/AppData/LocalLow/DefaultCompany/DJI Drone Sim\BenchmarkRuns\session_20260402_133209,20260402_133241_run003,3,forward_step,forward_step,2,Normal,settle,1.5,1,1.5,136,2.739998,0,1.959126,43.47754,0,0,2.674308,2.674308,0,2.674308,0,0,0.000003,0,0,0,0,0,0
session_20260402_133209,C:/Users/josh_fleming/AppData/LocalLow/DefaultCompany/DJI Drone Sim\BenchmarkRuns\session_20260402_133209,20260402_133241_run003,3,forward_step,forward_step,2,Normal,settle,1.5,1,1.5,137,2.759998,0,1.959126,43.52782,0,0,2.514308,2.514308,0,2.514308,0,0,0.000003,0,0,0,0,0,0
session_20260402_133209,C:/Users/josh_fleming/AppData/LocalLow/DefaultCompany/DJI Drone Sim\BenchmarkRuns\session_20260402_133209,20260402_133241_run003,3,forward_step,forward_step,2,Normal,settle,1.5,1,1.5,138,2.779998,0,1.959126,43.57491,0,0,2.354309,2.354309,0,2.354309,0,0,0.000003,0,0,0,0,0,0
session_20260402_133209,C:/Users/josh_fleming/AppData/LocalLow/DefaultCompany/DJI Drone Sim\BenchmarkRuns\session_20260402_133209,20260402_133241_run003,3,forward_step,forward_step,2,Normal,settle,1.5,1,1.5,139,2.799998,0,1.959126,43.61879,0,0,2.194309,2.194309,0,2.194309,0,0,0.000002,0,0,0,0,0,0
session_20260402_133209,C:/Users/josh_fleming/AppData/LocalLow/DefaultCompany/DJI Drone Sim\BenchmarkRuns\session_20260402_133209,20260402_133241_run003,3,forward_step,forward_step,2,Normal,settle,1.5,1,1.5,140,2.819998,0,1.959126,43.65948,0,0,2.034309,2.034309,0,2.034309,0,0,0,0,0,0,0,0,0
session_20260402_133209,C:/Users/josh_fleming/AppData/LocalLow/DefaultCompany/DJI Drone Sim\BenchmarkRuns\session_20260402_133209,20260402_133241_run003,3,forward_step,forward_step,2,Normal,settle,1.5,1,1.5,141,2.839998,0,1.959126,43.69697,0,0,1.874309,1.874309,0,1.874309,0,0,0,0,0,0,0,0,0
session_20260402_133209,C:/Users/josh_fleming/AppData/LocalLow/DefaultCompany/DJI Drone Sim\BenchmarkRuns\session_20260402_133209,20260402_133241_run003,3,forward_step,forward_step,2,Normal,settle,1.5,1,1.5,142,2.859998,0,1.959126,43.73125,0,0,1.714309,1.714309,0,1.714309,0,0,0,0,0,0,0,0,0
session_20260402_133209,C:/Users/josh_fleming/AppData/LocalLow/DefaultCompany/DJI Drone Sim\BenchmarkRuns\session_20260402_133209,20260402_133241_run003,3,forward_step,forward_step,2,Normal,settle,1.5,1,1.5,143,2.879997,0,1.959126,43.76234,0,0,1.554309,1.554309,0,1.554309,0,0,0,0,0,0,0,0,0
session_20260402_133209,C:/Users/josh_fleming/AppData/LocalLow/DefaultCompany/DJI Drone Sim\BenchmarkRuns\session_20260402_133209,20260402_133241_run003,3,forward_step,forward_step,2,Normal,settle,1.5,1,1.5,144,2.899997,0,1.959126,43.79023,0,0,1.394309,1.394309,0,1.394309,0,0,0,0,0,0,0,0,0
session_20260402_133209,C:/Users/josh_fleming/AppData/LocalLow/DefaultCompany/DJI Drone Sim\BenchmarkRuns\session_20260402_133209,20260402_133241_run003,3,forward_step,forward_step,2,Normal,settle,1.5,1,1.5,145,2.919997,0,1.959126,43.81491,0,0,1.234309,1.234309,0,1.234309,0,0,0,0,0,0,0,0,0
session_20260402_133209,C:/Users/josh_fleming/AppData/LocalLow/DefaultCompany/DJI Drone Sim\BenchmarkRuns\session_20260402_133209,20260402_133241_run003,3,forward_step,forward_step,2,Normal,settle,1.5,1,1.5,146,2.939997,0,1.959126,43.8364,0,0,1.074309,1.074309,0,1.074309,0,0,0,0,0,0,0,0,0
session_20260402_133209,C:/Users/josh_fleming/AppData/LocalLow/DefaultCompany/DJI Drone Sim\BenchmarkRuns\session_20260402_133209,20260402_133241_run003,3,forward_step,forward_step,2,Normal,settle,1.5,1,1.5,147,2.959997,0,1.959126,43.85496,0,0,0.928203,0.928203,0,0.928203,0,0,-0.000031,0,0,0,0,0,0
session_20260402_133209,C:/Users/josh_fleming/AppData/LocalLow/DefaultCompany/DJI Drone Sim\BenchmarkRuns\session_20260402_133209,20260402_133241_run003,3,forward_step,forward_step,2,Normal,settle,1.5,1,1.5,148,2.979997,0,1.959126,43.871,0,0,0.801968,0.801968,0,0.801968,0,0,-0.000031,0,0,0,0,0,0
session_20260402_133209,C:/Users/josh_fleming/AppData/LocalLow/DefaultCompany/DJI Drone Sim\BenchmarkRuns\session_20260402_133209,20260402_133241_run003,3,forward_step,forward_step,2,Normal,settle,1.5,1,1.5,149,2.999997,0,1.959126,43.88486,0,0,0.6929,0.6929,0,0.6929,0,0,0,0,0,0,0,0,0
session_20260402_133209,C:/Users/josh_fleming/AppData/LocalLow/DefaultCompany/DJI Drone Sim\BenchmarkRuns\session_20260402_133209,20260402_133241_run003,3,forward_step,forward_step,2,Normal,settle,1.5,1,1.5,150,3.019997,0,1.959126,43.89683,0,0,0.598666,0.598666,0,0.598666,0,0,0,0,0,0,0,0,0
session_20260402_133209,C:/Users/josh_fleming/AppData/LocalLow/DefaultCompany/DJI Drone Sim\BenchmarkRuns\session_20260402_133209,20260402_133241_run003,3,forward_step,forward_step,2,Normal,settle,1.5,1,1.5,151,3.039997,0,1.959126,43.90718,0,0,0.517247,0.517247,0,0.517247,0,0,0,0,0,0,0,0,0
session_20260402_133209,C:/Users/josh_fleming/AppData/LocalLow/DefaultCompany/DJI Drone Sim\BenchmarkRuns\session_20260402_133209,20260402_133241_run003,3,forward_step,forward_step,2,Normal,settle,1.5,1,1.5,152,3.059997,0,1.959126,43.91611,0,0,0.446902,0.446902,0,0.446902,0,0,0,0,0,0,0,0,0
session_20260402_133209,C:/Users/josh_fleming/AppData/LocalLow/DefaultCompany/DJI Drone Sim\BenchmarkRuns\session_20260402_133209,20260402_133241_run003,3,forward_step,forward_step,2,Normal,settle,1.5,1,1.5,153,3.079997,0,1.959126,43.92384,0,0,0.386123,0.386123,0,0.386123,0,0,0,0,0,0,0,0,0
session_20260402_133209,C:/Users/josh_fleming/AppData/LocalLow/DefaultCompany/DJI Drone Sim\BenchmarkRuns\session_20260402_133209,20260402_133241_run003,3,forward_step,forward_step,2,Normal,settle,1.5,1,1.5,154,3.099997,0,1.959127,43.93051,0,0,0.33361,0.33361,0,0.33361,0,0,0,0,0,0,0,0,0
session_20260402_133209,C:/Users/josh_fleming/AppData/LocalLow/DefaultCompany/DJI Drone Sim\BenchmarkRuns\session_20260402_133209,20260402_133241_run003,3,forward_step,forward_step,2,Normal,settle,1.5,1,1.5,155,3.119997,0,1.959127,43.93627,0,0,0.288239,0.288239,0,0.288239,0,0,0,0,0,0,0,0,0
session_20260402_133209,C:/Users/josh_fleming/AppData/LocalLow/DefaultCompany/DJI Drone Sim\BenchmarkRuns\session_20260402_133209,20260402_133241_run003,3,forward_step,forward_step,2,Normal,settle,1.5,1,1.5,156,3.139997,0,1.959127,43.94125,0,0,0.249039,0.249039,0,0.249039,0,0,0,0,0,0,0,0,0
session_20260402_133209,C:/Users/josh_fleming/AppData/LocalLow/DefaultCompany/DJI Drone Sim\BenchmarkRuns\session_20260402_133209,20260402_133241_run003,3,forward_step,forward_step,2,Normal,settle,1.5,1,1.5,157,3.159997,0,1.959127,43.94556,0,0,0.21517,0.21517,0,0.21517,0,0,0,0,0,0,0,0,0
session_20260402_133209,C:/Users/josh_fleming/AppData/LocalLow/DefaultCompany/DJI Drone Sim\BenchmarkRuns\session_20260402_133209,20260402_133241_run003,3,forward_step,forward_step,2,Normal,settle,1.5,1,1.5,158,3.179997,0,1.959127,43.94928,0,0,0.185906,0.185906,0,0.185906,0,0,0,0,0,0,0,0,0
session_20260402_133209,C:/Users/josh_fleming/AppData/LocalLow/DefaultCompany/DJI Drone Sim\BenchmarkRuns\session_20260402_133209,20260402_133241_run003,3,forward_step,forward_step,2,Normal,settle,1.5,1,1.5,159,3.199997,0,1.959127,43.95248,0,0,0.160623,0.160623,0,0.160623,0,0,0,0,0,0,0,0,0
session_20260402_133209,C:/Users/josh_fleming/AppData/LocalLow/DefaultCompany/DJI Drone Sim\BenchmarkRuns\session_20260402_133209,20260402_133241_run003,3,forward_step,forward_step,2,Normal,settle,1.5,1,1.5,160,3.219997,0,1.959127,43.95525,0,0,0.138778,0.138778,0,0.138778,0,0,0,0,0,0,0,0,0
session_20260402_133209,C:/Users/josh_fleming/AppData/LocalLow/DefaultCompany/DJI Drone Sim\BenchmarkRuns\session_20260402_133209,20260402_133241_run003,3,forward_step,forward_step,2,Normal,settle,1.5,1,1.5,161,3.239997,0,1.959127,43.95765,0,0,0.119905,0.119905,0,0.119905,0,0,0,0,0,0,0,0,0
session_20260402_133209,C:/Users/josh_fleming/AppData/LocalLow/DefaultCompany/DJI Drone Sim\BenchmarkRuns\session_20260402_133209,20260402_133241_run003,3,forward_step,forward_step,2,Normal,settle,1.5,1,1.5,162,3.259997,0,1.959127,43.95972,0,0,0.103598,0.103598,0,0.103598,0,0,0,0,0,0,0,0,0
session_20260402_133209,C:/Users/josh_fleming/AppData/LocalLow/DefaultCompany/DJI Drone Sim\BenchmarkRuns\session_20260402_133209,20260402_133241_run003,3,forward_step,forward_step,2,Normal,settle,1.5,1,1.5,163,3.279997,0,1.959127,43.96151,0,0,0.089508,0.089508,0,0.089508,0,0,0,0,0,0,0,0,0
session_20260402_133209,C:/Users/josh_fleming/AppData/LocalLow/DefaultCompany/DJI Drone Sim\BenchmarkRuns\session_20260402_133209,20260402_133241_run003,3,forward_step,forward_step,2,Normal,settle,1.5,1,1.5,164,3.299997,0,1.959127,43.96305,0,0,0.077335,0.077335,0,0.077335,0,0,0,0,0,0,0,0,0
session_20260402_133209,C:/Users/josh_fleming/AppData/LocalLow/DefaultCompany/DJI Drone Sim\BenchmarkRuns\session_20260402_133209,20260402_133241_run003,3,forward_step,forward_step,2,Normal,settle,1.5,1,1.5,165,3.319997,0,1.959127,43.96439,0,0,0.066818,0.066818,0,0.066818,0,0,0,0,0,0,0,0,0
session_20260402_133209,C:/Users/josh_fleming/AppData/LocalLow/DefaultCompany/DJI Drone Sim\BenchmarkRuns\session_20260402_133209,20260402_133241_run003,3,forward_step,forward_step,2,Normal,settle,1.5,1,1.5,166,3.339997,0,1.959127,43.96555,0,0,0.05773,0.05773,0,0.05773,0,0,0,0,0,0,0,0,0
session_20260402_133209,C:/Users/josh_fleming/AppData/LocalLow/DefaultCompany/DJI Drone Sim\BenchmarkRuns\session_20260402_133209,20260402_133241_run003,3,forward_step,forward_step,2,Normal,settle,1.5,1,1.5,167,3.359997,0,1.959127,43.96655,0,0,0.049879,0.049879,0,0.049879,0,0,0,0,0,0,0,0,0
session_20260402_133209,C:/Users/josh_fleming/AppData/LocalLow/DefaultCompany/DJI Drone Sim\BenchmarkRuns\session_20260402_133209,20260402_133241_run003,3,forward_step,forward_step,2,Normal,settle,1.5,1,1.5,168,3.379997,0,1.959127,43.96741,0,0,0.043096,0.043096,0,0.043096,0,0,0,0,0,0,0,0,0
session_20260402_133209,C:/Users/josh_fleming/AppData/LocalLow/DefaultCompany/DJI Drone Sim\BenchmarkRuns\session_20260402_133209,20260402_133241_run003,3,forward_step,forward_step,2,Normal,settle,1.5,1,1.5,169,3.399997,0,1.959127,43.96815,0,0,0.037235,0.037235,0,0.037235,0,0,0,0,0,0,0,0,0
session_20260402_133209,C:/Users/josh_fleming/AppData/LocalLow/DefaultCompany/DJI Drone Sim\BenchmarkRuns\session_20260402_133209,20260402_133241_run003,3,forward_step,forward_step,2,Normal,settle,1.5,1,1.5,170,3.419997,0,1.959127,43.9688,0,0,0.032171,0.032171,0,0.032171,0,0,0,0,0,0,0,0,0
session_20260402_133209,C:/Users/josh_fleming/AppData/LocalLow/DefaultCompany/DJI Drone Sim\BenchmarkRuns\session_20260402_133209,20260402_133241_run003,3,forward_step,forward_step,2,Normal,settle,1.5,1,1.5,171,3.439997,0,1.959127,43.96935,0,0,0.027795,0.027795,0,0.027795,0,0,0,0,0,0,0,0,0
session_20260402_133209,C:/Users/josh_fleming/AppData/LocalLow/DefaultCompany/DJI Drone Sim\BenchmarkRuns\session_20260402_133209,20260402_133241_run003,3,forward_step,forward_step,2,Normal,settle,1.5,1,1.5,172,3.459997,0,1.959127,43.96983,0,0,0.024015,0.024015,0,0.024015,0,0,0,0,0,0,0,0,0
session_20260402_133209,C:/Users/josh_fleming/AppData/LocalLow/DefaultCompany/DJI Drone Sim\BenchmarkRuns\session_20260402_133209,20260402_133241_run003,3,forward_step,forward_step,2,Normal,settle,1.5,1,1.5,173,3.479997,0,1.959127,43.97025,0,0,0.020749,0.020749,0,0.020749,0,0,0,0,0,0,0,0,0
session_20260402_133209,C:/Users/josh_fleming/AppData/LocalLow/DefaultCompany/DJI Drone Sim\BenchmarkRuns\session_20260402_133209,20260402_133241_run003,3,forward_step,forward_step,2,Normal,settle,1.5,1,1.5,174,3.499997,0,1.959127,43.97061,0,0,0.017927,0.017927,0,0.017927,0,0,0,0,0,0,0,0,0
session_20260402_133209,C:/Users/josh_fleming/AppData/LocalLow/DefaultCompany/DJI Drone Sim\BenchmarkRuns\session_20260402_133209,20260402_133241_run003,3,forward_step,forward_step,2,Normal,settle,1.5,1,1.5,175,3.519997,0,1.959127,43.97092,0,0,0.015489,0.015489,0,0.015489,0,0,0,0,0,0,0,0,0
session_20260402_133209,C:/Users/josh_fleming/AppData/LocalLow/DefaultCompany/DJI Drone Sim\BenchmarkRuns\session_20260402_133209,20260402_133241_run003,3,forward_step,forward_step,2,Normal,settle,1.5,1,1.5,176,3.539997,0,1.959127,43.97118,0,0,0.013383,0.013383,0,0.013383,0,0,0,0,0,0,0,0,0
session_20260402_133209,C:/Users/josh_fleming/AppData/LocalLow/DefaultCompany/DJI Drone Sim\BenchmarkRuns\session_20260402_133209,20260402_133241_run003,3,forward_step,forward_step,2,Normal,settle,1.5,1,1.5,177,3.559997,0,1.959127,43.97142,0,0,0.011563,0.011563,0,0.011563,0,0,0,0,0,0,0,0,0
session_20260402_133209,C:/Users/josh_fleming/AppData/LocalLow/DefaultCompany/DJI Drone Sim\BenchmarkRuns\session_20260402_133209,20260402_133241_run003,3,forward_step,forward_step,2,Normal,settle,1.5,1,1.5,178,3.579997,0,1.959127,43.97161,0,0,0.00999,0.00999,0,0.00999,0,0,0,0,0,0,0,0,0
session_20260402_133209,C:/Users/josh_fleming/AppData/LocalLow/DefaultCompany/DJI Drone Sim\BenchmarkRuns\session_20260402_133209,20260402_133241_run003,3,forward_step,forward_step,2,Normal,settle,1.5,1,1.5,179,3.599997,0,1.959127,43.97179,0,0,0.008631,0.008631,0,0.008631,0,0,0,0,0,0,0,0,0
session_20260402_133209,C:/Users/josh_fleming/AppData/LocalLow/DefaultCompany/DJI Drone Sim\BenchmarkRuns\session_20260402_133209,20260402_133241_run003,3,forward_step,forward_step,2,Normal,settle,1.5,1,1.5,180,3.619997,0,1.959127,43.97194,0,0,0.007458,0.007458,0,0.007458,0,0,0,0,0,0,0,0,0
session_20260402_133209,C:/Users/josh_fleming/AppData/LocalLow/DefaultCompany/DJI Drone Sim\BenchmarkRuns\session_20260402_133209,20260402_133241_run003,3,forward_step,forward_step,2,Normal,settle,1.5,1,1.5,181,3.639997,0,1.959127,43.97206,0,0,0.006443,0.006443,0,0.006443,0,0,0,0,0,0,0,0,0
session_20260402_133209,C:/Users/josh_fleming/AppData/LocalLow/DefaultCompany/DJI Drone Sim\BenchmarkRuns\session_20260402_133209,20260402_133241_run003,3,forward_step,forward_step,2,Normal,settle,1.5,1,1.5,182,3.659997,0,1.959127,43.97218,0,0,0.005567,0.005567,0,0.005567,0,0,0,0,0,0,0,0,0
session_20260402_133209,C:/Users/josh_fleming/AppData/LocalLow/DefaultCompany/DJI Drone Sim\BenchmarkRuns\session_20260402_133209,20260402_133241_run003,3,forward_step,forward_step,2,Normal,settle,1.5,1,1.5,183,3.679997,0,1.959127,43.97227,0,0,0.00481,0.00481,0,0.00481,0,0,0,0,0,0,0,0,0
session_20260402_133209,C:/Users/josh_fleming/AppData/LocalLow/DefaultCompany/DJI Drone Sim\BenchmarkRuns\session_20260402_133209,20260402_133241_run003,3,forward_step,forward_step,2,Normal,settle,1.5,1,1.5,184,3.699997,0,1.959127,43.97235,0,0,0.004156,0.004156,0,0.004156,0,0,0,0,0,0,0,0,0
session_20260402_133209,C:/Users/josh_fleming/AppData/LocalLow/DefaultCompany/DJI Drone Sim\BenchmarkRuns\session_20260402_133209,20260402_133241_run003,3,forward_step,forward_step,2,Normal,settle,1.5,1,1.5,185,3.719997,0,1.959127,43.97243,0,0,0.003591,0.003591,0,0.003591,0,0,0,0,0,0,0,0,0
session_20260402_133209,C:/Users/josh_fleming/AppData/LocalLow/DefaultCompany/DJI Drone Sim\BenchmarkRuns\session_20260402_133209,20260402_133241_run003,3,forward_step,forward_step,2,Normal,settle,1.5,1,1.5,186,3.739997,0,1.959127,43.97249,0,0,0.003102,0.003102,0,0.003102,0,0,0,0,0,0,0,0,0
session_20260402_133209,C:/Users/josh_fleming/AppData/LocalLow/DefaultCompany/DJI Drone Sim\BenchmarkRuns\session_20260402_133209,20260402_133241_run003,3,forward_step,forward_step,2,Normal,settle,1.5,1,1.5,187,3.759997,0,1.959127,43.97254,0,0,0.00268,0.00268,0,0.00268,0,0,0,0,0,0,0,0,0
session_20260402_133209,C:/Users/josh_fleming/AppData/LocalLow/DefaultCompany/DJI Drone Sim\BenchmarkRuns\session_20260402_133209,20260402_133241_run003,3,forward_step,forward_step,2,Normal,settle,1.5,1,1.5,188,3.779997,0,1.959127,43.97259,0,0,0.002316,0.002316,0,0.002316,0,0,0,0,0,0,0,0,0
session_20260402_133209,C:/Users/josh_fleming/AppData/LocalLow/DefaultCompany/DJI Drone Sim\BenchmarkRuns\session_20260402_133209,20260402_133241_run003,3,forward_step,forward_step,2,Normal,settle,1.5,1,1.5,189,3.799997,0,1.959127,43.97263,0,0,0.002001,0.002001,0,0.002001,0,0,0,0,0,0,0,0,0
session_20260402_133209,C:/Users/josh_fleming/AppData/LocalLow/DefaultCompany/DJI Drone Sim\BenchmarkRuns\session_20260402_133209,20260402_133241_run003,3,forward_step,forward_step,2,Normal,settle,1.5,1,1.5,190,3.819997,0,1.959127,43.97266,0,0,0.001729,0.001729,0,0.001729,0,0,0,0,0,0,0,0,0
session_20260402_133209,C:/Users/josh_fleming/AppData/LocalLow/DefaultCompany/DJI Drone Sim\BenchmarkRuns\session_20260402_133209,20260402_133241_run003,3,forward_step,forward_step,2,Normal,settle,1.5,1,1.5,191,3.839997,0,1.959127,43.97269,0,0,0.001494,0.001494,0,0.001494,0,0,0,0,0,0,0,0,0
session_20260402_133209,C:/Users/josh_fleming/AppData/LocalLow/DefaultCompany/DJI Drone Sim\BenchmarkRuns\session_20260402_133209,20260402_133241_run003,3,forward_step,forward_step,2,Normal,settle,1.5,1,1.5,192,3.859997,0,1.959127,43.97272,0,0,0.001291,0.001291,0,0.001291,0,0,0,0,0,0,0,0,0
session_20260402_133209,C:/Users/josh_fleming/AppData/LocalLow/DefaultCompany/DJI Drone Sim\BenchmarkRuns\session_20260402_133209,20260402_133241_run003,3,forward_step,forward_step,2,Normal,settle,1.5,1,1.5,193,3.879997,0,1.959127,43.97274,0,0,0.001115,0.001115,0,0.001115,0,0,0,0,0,0,0,0,0
session_20260402_133209,C:/Users/josh_fleming/AppData/LocalLow/DefaultCompany/DJI Drone Sim\BenchmarkRuns\session_20260402_133209,20260402_133241_run003,3,forward_step,forward_step,2,Normal,settle,1.5,1,1.5,194,3.899997,0,1.959127,43.97276,0,0,0.000963,0.000963,0,0.000963,0,0,0,0,0,0,0,0,0
session_20260402_133209,C:/Users/josh_fleming/AppData/LocalLow/DefaultCompany/DJI Drone Sim\BenchmarkRuns\session_20260402_133209,20260402_133241_run003,3,forward_step,forward_step,2,Normal,settle,1.5,1,1.5,195,3.919997,0,1.959127,43.97277,0,0,0.000832,0.000832,0,0.000832,0,0,0,0,0,0,0,0,0
session_20260402_133209,C:/Users/josh_fleming/AppData/LocalLow/DefaultCompany/DJI Drone Sim\BenchmarkRuns\session_20260402_133209,20260402_133241_run003,3,forward_step,forward_step,2,Normal,settle,1.5,1,1.5,196,3.939996,0,1.959127,43.97279,0,0,0.000719,0.000719,0,0.000719,0,0,0,0,0,0,0,0,0
session_20260402_133209,C:/Users/josh_fleming/AppData/LocalLow/DefaultCompany/DJI Drone Sim\BenchmarkRuns\session_20260402_133209,20260402_133241_run003,3,forward_step,forward_step,2,Normal,settle,1.5,1,1.5,197,3.959996,0,1.959127,43.9728,0,0,0.000621,0.000621,0,0.000621,0,0,0,0,0,0,0,0,0
session_20260402_133209,C:/Users/josh_fleming/AppData/LocalLow/DefaultCompany/DJI Drone Sim\BenchmarkRuns\session_20260402_133209,20260402_133241_run003,3,forward_step,forward_step,2,Normal,settle,1.5,1,1.5,198,3.979996,0,1.959127,43.97281,0,0,0.000537,0.000537,0,0.000537,0,0,0,0,0,0,0,0,0
session_20260402_133209,C:/Users/josh_fleming/AppData/LocalLow/DefaultCompany/DJI Drone Sim\BenchmarkRuns\session_20260402_133209,20260402_133241_run003,3,forward_step,forward_step,2,Normal,settle,1.5,1,1.5,199,3.999996,0,1.959127,43.97282,0,0,0.000464,0.000464,0,0.000464,0,0,0,0,0,0,0,0,0
session_20260402_133209,C:/Users/josh_fleming/AppData/LocalLow/DefaultCompany/DJI Drone Sim\BenchmarkRuns\session_20260402_133209,20260402_133241_run003,3,forward_step,forward_step,2,Normal,settle,1.5,1,1.5,200,4.019997,0,1.959127,43.97283,0,0,0.000401,0.000401,0,0.000401,0,0,0,0,0,0,0,0,0
session_20260402_133209,C:/Users/josh_fleming/AppData/LocalLow/DefaultCompany/DJI Drone Sim\BenchmarkRuns\session_20260402_133209,20260402_133241_run003,3,forward_step,forward_step,2,Normal,settle,1.5,1,1.5,201,4.039997,0,1.959127,43.97284,0,0,0.000346,0.000346,0,0.000346,0,0,0,0,0,0,0,0,0
session_20260402_133209,C:/Users/josh_fleming/AppData/LocalLow/DefaultCompany/DJI Drone Sim\BenchmarkRuns\session_20260402_133209,20260402_133241_run003,3,forward_step,forward_step,2,Normal,settle,1.5,1,1.5,202,4.059997,0,1.959127,43.97284,0,0,0.000299,0.000299,0,0.000299,0,0,0,0,0,0,0,0,0
