session_id,session_dir,run_label,run_number,maneuver_name,protocol_category,protocol_order,maneuver_mode,benchmark_phase,maneuver_preroll_s,maneuver_duration_s,maneuver_settle_s,sample_index,time_s,pos_x_m,pos_y_m,pos_z_m,vel_x_mps,vel_y_mps,vel_z_mps,forward_speed_mps,lateral_speed_mps,horizontal_speed_mps,vertical_speed_mps,yaw_deg,pitch_deg,roll_deg,yaw_rate_degps,input_roll,input_pitch,input_throttle,input_yaw
session_20260402_133209,C:/Users/josh_fleming/AppData/LocalLow/DefaultCompany/DJI Drone Sim\BenchmarkRuns\session_20260402_133209,20260402_133301_run008,8,yaw_right,yaw_right,7,Normal,preroll,1.5,1,1.5,0,0.02,0,1.996076,40,0,-0.1962,0,0,0,0,-0.1962,0,0,0,0,0,0,0,0
session_20260402_133209,C:/Users/josh_fleming/AppData/LocalLow/DefaultCompany/DJI Drone Sim\BenchmarkRuns\session_20260402_133209,20260402_133301_run008,8,yaw_right,yaw_right,7,Normal,preroll,1.5,1,1.5,1,0.04,0,1.992529,40,0,-0.177365,0,0,0,0,-0.177365,0,0,0,0,0,0,0,0
session_20260402_133209,C:/Users/josh_fleming/AppData/LocalLow/DefaultCompany/DJI Drone Sim\BenchmarkRuns\session_20260402_133209,20260402_133301_run008,8,yaw_right,yaw_right,7,Normal,preroll,1.5,1,1.5,2,0.06,0,1.989322,40,0,-0.160338,0,0,0,0,-0.160338,0,0,0,0,0,0,0,0
session_20260402_133209,C:/Users/josh_fleming/AppData/LocalLow/DefaultCompany/DJI Drone Sim\BenchmarkRuns\session_20260402_133209,20260402_133301_run008,8,yaw_right,yaw_right,7,Normal,preroll,1.5,1,1.5,3,0.08,0,1.986423,40,0,-0.144945,0,0,0,0,-0.144945,0,0,0,0,0,0,0,0
session_20260402_133209,C:/Users/josh_fleming/AppData/LocalLow/DefaultCompany/DJI Drone Sim\BenchmarkRuns\session_20260402_133209,20260402_133301_run008,8,yaw_right,yaw_right,7,Normal,preroll,1.5,1,1.5,4,0.1,0,1.983802,40,0,-0.131031,0,0,0,0,-0.131031,0,0,0,0,0,0,0,0
session_20260402_133209,C:/Users/josh_fleming/AppData/LocalLow/DefaultCompany/DJI Drone Sim\BenchmarkRuns\session_20260402_133209,20260402_133301_run008,8,yaw_right,yaw_right,7,Normal,preroll,1.5,1,1.5,5,0.12,0,1.981433,40,0,-0.118452,0,0,0,0,-0.118452,0,0,0,0,0,0,0,0
session_20260402_133209,C:/Users/josh_fleming/AppData/LocalLow/DefaultCompany/DJI Drone Sim\BenchmarkRuns\session_20260402_133209,20260402_133301_run008,8,yaw_right,yaw_right,7,Normal,preroll,1.5,1,1.5,6,0.14,0,1.979292,40,0,-0.10708,0,0,0,0,-0.10708,0,0,0,0,0,0,0,0
session_20260402_133209,C:/Users/josh_fleming/AppData/LocalLow/DefaultCompany/DJI Drone Sim\BenchmarkRuns\session_20260402_133209,20260402_133301_run008,8,yaw_right,yaw_right,7,Normal,preroll,1.5,1,1.5,7,0.16,0,1.977356,40,0,-0.0968,0,0,0,0,-0.0968,0,0,0,0,0,0,0,0
session_20260402_133209,C:/Users/josh_fleming/AppData/LocalLow/DefaultCompany/DJI Drone Sim\BenchmarkRuns\session_20260402_133209,20260402_133301_run008,8,yaw_right,yaw_right,7,Normal,preroll,1.5,1,1.5,8,0.18,0,1.975606,40,0,-0.087508,0,0,0,0,-0.087508,0,0,0,0,0,0,0,0
session_20260402_133209,C:/Users/josh_fleming/AppData/LocalLow/DefaultCompany/DJI Drone Sim\BenchmarkRuns\session_20260402_133209,20260402_133301_run008,8,yaw_right,yaw_right,7,Normal,preroll,1.5,1,1.5,9,0.2,0,1.974024,40,0,-0.079107,0,0,0,0,-0.079107,0,0,0,0,0,0,0,0
session_20260402_133209,C:/Users/josh_fleming/AppData/LocalLow/DefaultCompany/DJI Drone Sim\BenchmarkRuns\session_20260402_133209,20260402_133301_run008,8,yaw_right,yaw_right,7,Normal,preroll,1.5,1,1.5,10,0.22,0,1.972593,40,0,-0.071513,0,0,0,0,-0.071513,0,0,0,0,0,0,0,0
session_20260402_133209,C:/Users/josh_fleming/AppData/LocalLow/DefaultCompany/DJI Drone Sim\BenchmarkRuns\session_20260402_133209,20260402_133301_run008,8,yaw_right,yaw_right,7,Normal,preroll,1.5,1,1.5,11,0.24,0,1.9713,40,0,-0.064647,0,0,0,0,-0.064647,0,0,0,0,0,0,0,0
session_20260402_133209,C:/Users/josh_fleming/AppData/LocalLow/DefaultCompany/DJI Drone Sim\BenchmarkRuns\session_20260402_133209,20260402_133301_run008,8,yaw_right,yaw_right,7,Normal,preroll,1.5,1,1.5,12,0.26,0,1.970132,40,0,-0.058441,0,0,0,0,-0.058441,0,0,0,0,0,0,0,0
session_20260402_133209,C:/Users/josh_fleming/AppData/LocalLow/DefaultCompany/DJI Drone Sim\BenchmarkRuns\session_20260402_133209,20260402_133301_run008,8,yaw_right,yaw_right,7,Normal,preroll,1.5,1,1.5,13,0.28,0,1.969075,40,0,-0.052831,0,0,0,0,-0.052831,0,0,0,0,0,0,0,0
session_20260402_133209,C:/Users/josh_fleming/AppData/LocalLow/DefaultCompany/DJI Drone Sim\BenchmarkRuns\session_20260402_133209,20260402_133301_run008,8,yaw_right,yaw_right,7,Normal,preroll,1.5,1,1.5,14,0.3,0,1.96812,40,0,-0.047759,0,0,0,0,-0.047759,0,0,0,0,0,0,0,0
session_20260402_133209,C:/Users/josh_fleming/AppData/LocalLow/DefaultCompany/DJI Drone Sim\BenchmarkRuns\session_20260402_133209,20260402_133301_run008,8,yaw_right,yaw_right,7,Normal,preroll,1.5,1,1.5,15,0.32,0,1.967256,40,0,-0.043174,0,0,0,0,-0.043174,0,0,0,0,0,0,0,0
session_20260402_133209,C:/Users/josh_fleming/AppData/LocalLow/DefaultCompany/DJI Drone Sim\BenchmarkRuns\session_20260402_133209,20260402_133301_run008,8,yaw_right,yaw_right,7,Normal,preroll,1.5,1,1.5,16,0.34,0,1.966476,40,0,-0.039029,0,0,0,0,-0.039029,0,0,0,0,0,0,0,0
session_20260402_133209,C:/Users/josh_fleming/AppData/LocalLow/DefaultCompany/DJI Drone Sim\BenchmarkRuns\session_20260402_133209,20260402_133301_run008,8,yaw_right,yaw_right,7,Normal,preroll,1.5,1,1.5,17,0.36,0,1.96577,40,0,-0.035283,0,0,0,0,-0.035283,0,0,0,0,0,0,0,0
session_20260402_133209,C:/Users/josh_fleming/AppData/LocalLow/DefaultCompany/DJI Drone Sim\BenchmarkRuns\session_20260402_133209,20260402_133301_run008,8,yaw_right,yaw_right,7,Normal,preroll,1.5,1,1.5,18,0.38,0,1.965132,40,0,-0.031896,0,0,0,0,-0.031896,0,0,0,0,0,0,0,0
session_20260402_133209,C:/Users/josh_fleming/AppData/LocalLow/DefaultCompany/DJI Drone Sim\BenchmarkRuns\session_20260402_133209,20260402_133301_run008,8,yaw_right,yaw_right,7,Normal,preroll,1.5,1,1.5,19,0.4,0,1.964556,40,0,-0.028834,0,0,0,0,-0.028834,0,0,0,0,0,0,0,0
session_20260402_133209,C:/Users/josh_fleming/AppData/LocalLow/DefaultCompany/DJI Drone Sim\BenchmarkRuns\session_20260402_133209,20260402_133301_run008,8,yaw_right,yaw_right,7,Normal,preroll,1.5,1,1.5,20,0.42,0,1.964034,40,0,-0.026066,0,0,0,0,-0.026066,0,0,0,0,0,0,0,0
session_20260402_133209,C:/Users/josh_fleming/AppData/LocalLow/DefaultCompany/DJI Drone Sim\BenchmarkRuns\session_20260402_133209,20260402_133301_run008,8,yaw_right,yaw_right,7,Normal,preroll,1.5,1,1.5,21,0.44,0,1.963563,40,0,-0.023563,0,0,0,0,-0.023563,0,0,0,0,0,0,0,0
session_20260402_133209,C:/Users/josh_fleming/AppData/LocalLow/DefaultCompany/DJI Drone Sim\BenchmarkRuns\session_20260402_133209,20260402_133301_run008,8,yaw_right,yaw_right,7,Normal,preroll,1.5,1,1.5,22,0.46,0,1.963137,40,0,-0.021301,0,0,0,0,-0.021301,0,0,0,0,0,0,0,0
session_20260402_133209,C:/Users/josh_fleming/AppData/LocalLow/DefaultCompany/DJI Drone Sim\BenchmarkRuns\session_20260402_133209,20260402_133301_run008,8,yaw_right,yaw_right,7,Normal,preroll,1.5,1,1.5,23,0.48,0,1.962752,40,0,-0.019256,0,0,0,0,-0.019256,0,0,0,0,0,0,0,0
session_20260402_133209,C:/Users/josh_fleming/AppData/LocalLow/DefaultCompany/DJI Drone Sim\BenchmarkRuns\session_20260402_133209,20260402_133301_run008,8,yaw_right,yaw_right,7,Normal,preroll,1.5,1,1.5,24,0.5,0,1.962404,40,0,-0.017408,0,0,0,0,-0.017408,0,0,0,0,0,0,0,0
session_20260402_133209,C:/Users/josh_fleming/AppData/LocalLow/DefaultCompany/DJI Drone Sim\BenchmarkRuns\session_20260402_133209,20260402_133301_run008,8,yaw_right,yaw_right,7,Normal,preroll,1.5,1,1.5,25,0.52,0,1.962089,40,0,-0.015736,0,0,0,0,-0.015736,0,0,0,0,0,0,0,0
session_20260402_133209,C:/Users/josh_fleming/AppData/LocalLow/DefaultCompany/DJI Drone Sim\BenchmarkRuns\session_20260402_133209,20260402_133301_run008,8,yaw_right,yaw_right,7,Normal,preroll,1.5,1,1.5,26,0.54,0,1.961804,40,0,-0.014226,0,0,0,0,-0.014226,0,0,0,0,0,0,0,0
session_20260402_133209,C:/Users/josh_fleming/AppData/LocalLow/DefaultCompany/DJI Drone Sim\BenchmarkRuns\session_20260402_133209,20260402_133301_run008,8,yaw_right,yaw_right,7,Normal,preroll,1.5,1,1.5,27,0.56,0,1.961547,40,0,-0.01286,0,0,0,0,-0.01286,0,0,0,0,0,0,0,0
session_20260402_133209,C:/Users/josh_fleming/AppData/LocalLow/DefaultCompany/DJI Drone Sim\BenchmarkRuns\session_20260402_133209,20260402_133301_run008,8,yaw_right,yaw_right,7,Normal,preroll,1.5,1,1.5,28,0.58,0,1.961315,40,0,-0.011626,0,0,0,0,-0.011626,0,0,0,0,0,0,0,0
session_20260402_133209,C:/Users/josh_fleming/AppData/LocalLow/DefaultCompany/DJI Drone Sim\BenchmarkRuns\session_20260402_133209,20260402_133301_run008,8,yaw_right,yaw_right,7,Normal,preroll,1.5,1,1.5,29,0.6,0,1.961104,40,0,-0.010509,0,0,0,0,-0.010509,0,0,0,0,0,0,0,0
session_20260402_133209,C:/Users/josh_fleming/AppData/LocalLow/DefaultCompany/DJI Drone Sim\BenchmarkRuns\session_20260402_133209,20260402_133301_run008,8,yaw_right,yaw_right,7,Normal,preroll,1.5,1,1.5,30,0.62,0,1.960914,40,0,-0.009501,0,0,0,0,-0.009501,0,0,0,0,0,0,0,0
session_20260402_133209,C:/Users/josh_fleming/AppData/LocalLow/DefaultCompany/DJI Drone Sim\BenchmarkRuns\session_20260402_133209,20260402_133301_run008,8,yaw_right,yaw_right,7,Normal,preroll,1.5,1,1.5,31,0.64,0,1.960743,40,0,-0.008588,0,0,0,0,-0.008588,0,0,0,0,0,0,0,0
session_20260402_133209,C:/Users/josh_fleming/AppData/LocalLow/DefaultCompany/DJI Drone Sim\BenchmarkRuns\session_20260402_133209,20260402_133301_run008,8,yaw_right,yaw_right,7,Normal,preroll,1.5,1,1.5,32,0.66,0,1.960587,40,0,-0.007764,0,0,0,0,-0.007764,0,0,0,0,0,0,0,0
session_20260402_133209,C:/Users/josh_fleming/AppData/LocalLow/DefaultCompany/DJI Drone Sim\BenchmarkRuns\session_20260402_133209,20260402_133301_run008,8,yaw_right,yaw_right,7,Normal,preroll,1.5,1,1.5,33,0.68,0,1.960447,40,0,-0.007019,0,0,0,0,-0.007019,0,0,0,0,0,0,0,0
session_20260402_133209,C:/Users/josh_fleming/AppData/LocalLow/DefaultCompany/DJI Drone Sim\BenchmarkRuns\session_20260402_133209,20260402_133301_run008,8,yaw_right,yaw_right,7,Normal,preroll,1.5,1,1.5,34,0.7,0,1.96032,40,0,-0.006345,0,0,0,0,-0.006345,0,0,0,0,0,0,0,0
session_20260402_133209,C:/Users/josh_fleming/AppData/LocalLow/DefaultCompany/DJI Drone Sim\BenchmarkRuns\session_20260402_133209,20260402_133301_run008,8,yaw_right,yaw_right,7,Normal,preroll,1.5,1,1.5,35,0.72,0,1.960205,40,0,-0.005736,0,0,0,0,-0.005736,0,0,0,0,0,0,0,0
session_20260402_133209,C:/Users/josh_fleming/AppData/LocalLow/DefaultCompany/DJI Drone Sim\BenchmarkRuns\session_20260402_133209,20260402_133301_run008,8,yaw_right,yaw_right,7,Normal,preroll,1.5,1,1.5,36,0.74,0,1.960102,40,0,-0.005185,0,0,0,0,-0.005185,0,0,0,0,0,0,0,0
session_20260402_133209,C:/Users/josh_fleming/AppData/LocalLow/DefaultCompany/DJI Drone Sim\BenchmarkRuns\session_20260402_133209,20260402_133301_run008,8,yaw_right,yaw_right,7,Normal,preroll,1.5,1,1.5,37,0.76,0,1.960008,40,0,-0.004687,0,0,0,0,-0.004687,0,0,0,0,0,0,0,0
session_20260402_133209,C:/Users/josh_fleming/AppData/LocalLow/DefaultCompany/DJI Drone Sim\BenchmarkRuns\session_20260402_133209,20260402_133301_run008,8,yaw_right,yaw_right,7,Normal,preroll,1.5,1,1.5,38,0.779999,0,1.959923,40,0,-0.004237,0,0,0,0,-0.004237,0,0,0,0,0,0,0,0
session_20260402_133209,C:/Users/josh_fleming/AppData/LocalLow/DefaultCompany/DJI Drone Sim\BenchmarkRuns\session_20260402_133209,20260402_133301_run008,8,yaw_right,yaw_right,7,Normal,preroll,1.5,1,1.5,39,0.799999,0,1.959846,40,0,-0.003831,0,0,0,0,-0.003831,0,0,0,0,0,0,0,0
session_20260402_133209,C:/Users/josh_fleming/AppData/LocalLow/DefaultCompany/DJI Drone Sim\BenchmarkRuns\session_20260402_133209,20260402_133301_run008,8,yaw_right,yaw_right,7,Normal,preroll,1.5,1,1.5,40,0.819999,0,1.959777,40,0,-0.003463,0,0,0,0,-0.003463,0,0,0,0,0,0,0,0
session_20260402_133209,C:/Users/josh_fleming/AppData/LocalLow/DefaultCompany/DJI Drone Sim\BenchmarkRuns\session_20260402_133209,20260402_133301_run008,8,yaw_right,yaw_right,7,Normal,preroll,1.5,1,1.5,41,0.839999,0,1.959715,40,0,-0.00313,0,0,0,0,-0.00313,0,0,0,0,0,0,0,0
session_20260402_133209,C:/Users/josh_fleming/AppData/LocalLow/DefaultCompany/DJI Drone Sim\BenchmarkRuns\session_20260402_133209,20260402_133301_run008,8,yaw_right,yaw_right,7,Normal,preroll,1.5,1,1.5,42,0.859999,0,1.959658,40,0,-0.00283,0,0,0,0,-0.00283,0,0,0,0,0,0,0,0
session_20260402_133209,C:/Users/josh_fleming/AppData/LocalLow/DefaultCompany/DJI Drone Sim\BenchmarkRuns\session_20260402_133209,20260402_133301_run008,8,yaw_right,yaw_right,7,Normal,preroll,1.5,1,1.5,43,0.879999,0,1.959607,40,0,-0.002558,0,0,0,0,-0.002558,0,0,0,0,0,0,0,0
session_20260402_133209,C:/Users/josh_fleming/AppData/LocalLow/DefaultCompany/DJI Drone Sim\BenchmarkRuns\session_20260402_133209,20260402_133301_run008,8,yaw_right,yaw_right,7,Normal,preroll,1.5,1,1.5,44,0.899999,0,1.959561,40,0,-0.002313,0,0,0,0,-0.002313,0,0,0,0,0,0,0,0
session_20260402_133209,C:/Users/josh_fleming/AppData/LocalLow/DefaultCompany/DJI Drone Sim\BenchmarkRuns\session_20260402_133209,20260402_133301_run008,8,yaw_right,yaw_right,7,Normal,preroll,1.5,1,1.5,45,0.919999,0,1.959519,40,0,-0.002091,0,0,0,0,-0.002091,0,0,0,0,0,0,0,0
session_20260402_133209,C:/Users/josh_fleming/AppData/LocalLow/DefaultCompany/DJI Drone Sim\BenchmarkRuns\session_20260402_133209,20260402_133301_run008,8,yaw_right,yaw_right,7,Normal,preroll,1.5,1,1.5,46,0.939999,0,1.959481,40,0,-0.00189,0,0,0,0,-0.00189,0,0,0,0,0,0,0,0
session_20260402_133209,C:/Users/josh_fleming/AppData/LocalLow/DefaultCompany/DJI Drone Sim\BenchmarkRuns\session_20260402_133209,20260402_133301_run008,8,yaw_right,yaw_right,7,Normal,preroll,1.5,1,1.5,47,0.959999,0,1.959447,40,0,-0.001708,0,0,0,0,-0.001708,0,0,0,0,0,0,0,0
session_20260402_133209,C:/Users/josh_fleming/AppData/LocalLow/DefaultCompany/DJI Drone Sim\BenchmarkRuns\session_20260402_133209,20260402_133301_run008,8,yaw_right,yaw_right,7,Normal,preroll,1.5,1,1.5,48,0.979999,0,1.959416,40,0,-0.001544,0,0,0,0,-0.001544,0,0,0,0,0,0,0,0
session_20260402_133209,C:/Users/josh_fleming/AppData/LocalLow/DefaultCompany/DJI Drone Sim\BenchmarkRuns\session_20260402_133209,20260402_133301_run008,8,yaw_right,yaw_right,7,Normal,preroll,1.5,1,1.5,49,0.999999,0,1.959388,40,0,-0.001396,0,0,0,0,-0.001396,0,0,0,0,0,0,0,0
session_20260402_133209,C:/Users/josh_fleming/AppData/LocalLow/DefaultCompany/DJI Drone Sim\BenchmarkRuns\session_20260402_133209,20260402_133301_run008,8,yaw_right,yaw_right,7,Normal,preroll,1.5,1,1.5,50,1.019999,0,1.959363,40,0,-0.001262,0,0,0,0,-0.001262,0,0,0,0,0,0,0,0
session_20260402_133209,C:/Users/josh_fleming/AppData/LocalLow/DefaultCompany/DJI Drone Sim\BenchmarkRuns\session_20260402_133209,20260402_133301_run008,8,yaw_right,yaw_right,7,Normal,preroll,1.5,1,1.5,51,1.039999,0,1.95934,40,0,-0.001141,0,0,0,0,-0.001141,0,0,0,0,0,0,0,0
session_20260402_133209,C:/Users/josh_fleming/AppData/LocalLow/DefaultCompany/DJI Drone Sim\BenchmarkRuns\session_20260402_133209,20260402_133301_run008,8,yaw_right,yaw_right,7,Normal,preroll,1.5,1,1.5,52,1.059999,0,1.959319,40,0,-0.001031,0,0,0,0,-0.001031,0,0,0,0,0,0,0,0
session_20260402_133209,C:/Users/josh_fleming/AppData/LocalLow/DefaultCompany/DJI Drone Sim\BenchmarkRuns\session_20260402_133209,20260402_133301_run008,8,yaw_right,yaw_right,7,Normal,preroll,1.5,1,1.5,53,1.079999,0,1.959301,40,0,-0.000932,0,0,0,0,-0.000932,0,0,0,0,0,0,0,0
session_20260402_133209,C:/Users/josh_fleming/AppData/LocalLow/DefaultCompany/DJI Drone Sim\BenchmarkRuns\session_20260402_133209,20260402_133301_run008,8,yaw_right,yaw_right,7,Normal,preroll,1.5,1,1.5,54,1.099999,0,1.959284,40,0,-0.000843,0,0,0,0,-0.000843,0,0,0,0,0,0,0,0
session_20260402_133209,C:/Users/josh_fleming/AppData/LocalLow/DefaultCompany/DJI Drone Sim\BenchmarkRuns\session_20260402_133209,20260402_133301_run008,8,yaw_right,yaw_right,7,Normal,preroll,1.5,1,1.5,55,1.119999,0,1.959269,40,0,-0.000762,0,0,0,0,-0.000762,0,0,0,0,0,0,0,0
session_20260402_133209,C:/Users/josh_fleming/AppData/LocalLow/DefaultCompany/DJI Drone Sim\BenchmarkRuns\session_20260402_133209,20260402_133301_run008,8,yaw_right,yaw_right,7,Normal,preroll,1.5,1,1.5,56,1.139999,0,1.959255,40,0,-0.000689,0,0,0,0,-0.000689,0,0,0,0,0,0,0,0
session_20260402_133209,C:/Users/josh_fleming/AppData/LocalLow/DefaultCompany/DJI Drone Sim\BenchmarkRuns\session_20260402_133209,20260402_133301_run008,8,yaw_right,yaw_right,7,Normal,preroll,1.5,1,1.5,57,1.159999,0,1.959242,40,0,-0.000623,0,0,0,0,-0.000623,0,0,0,0,0,0,0,0
session_20260402_133209,C:/Users/josh_fleming/AppData/LocalLow/DefaultCompany/DJI Drone Sim\BenchmarkRuns\session_20260402_133209,20260402_133301_run008,8,yaw_right,yaw_right,7,Normal,preroll,1.5,1,1.5,58,1.179999,0,1.959231,40,0,-0.000563,0,0,0,0,-0.000563,0,0,0,0,0,0,0,0
session_20260402_133209,C:/Users/josh_fleming/AppData/LocalLow/DefaultCompany/DJI Drone Sim\BenchmarkRuns\session_20260402_133209,20260402_133301_run008,8,yaw_right,yaw_right,7,Normal,preroll,1.5,1,1.5,59,1.199999,0,1.959221,40,0,-0.000509,0,0,0,0,-0.000509,0,0,0,0,0,0,0,0
session_20260402_133209,C:/Users/josh_fleming/AppData/LocalLow/DefaultCompany/DJI Drone Sim\BenchmarkRuns\session_20260402_133209,20260402_133301_run008,8,yaw_right,yaw_right,7,Normal,preroll,1.5,1,1.5,60,1.219999,0,1.959212,40,0,-0.00046,0,0,0,0,-0.00046,0,0,0,0,0,0,0,0
session_20260402_133209,C:/Users/josh_fleming/AppData/LocalLow/DefaultCompany/DJI Drone Sim\BenchmarkRuns\session_20260402_133209,20260402_133301_run008,8,yaw_right,yaw_right,7,Normal,preroll,1.5,1,1.5,61,1.239999,0,1.959204,40,0,-0.000416,0,0,0,0,-0.000416,0,0,0,0,0,0,0,0
session_20260402_133209,C:/Users/josh_fleming/AppData/LocalLow/DefaultCompany/DJI Drone Sim\BenchmarkRuns\session_20260402_133209,20260402_133301_run008,8,yaw_right,yaw_right,7,Normal,preroll,1.5,1,1.5,62,1.259999,0,1.959196,40,0,-0.000376,0,0,0,0,-0.000376,0,0,0,0,0,0,0,0
session_20260402_133209,C:/Users/josh_fleming/AppData/LocalLow/DefaultCompany/DJI Drone Sim\BenchmarkRuns\session_20260402_133209,20260402_133301_run008,8,yaw_right,yaw_right,7,Normal,preroll,1.5,1,1.5,63,1.279999,0,1.959189,40,0,-0.00034,0,0,0,0,-0.00034,0,0,0,0,0,0,0,0
session_20260402_133209,C:/Users/josh_fleming/AppData/LocalLow/DefaultCompany/DJI Drone Sim\BenchmarkRuns\session_20260402_133209,20260402_133301_run008,8,yaw_right,yaw_right,7,Normal,preroll,1.5,1,1.5,64,1.299999,0,1.959183,40,0,-0.000307,0,0,0,0,-0.000307,0,0,0,0,0,0,0,0
session_20260402_133209,C:/Users/josh_fleming/AppData/LocalLow/DefaultCompany/DJI Drone Sim\BenchmarkRuns\session_20260402_133209,20260402_133301_run008,8,yaw_right,yaw_right,7,Normal,preroll,1.5,1,1.5,65,1.319999,0,1.959177,40,0,-0.000278,0,0,0,0,-0.000278,0,0,0,0,0,0,0,0
session_20260402_133209,C:/Users/josh_fleming/AppData/LocalLow/DefaultCompany/DJI Drone Sim\BenchmarkRuns\session_20260402_133209,20260402_133301_run008,8,yaw_right,yaw_right,7,Normal,preroll,1.5,1,1.5,66,1.339999,0,1.959172,40,0,-0.000251,0,0,0,0,-0.000251,0,0,0,0,0,0,0,0
session_20260402_133209,C:/Users/josh_fleming/AppData/LocalLow/DefaultCompany/DJI Drone Sim\BenchmarkRuns\session_20260402_133209,20260402_133301_run008,8,yaw_right,yaw_right,7,Normal,preroll,1.5,1,1.5,67,1.359999,0,1.959168,40,0,-0.000227,0,0,0,0,-0.000227,0,0,0,0,0,0,0,0
session_20260402_133209,C:/Users/josh_fleming/AppData/LocalLow/DefaultCompany/DJI Drone Sim\BenchmarkRuns\session_20260402_133209,20260402_133301_run008,8,yaw_right,yaw_right,7,Normal,preroll,1.5,1,1.5,68,1.379999,0,1.959164,40,0,-0.000205,0,0,0,0,-0.000205,0,0,0,0,0,0,0,0
session_20260402_133209,C:/Users/josh_fleming/AppData/LocalLow/DefaultCompany/DJI Drone Sim\BenchmarkRuns\session_20260402_133209,20260402_133301_run008,8,yaw_right,yaw_right,7,Normal,preroll,1.5,1,1.5,69,1.399999,0,1.95916,40,0,-0.000185,0,0,0,0,-0.000185,0,0,0,0,0,0,0,0
session_20260402_133209,C:/Users/josh_fleming/AppData/LocalLow/DefaultCompany/DJI Drone Sim\BenchmarkRuns\session_20260402_133209,20260402_133301_run008,8,yaw_right,yaw_right,7,Normal,preroll,1.5,1,1.5,70,1.419999,0,1.959157,40,0,-0.000168,0,0,0,0,-0.000168,0,0,0,0,0,0,0,0
session_20260402_133209,C:/Users/josh_fleming/AppData/LocalLow/DefaultCompany/DJI Drone Sim\BenchmarkRuns\session_20260402_133209,20260402_133301_run008,8,yaw_right,yaw_right,7,Normal,preroll,1.5,1,1.5,71,1.439999,0,1.959154,40,0,-0.000152,0,0,0,0,-0.000152,0,0,0,0,0,0,0,0
session_20260402_133209,C:/Users/josh_fleming/AppData/LocalLow/DefaultCompany/DJI Drone Sim\BenchmarkRuns\session_20260402_133209,20260402_133301_run008,8,yaw_right,yaw_right,7,Normal,preroll,1.5,1,1.5,72,1.459999,0,1.959151,40,0,-0.000137,0,0,0,0,-0.000137,0,0,0,0,0,0,0,0
session_20260402_133209,C:/Users/josh_fleming/AppData/LocalLow/DefaultCompany/DJI Drone Sim\BenchmarkRuns\session_20260402_133209,20260402_133301_run008,8,yaw_right,yaw_right,7,Normal,preroll,1.5,1,1.5,73,1.479999,0,1.959149,40,0,-0.000124,0,0,0,0,-0.000124,0,0,0,0,0,0,0,0
session_20260402_133209,C:/Users/josh_fleming/AppData/LocalLow/DefaultCompany/DJI Drone Sim\BenchmarkRuns\session_20260402_133209,20260402_133301_run008,8,yaw_right,yaw_right,7,Normal,preroll,1.5,1,1.5,74,1.499999,0,1.959146,40,0,-0.000112,0,0,0,0,-0.000112,0,0,0,0,0,0,0,0
session_20260402_133209,C:/Users/josh_fleming/AppData/LocalLow/DefaultCompany/DJI Drone Sim\BenchmarkRuns\session_20260402_133209,20260402_133301_run008,8,yaw_right,yaw_right,7,Normal,preroll,1.5,1,1.5,75,1.519999,0,1.959144,40,0,-0.000101,0,0,0,0,-0.000101,0,0,0,0,0,0,0,0
session_20260402_133209,C:/Users/josh_fleming/AppData/LocalLow/DefaultCompany/DJI Drone Sim\BenchmarkRuns\session_20260402_133209,20260402_133301_run008,8,yaw_right,yaw_right,7,Normal,input,1.5,1,1.5,76,1.539999,0,1.959143,40,0,-0.000091,0,0,0,0,-0.000091,0,0,0,0,0,0,0,1
session_20260402_133209,C:/Users/josh_fleming/AppData/LocalLow/DefaultCompany/DJI Drone Sim\BenchmarkRuns\session_20260402_133209,20260402_133301_run008,8,yaw_right,yaw_right,7,Normal,input,1.5,1,1.5,77,1.559999,0,1.959141,40,0,-0.000083,0,0,0,0,-0.000083,0,0,0,0,0,0,0,1
session_20260402_133209,C:/Users/josh_fleming/AppData/LocalLow/DefaultCompany/DJI Drone Sim\BenchmarkRuns\session_20260402_133209,20260402_133301_run008,8,yaw_right,yaw_right,7,Normal,input,1.5,1,1.5,78,1.579999,0,1.959139,40,0,-0.000075,0,0,0,0,-0.000075,0.297281,0,0,14.86407,0,0,0,1
session_20260402_133209,C:/Users/josh_fleming/AppData/LocalLow/DefaultCompany/DJI Drone Sim\BenchmarkRuns\session_20260402_133209,20260402_133301_run008,8,yaw_right,yaw_right,7,Normal,input,1.5,1,1.5,79,1.599999,0,1.959138,40,0,-0.000068,0,0,0,0,-0.000068,0.837956,0,0,27.03374,0,0,0,1
session_20260402_133209,C:/Users/josh_fleming/AppData/LocalLow/DefaultCompany/DJI Drone Sim\BenchmarkRuns\session_20260402_133209,20260402_133301_run008,8,yaw_right,yaw_right,7,Normal,input,1.5,1,1.5,80,1.619999,0,1.959137,40,0,-0.000061,0,0,0,0,-0.000061,1.577904,0,0,36.99743,0,0,0,1
session_20260402_133209,C:/Users/josh_fleming/AppData/LocalLow/DefaultCompany/DJI Drone Sim\BenchmarkRuns\session_20260402_133209,20260402_133301_run008,8,yaw_right,yaw_right,7,Normal,input,1.5,1,1.5,81,1.639999,0,1.959136,40,0,-0.000055,0,0,0,0,-0.000055,2.481004,0,0,45.15501,0,0,0,1
session_20260402_133209,C:/Users/josh_fleming/AppData/LocalLow/DefaultCompany/DJI Drone Sim\BenchmarkRuns\session_20260402_133209,20260402_133301_run008,8,yaw_right,yaw_right,7,Normal,input,1.5,1,1.5,82,1.659999,0,1.959135,40,0,-0.00005,0,0,0,0,-0.00005,3.517681,0,0,51.83388,0,0,0,1
session_20260402_133209,C:/Users/josh_fleming/AppData/LocalLow/DefaultCompany/DJI Drone Sim\BenchmarkRuns\session_20260402_133209,20260402_133301_run008,8,yaw_right,yaw_right,7,Normal,input,1.5,1,1.5,83,1.679999,0,1.959134,40,0,-0.000045,0,0,0,0,-0.000045,4.663721,0,0,57.302,0,0,0,1
session_20260402_133209,C:/Users/josh_fleming/AppData/LocalLow/DefaultCompany/DJI Drone Sim\BenchmarkRuns\session_20260402_133209,20260402_133301_run008,8,yaw_right,yaw_right,7,Normal,input,1.5,1,1.5,84,1.699999,0,1.959133,40,0,-0.000041,0,0,0,0,-0.000041,5.899302,0,0,61.77909,0,0,0,1
session_20260402_133209,C:/Users/josh_fleming/AppData/LocalLow/DefaultCompany/DJI Drone Sim\BenchmarkRuns\session_20260402_133209,20260402_133301_run008,8,yaw_right,yaw_right,7,Normal,input,1.5,1,1.5,85,1.719999,0,1.959132,40,0,-0.000037,0,0,0,0,-0.000037,7.208191,0,0,65.44447,0,0,0,1
session_20260402_133209,C:/Users/josh_fleming/AppData/LocalLow/DefaultCompany/DJI Drone Sim\BenchmarkRuns\session_20260402_133209,20260402_133301_run008,8,yaw_right,yaw_right,7,Normal,input,1.5,1,1.5,86,1.739999,0,1.959132,40,0,-0.000033,0,0,0,0,-0.000033,8.577098,0,0,68.44537,0,0,0,1
session_20260402_133209,C:/Users/josh_fleming/AppData/LocalLow/DefaultCompany/DJI Drone Sim\BenchmarkRuns\session_20260402_133209,20260402_133301_run008,8,yaw_right,yaw_right,7,Normal,input,1.5,1,1.5,87,1.759999,0,1.959131,40,0,-0.00003,0,0,0,0,-0.00003,9.995146,0,0,70.90242,0,0,0,1
session_20260402_133209,C:/Users/josh_fleming/AppData/LocalLow/DefaultCompany/DJI Drone Sim\BenchmarkRuns\session_20260402_133209,20260402_133301_run008,8,yaw_right,yaw_right,7,Normal,input,1.5,1,1.5,88,1.779999,0,1.95913,40,0,-0.000027,0,0,0,0,-0.000027,11.45343,0,0,72.91401,0,0,0,1
session_20260402_133209,C:/Users/josh_fleming/AppData/LocalLow/DefaultCompany/DJI Drone Sim\BenchmarkRuns\session_20260402_133209,20260402_133301_run008,8,yaw_right,yaw_right,7,Normal,input,1.5,1,1.5,89,1.799999,0,1.95913,40,0,-0.000025,0,0,0,0,-0.000025,12.94465,0,0,74.56124,0,0,0,1
session_20260402_133209,C:/Users/josh_fleming/AppData/LocalLow/DefaultCompany/DJI Drone Sim\BenchmarkRuns\session_20260402_133209,20260402_133301_run008,8,yaw_right,yaw_right,7,Normal,input,1.5,1,1.5,90,1.819999,0,1.959129,40,0,-0.000022,0,0,0,0,-0.000022,14.46284,0,0,75.90974,0,0,0,1
session_20260402_133209,C:/Users/josh_fleming/AppData/LocalLow/DefaultCompany/DJI Drone Sim\BenchmarkRuns\session_20260402_133209,20260402_133301_run008,8,yaw_right,yaw_right,7,Normal,input,1.5,1,1.5,91,1.839998,0,1.959129,40,0,-0.00002,0,0,0,0,-0.00002,16.00311,0,0,77.01347,0,0,0,1
session_20260402_133209,C:/Users/josh_fleming/AppData/LocalLow/DefaultCompany/DJI Drone Sim\BenchmarkRuns\session_20260402_133209,20260402_133301_run008,8,yaw_right,yaw_right,7,Normal,input,1.5,1,1.5,92,1.859998,0,1.959129,40,0,-0.000018,0,0,0,0,-0.000018,17.56147,0,0,77.9177,0,0,0,1
session_20260402_133209,C:/Users/josh_fleming/AppData/LocalLow/DefaultCompany/DJI Drone Sim\BenchmarkRuns\session_20260402_133209,20260402_133301_run008,8,yaw_right,yaw_right,7,Normal,input,1.5,1,1.5,93,1.879998,0,1.959128,40,0,-0.000016,0,0,0,0,-0.000016,19.13462,0,0,78.65775,0,0,0,1
session_20260402_133209,C:/Users/josh_fleming/AppData/LocalLow/DefaultCompany/DJI Drone Sim\BenchmarkRuns\session_20260402_133209,20260402_133301_run008,8,yaw_right,yaw_right,7,Normal,input,1.5,1,1.5,94,1.899998,0,1.959128,40,0,-0.000015,0,0,0,0,-0.000015,20.71988,0,0,79.26315,0,0,0,1
session_20260402_133209,C:/Users/josh_fleming/AppData/LocalLow/DefaultCompany/DJI Drone Sim\BenchmarkRuns\session_20260402_133209,20260402_133301_run008,8,yaw_right,yaw_right,7,Normal,input,1.5,1,1.5,95,1.919998,0,1.959128,40,0,-0.000013,0,0,0,0,-0.000013,22.31507,0,0,79.75925,0,0,0,1
session_20260402_133209,C:/Users/josh_fleming/AppData/LocalLow/DefaultCompany/DJI Drone Sim\BenchmarkRuns\session_20260402_133209,20260402_133301_run008,8,yaw_right,yaw_right,7,Normal,input,1.5,1,1.5,96,1.939998,0,1.959128,40,0,-0.000012,0,0,0,0,-0.000012,23.91838,0,0,80.16542,0,0,0,1
session_20260402_133209,C:/Users/josh_fleming/AppData/LocalLow/DefaultCompany/DJI Drone Sim\BenchmarkRuns\session_20260402_133209,20260402_133301_run008,8,yaw_right,yaw_right,7,Normal,input,1.5,1,1.5,97,1.959998,0,1.959127,40,0,-0.000011,0,0,0,0,-0.000011,25.52835,0,0,80.49873,0,0,0,1
session_20260402_133209,C:/Users/josh_fleming/AppData/LocalLow/DefaultCompany/DJI Drone Sim\BenchmarkRuns\session_20260402_133209,20260402_133301_run008,8,yaw_right,yaw_right,7,Normal,input,1.5,1,1.5,98,1.979998,0,1.959127,40,0,-0.00001,0,0,0,0,-0.00001,27.14376,0,0,80.77043,0,0,0,1
session_20260402_133209,C:/Users/josh_fleming/AppData/LocalLow/DefaultCompany/DJI Drone Sim\BenchmarkRuns\session_20260402_133209,20260402_133301_run008,8,yaw_right,yaw_right,7,Normal,input,1.5,1,1.5,99,1.999998,0,1.959127,40,0,-0.000009,0,0,0,0,-0.000009,28.76361,0,0,80.99292,0,0,0,1
session_20260402_133209,C:/Users/josh_fleming/AppData/LocalLow/DefaultCompany/DJI Drone Sim\BenchmarkRuns\session_20260402_133209,20260402_133301_run008,8,yaw_right,yaw_right,7,Normal,input,1.5,1,1.5,100,2.019998,0,1.959127,40,0,-0.000008,0,0,0,0,-0.000008,30.38713,0,0,81.17593,0,0,0,1
session_20260402_133209,C:/Users/josh_fleming/AppData/LocalLow/DefaultCompany/DJI Drone Sim\BenchmarkRuns\session_20260402_133209,20260402_133301_run008,8,yaw_right,yaw_right,7,Normal,input,1.5,1,1.5,101,2.039998,0,1.959127,40,0,-0.000007,0,0,0,0,-0.000007,32.01363,0,0,81.32509,0,0,0,1
session_20260402_133209,C:/Users/josh_fleming/AppData/LocalLow/DefaultCompany/DJI Drone Sim\BenchmarkRuns\session_20260402_133209,20260402_133301_run008,8,yaw_right,yaw_right,7,Normal,input,1.5,1,1.5,102,2.059998,0,1.959127,40,0,-0.000007,0,0,0,0,-0.000007,33.64257,0,0,81.44668,0,0,0,1
session_20260402_133209,C:/Users/josh_fleming/AppData/LocalLow/DefaultCompany/DJI Drone Sim\BenchmarkRuns\session_20260402_133209,20260402_133301_run008,8,yaw_right,yaw_right,7,Normal,input,1.5,1,1.5,103,2.079998,0,1.959127,40,0,-0.000006,0,0,0,0,-0.000006,35.27354,0,0,81.54872,0,0,0,1
session_20260402_133209,C:/Users/josh_fleming/AppData/LocalLow/DefaultCompany/DJI Drone Sim\BenchmarkRuns\session_20260402_133209,20260402_133301_run008,8,yaw_right,yaw_right,7,Normal,input,1.5,1,1.5,104,2.099998,0,1.959126,40,0,-0.000005,0,0,0,0,-0.000005,36.90614,0,0,81.62978,0,0,0,1
session_20260402_133209,C:/Users/josh_fleming/AppData/LocalLow/DefaultCompany/DJI Drone Sim\BenchmarkRuns\session_20260402_133209,20260402_133301_run008,8,yaw_right,yaw_right,7,Normal,input,1.5,1,1.5,105,2.119998,0,1.959126,40,0,-0.000005,0,0,0,0,-0.000005,38.54008,0,0,81.69749,0,0,0,1
session_20260402_133209,C:/Users/josh_fleming/AppData/LocalLow/DefaultCompany/DJI Drone Sim\BenchmarkRuns\session_20260402_133209,20260402_133301_run008,8,yaw_right,yaw_right,7,Normal,input,1.5,1,1.5,106,2.139998,0,1.959126,40,0,-0.000004,0,0,0,0,-0.000004,40.17511,0,0,81.75128,0,0,0,1
session_20260402_133209,C:/Users/josh_fleming/AppData/LocalLow/DefaultCompany/DJI Drone Sim\BenchmarkRuns\session_20260402_133209,20260402_133301_run008,8,yaw_right,yaw_right,7,Normal,input,1.5,1,1.5,107,2.159998,0,1.959126,40,0,-0.000004,0,0,0,0,-0.000004,41.81104,0,0,81.79668,0,0,0,1
session_20260402_133209,C:/Users/josh_fleming/AppData/LocalLow/DefaultCompany/DJI Drone Sim\BenchmarkRuns\session_20260402_133209,20260402_133301_run008,8,yaw_right,yaw_right,7,Normal,input,1.5,1,1.5,108,2.179998,0,1.959126,40,0,-0.000004,0,0,0,0,-0.000004,43.4477,0,0,81.83292,0,0,0,1
session_20260402_133209,C:/Users/josh_fleming/AppData/LocalLow/DefaultCompany/DJI Drone Sim\BenchmarkRuns\session_20260402_133209,20260402_133301_run008,8,yaw_right,yaw_right,7,Normal,input,1.5,1,1.5,109,2.199998,0,1.959126,40,0,-0.000003,0,0,0,0,-0.000003,45.08497,0,0,81.86362,0,0,0,1
session_20260402_133209,C:/Users/josh_fleming/AppData/LocalLow/DefaultCompany/DJI Drone Sim\BenchmarkRuns\session_20260402_133209,20260402_133301_run008,8,yaw_right,yaw_right,7,Normal,input,1.5,1,1.5,110,2.219998,0,1.959126,40,0,-0.000003,0,0,0,0,-0.000003,46.72273,0,0,81.88804,0,0,0,1
session_20260402_133209,C:/Users/josh_fleming/AppData/LocalLow/DefaultCompany/DJI Drone Sim\BenchmarkRuns\session_20260402_133209,20260402_133301_run008,8,yaw_right,yaw_right,7,Normal,input,1.5,1,1.5,111,2.239998,0,1.959126,40,0,-0.000003,0,0,0,0,-0.000003,48.3609,0,0,81.90826,0,0,0,1
session_20260402_133209,C:/Users/josh_fleming/AppData/LocalLow/DefaultCompany/DJI Drone Sim\BenchmarkRuns\session_20260402_133209,20260402_133301_run008,8,yaw_right,yaw_right,7,Normal,input,1.5,1,1.5,112,2.259998,0,1.959126,40,0,-0.000002,0,0,0,0,-0.000002,49.9994,0,0,81.92542,0,0,0,1
session_20260402_133209,C:/Users/josh_fleming/AppData/LocalLow/DefaultCompany/DJI Drone Sim\BenchmarkRuns\session_20260402_133209,20260402_133301_run008,8,yaw_right,yaw_right,7,Normal,input,1.5,1,1.5,113,2.279998,0,1.959126,40,0,-0.000002,0,0,0,0,-0.000002,51.63817,0,0,81.93839,0,0,0,1
session_20260402_133209,C:/Users/josh_fleming/AppData/LocalLow/DefaultCompany/DJI Drone Sim\BenchmarkRuns\session_20260402_133209,20260402_133301_run008,8,yaw_right,yaw_right,7,Normal,input,1.5,1,1.5,114,2.299998,0,1.959126,40,0,-0.000002,0,0,0,0,-0.000002,53.27716,0,0,81.94946,0,0,0,1
session_20260402_133209,C:/Users/josh_fleming/AppData/LocalLow/DefaultCompany/DJI Drone Sim\BenchmarkRuns\session_20260402_133209,20260402_133301_run008,8,yaw_right,yaw_right,7,Normal,input,1.5,1,1.5,115,2.319998,0,1.959126,40,0,-0.000002,0,0,0,0,-0.000002,54.91634,0,0,81.9588,0,0,0,1
session_20260402_133209,C:/Users/josh_fleming/AppData/LocalLow/DefaultCompany/DJI Drone Sim\BenchmarkRuns\session_20260402_133209,20260402_133301_run008,8,yaw_right,yaw_right,7,Normal,input,1.5,1,1.5,116,2.339998,0,1.959126,40,0,-0.000002,0,0,0,0,-0.000002,56.55566,0,0,81.96624,0,0,0,1
session_20260402_133209,C:/Users/josh_fleming/AppData/LocalLow/DefaultCompany/DJI Drone Sim\BenchmarkRuns\session_20260402_133209,20260402_133301_run008,8,yaw_right,yaw_right,7,Normal,input,1.5,1,1.5,117,2.359998,0,1.959126,40,0,-0.000001,0,0,0,0,-0.000001,58.19511,0,0,81.97253,0,0,0,1
session_20260402_133209,C:/Users/josh_fleming/AppData/LocalLow/DefaultCompany/DJI Drone Sim\BenchmarkRuns\session_20260402_133209,20260402_133301_run008,8,yaw_right,yaw_right,7,Normal,input,1.5,1,1.5,118,2.379998,0,1.959126,40,0,-0.000001,0,0,0,0,-0.000001,59.83464,0,0,81.97673,0,0,0,1
session_20260402_133209,C:/Users/josh_fleming/AppData/LocalLow/DefaultCompany/DJI Drone Sim\BenchmarkRuns\session_20260402_133209,20260402_133301_run008,8,yaw_right,yaw_right,7,Normal,input,1.5,1,1.5,119,2.399998,0,1.959126,40,0,-0.000001,0,0,0,0,-0.000001,61.47429,0,0,81.98245,0,0,0,1
session_20260402_133209,C:/Users/josh_fleming/AppData/LocalLow/DefaultCompany/DJI Drone Sim\BenchmarkRuns\session_20260402_133209,20260402_133301_run008,8,yaw_right,yaw_right,7,Normal,input,1.5,1,1.5,120,2.419998,0,1.959126,40,0,-0.000001,0,0,0,0,-0.000001,63.11399,0,0,81.98512,0,0,0,1
session_20260402_133209,C:/Users/josh_fleming/AppData/LocalLow/DefaultCompany/DJI Drone Sim\BenchmarkRuns\session_20260402_133209,20260402_133301_run008,8,yaw_right,yaw_right,7,Normal,input,1.5,1,1.5,121,2.439998,0,1.959126,40,0,-0.000001,0,0,0,0,-0.000001,64.75374,0,0,81.98722,0,0,0,1
session_20260402_133209,C:/Users/josh_fleming/AppData/LocalLow/DefaultCompany/DJI Drone Sim\BenchmarkRuns\session_20260402_133209,20260402_133301_run008,8,yaw_right,yaw_right,7,Normal,input,1.5,1,1.5,122,2.459998,0,1.959126,40,0,-0.000001,0,0,0,0,-0.000001,66.39354,0,0,81.99008,0,0,0,1
session_20260402_133209,C:/Users/josh_fleming/AppData/LocalLow/DefaultCompany/DJI Drone Sim\BenchmarkRuns\session_20260402_133209,20260402_133301_run008,8,yaw_right,yaw_right,7,Normal,input,1.5,1,1.5,123,2.479998,0,1.959126,40,0,-0.000001,0,0,0,0,-0.000001,68.03336,0,0,81.99084,0,0,0,1
session_20260402_133209,C:/Users/josh_fleming/AppData/LocalLow/DefaultCompany/DJI Drone Sim\BenchmarkRuns\session_20260402_133209,20260402_133301_run008,8,yaw_right,yaw_right,7,Normal,input,1.5,1,1.5,124,2.499998,0,1.959126,40,0,-0.000001,0,0,0,0,-0.000001,69.67324,0,0,81.99428,0,0,0,1
session_20260402_133209,C:/Users/josh_fleming/AppData/LocalLow/DefaultCompany/DJI Drone Sim\BenchmarkRuns\session_20260402_133209,20260402_133301_run008,8,yaw_right,yaw_right,7,Normal,input,1.5,1,1.5,125,2.519998,0,1.959126,40,0,-0.000001,0,0,0,0,-0.000001,71.31313,0,0,81.99466,0,0,0,1
session_20260402_133209,C:/Users/josh_fleming/AppData/LocalLow/DefaultCompany/DJI Drone Sim\BenchmarkRuns\session_20260402_133209,20260402_133301_run008,8,yaw_right,yaw_right,7,Normal,input,1.5,1,1.5,126,2.539998,0,1.959126,40,0,0,0,0,0,0,0,72.95306,0,0,81.99619,0,0,0,1
session_20260402_133209,C:/Users/josh_fleming/AppData/LocalLow/DefaultCompany/DJI Drone Sim\BenchmarkRuns\session_20260402_133209,20260402_133301_run008,8,yaw_right,yaw_right,7,Normal,settle,1.5,1,1.5,127,2.559998,0,1.959126,40,0,0,0,0,0,0,0,74.59299,0,0,81.99695,0,0,0,0
session_20260402_133209,C:/Users/josh_fleming/AppData/LocalLow/DefaultCompany/DJI Drone Sim\BenchmarkRuns\session_20260402_133209,20260402_133301_run008,8,yaw_right,yaw_right,7,Normal,settle,1.5,1,1.5,128,2.579998,0,1.959126,40,0,0,0,0,0,0,0,76.23296,0,0,81.99809,0,0,0,0
session_20260402_133209,C:/Users/josh_fleming/AppData/LocalLow/DefaultCompany/DJI Drone Sim\BenchmarkRuns\session_20260402_133209,20260402_133301_run008,8,yaw_right,yaw_right,7,Normal,settle,1.5,1,1.5,129,2.599998,0,1.959126,40,0,0,0,0,0,0,0,77.57564,0,0,67.13412,0,0,0,0
session_20260402_133209,C:/Users/josh_fleming/AppData/LocalLow/DefaultCompany/DJI Drone Sim\BenchmarkRuns\session_20260402_133209,20260402_133301_run008,8,yaw_right,yaw_right,7,Normal,settle,1.5,1,1.5,130,2.619998,0,1.959126,40,0,0,0,0,0,0,0,78.67492,0,0,54.96409,0,0,0,0
session_20260402_133209,C:/Users/josh_fleming/AppData/LocalLow/DefaultCompany/DJI Drone Sim\BenchmarkRuns\session_20260402_133209,20260402_133301_run008,8,yaw_right,yaw_right,7,Normal,settle,1.5,1,1.5,131,2.639998,0,1.959126,40,0,0,0,0,0,0,0,79.57494,0,0,45.00086,0,0,0,0
session_20260402_133209,C:/Users/josh_fleming/AppData/LocalLow/DefaultCompany/DJI Drone Sim\BenchmarkRuns\session_20260402_133209,20260402_133301_run008,8,yaw_right,yaw_right,7,Normal,settle,1.5,1,1.5,132,2.659998,0,1.959126,40,0,0,0,0,0,0,0,80.31182,0,0,36.84427,0,0,0,0
session_20260402_133209,C:/Users/josh_fleming/AppData/LocalLow/DefaultCompany/DJI Drone Sim\BenchmarkRuns\session_20260402_133209,20260402_133301_run008,8,yaw_right,yaw_right,7,Normal,settle,1.5,1,1.5,133,2.679998,0,1.959126,40,0,0,0,0,0,0,0,80.91513,0,0,30.16549,0,0,0,0
session_20260402_133209,C:/Users/josh_fleming/AppData/LocalLow/DefaultCompany/DJI Drone Sim\BenchmarkRuns\session_20260402_133209,20260402_133301_run008,8,yaw_right,yaw_right,7,Normal,settle,1.5,1,1.5,134,2.699998,0,1.959126,40,0,0,0,0,0,0,0,81.40907,0,0,24.69674,0,0,0,0
session_20260402_133209,C:/Users/josh_fleming/AppData/LocalLow/DefaultCompany/DJI Drone Sim\BenchmarkRuns\session_20260402_133209,20260402_133301_run008,8,yaw_right,yaw_right,7,Normal,settle,1.5,1,1.5,135,2.719998,0,1.959126,40,0,0,0,0,0,0,0,81.81348,0,0,20.22095,0,0,0,0
session_20260402_133209,C:/Users/josh_fleming/AppData/LocalLow/DefaultCompany/DJI Drone Sim\BenchmarkRuns\session_20260402_133209,20260402_133301_run008,8,yaw_right,yaw_right,7,Normal,settle,1.5,1,1.5,136,2.739998,0,1.959126,40,0,0,0,0,0,0,0,82.14456,0,0,16.55388,0,0,0,0
session_20260402_133209,C:/Users/josh_fleming/AppData/LocalLow/DefaultCompany/DJI Drone Sim\BenchmarkRuns\session_20260402_133209,20260402_133301_run008,8,yaw_right,yaw_right,7,Normal,settle,1.5,1,1.5,137,2.759998,0,1.959126,40,0,0,0,0,0,0,0,82.41564,0,0,13.55401,0,0,0,0
session_20260402_133209,C:/Users/josh_fleming/AppData/LocalLow/DefaultCompany/DJI Drone Sim\BenchmarkRuns\session_20260402_133209,20260402_133301_run008,8,yaw_right,yaw_right,7,Normal,settle,1.5,1,1.5,138,2.779998,0,1.959126,40,0,0,0,0,0,0,0,82.63759,0,0,11.09734,0,0,0,0
session_20260402_133209,C:/Users/josh_fleming/AppData/LocalLow/DefaultCompany/DJI Drone Sim\BenchmarkRuns\session_20260402_133209,20260402_133301_run008,8,yaw_right,yaw_right,7,Normal,settle,1.5,1,1.5,139,2.799998,0,1.959126,40,0,0,0,0,0,0,0,82.81931,0,0,9.08585,0,0,0,0
session_20260402_133209,C:/Users/josh_fleming/AppData/LocalLow/DefaultCompany/DJI Drone Sim\BenchmarkRuns\session_20260402_133209,20260402_133301_run008,8,yaw_right,yaw_right,7,Normal,settle,1.5,1,1.5,140,2.819998,0,1.959126,40,0,0,0,0,0,0,0,82.96806,0,0,7.4379,0,0,0,0
session_20260402_133209,C:/Users/josh_fleming/AppData/LocalLow/DefaultCompany/DJI Drone Sim\BenchmarkRuns\session_20260402_133209,20260402_133301_run008,8,yaw_right,yaw_right,7,Normal,settle,1.5,1,1.5,141,2.839998,0,1.959126,40,0,0,0,0,0,0,0,83.08987,0,0,6.090167,0,0,0,0
session_20260402_133209,C:/Users/josh_fleming/AppData/LocalLow/DefaultCompany/DJI Drone Sim\BenchmarkRuns\session_20260402_133209,20260402_133301_run008,8,yaw_right,yaw_right,7,Normal,settle,1.5,1,1.5,142,2.859998,0,1.959126,40,0,0,0,0,0,0,0,83.1896,0,0,4.986574,0,0,0,0
session_20260402_133209,C:/Users/josh_fleming/AppData/LocalLow/DefaultCompany/DJI Drone Sim\BenchmarkRuns\session_20260402_133209,20260402_133301_run008,8,yaw_right,yaw_right,7,Normal,settle,1.5,1,1.5,143,2.879997,0,1.959126,40,0,0,0,0,0,0,0,83.27125,0,0,4.08249,0,0,0,0
session_20260402_133209,C:/Users/josh_fleming/AppData/LocalLow/DefaultCompany/DJI Drone Sim\BenchmarkRuns\session_20260402_133209,20260402_133301_run008,8,yaw_right,yaw_right,7,Normal,settle,1.5,1,1.5,144,2.899997,0,1.959126,40,0,0,0,0,0,0,0,83.3381,0,0,3.342439,0,0,0,0
session_20260402_133209,C:/Users/josh_fleming/AppData/LocalLow/DefaultCompany/DJI Drone Sim\BenchmarkRuns\session_20260402_133209,20260402_133301_run008,8,yaw_right,yaw_right,7,Normal,settle,1.5,1,1.5,145,2.919997,0,1.959126,40,0,0,0,0,0,0,0,83.39283,0,0,2.736665,0,0,0,0
session_20260402_133209,C:/Users/josh_fleming/AppData/LocalLow/DefaultCompany/DJI Drone Sim\BenchmarkRuns\session_20260402_133209,20260402_133301_run008,8,yaw_right,yaw_right,7,Normal,settle,1.5,1,1.5,146,2.939997,0,1.959126,40,0,0,0,0,0,0,0,83.43765,0,0,2.241136,0,0,0,0
session_20260402_133209,C:/Users/josh_fleming/AppData/LocalLow/DefaultCompany/DJI Drone Sim\BenchmarkRuns\session_20260402_133209,20260402_133301_run008,8,yaw_right,yaw_right,7,Normal,settle,1.5,1,1.5,147,2.959997,0,1.959126,40,0,0,0,0,0,0,0,83.47437,0,0,1.836015,0,0,0,0
session_20260402_133209,C:/Users/josh_fleming/AppData/LocalLow/DefaultCompany/DJI Drone Sim\BenchmarkRuns\session_20260402_133209,20260402_133301_run008,8,yaw_right,yaw_right,7,Normal,settle,1.5,1,1.5,148,2.979997,0,1.959126,40,0,0,0,0,0,0,0,83.50443,0,0,1.502991,0,0,0,0
session_20260402_133209,C:/Users/josh_fleming/AppData/LocalLow/DefaultCompany/DJI Drone Sim\BenchmarkRuns\session_20260402_133209,20260402_133301_run008,8,yaw_right,yaw_right,7,Normal,settle,1.5,1,1.5,149,2.999997,0,1.959126,40,0,0,0,0,0,0,0,83.52905,0,0,1.231003,0,0,0,0
session_20260402_133209,C:/Users/josh_fleming/AppData/LocalLow/DefaultCompany/DJI Drone Sim\BenchmarkRuns\session_20260402_133209,20260402_133301_run008,8,yaw_right,yaw_right,7,Normal,settle,1.5,1,1.5,150,3.019997,0,1.959126,40,0,0,0,0,0,0,0,83.54919,0,0,1.006699,0,0,0,0
session_20260402_133209,C:/Users/josh_fleming/AppData/LocalLow/DefaultCompany/DJI Drone Sim\BenchmarkRuns\session_20260402_133209,20260402_133301_run008,8,yaw_right,yaw_right,7,Normal,settle,1.5,1,1.5,151,3.039997,0,1.959126,40,0,0,0,0,0,0,0,83.56567,0,0,0.824356,0,0,0,0
session_20260402_133209,C:/Users/josh_fleming/AppData/LocalLow/DefaultCompany/DJI Drone Sim\BenchmarkRuns\session_20260402_133209,20260402_133301_run008,8,yaw_right,yaw_right,7,Normal,settle,1.5,1,1.5,152,3.059997,0,1.959126,40,0,0,0,0,0,0,0,83.57917,0,0,0.67482,0,0,0,0
session_20260402_133209,C:/Users/josh_fleming/AppData/LocalLow/DefaultCompany/DJI Drone Sim\BenchmarkRuns\session_20260402_133209,20260402_133301_run008,8,yaw_right,yaw_right,7,Normal,settle,1.5,1,1.5,153,3.079997,0,1.959126,40,0,0,0,0,0,0,0,83.59022,0,0,0.552368,0,0,0,0
session_20260402_133209,C:/Users/josh_fleming/AppData/LocalLow/DefaultCompany/DJI Drone Sim\BenchmarkRuns\session_20260402_133209,20260402_133301_run008,8,yaw_right,yaw_right,7,Normal,settle,1.5,1,1.5,154,3.099997,0,1.959126,40,0,0,0,0,0,0,0,83.59927,0,0,0.452423,0,0,0,0
session_20260402_133209,C:/Users/josh_fleming/AppData/LocalLow/DefaultCompany/DJI Drone Sim\BenchmarkRuns\session_20260402_133209,20260402_133301_run008,8,yaw_right,yaw_right,7,Normal,settle,1.5,1,1.5,155,3.119997,0,1.959126,40,0,0,0,0,0,0,0,83.60667,0,0,0.370407,0,0,0,0
session_20260402_133209,C:/Users/josh_fleming/AppData/LocalLow/DefaultCompany/DJI Drone Sim\BenchmarkRuns\session_20260402_133209,20260402_133301_run008,8,yaw_right,yaw_right,7,Normal,settle,1.5,1,1.5,156,3.139997,0,1.959126,40,0,0,0,0,0,0,0,83.61274,0,0,0.303269,0,0,0,0
session_20260402_133209,C:/Users/josh_fleming/AppData/LocalLow/DefaultCompany/DJI Drone Sim\BenchmarkRuns\session_20260402_133209,20260402_133301_run008,8,yaw_right,yaw_right,7,Normal,settle,1.5,1,1.5,157,3.159997,0,1.959126,40,0,0,0,0,0,0,0,83.61771,0,0,0.248337,0,0,0,0
session_20260402_133209,C:/Users/josh_fleming/AppData/LocalLow/DefaultCompany/DJI Drone Sim\BenchmarkRuns\session_20260402_133209,20260402_133301_run008,8,yaw_right,yaw_right,7,Normal,settle,1.5,1,1.5,158,3.179997,0,1.959126,40,0,0,0,0,0,0,0,83.62177,0,0,0.202942,0,0,0,0
session_20260402_133209,C:/Users/josh_fleming/AppData/LocalLow/DefaultCompany/DJI Drone Sim\BenchmarkRuns\session_20260402_133209,20260402_133301_run008,8,yaw_right,yaw_right,7,Normal,settle,1.5,1,1.5,159,3.199997,0,1.959126,40,0,0,0,0,0,0,0,83.6251,0,0,0.166702,0,0,0,0
session_20260402_133209,C:/Users/josh_fleming/AppData/LocalLow/DefaultCompany/DJI Drone Sim\BenchmarkRuns\session_20260402_133209,20260402_133301_run008,8,yaw_right,yaw_right,7,Normal,settle,1.5,1,1.5,160,3.219997,0,1.959126,40,0,0,0,0,0,0,0,83.62782,0,0,0.136185,0,0,0,0
session_20260402_133209,C:/Users/josh_fleming/AppData/LocalLow/DefaultCompany/DJI Drone Sim\BenchmarkRuns\session_20260402_133209,20260402_133301_run008,8,yaw_right,yaw_right,7,Normal,settle,1.5,1,1.5,161,3.239997,0,1.959126,40,0,0,0,0,0,0,0,83.63005,0,0,0.111389,0,0,0,0
session_20260402_133209,C:/Users/josh_fleming/AppData/LocalLow/DefaultCompany/DJI Drone Sim\BenchmarkRuns\session_20260402_133209,20260402_133301_run008,8,yaw_right,yaw_right,7,Normal,settle,1.5,1,1.5,162,3.259997,0,1.959126,40,0,0,0,0,0,0,0,83.63187,0,0,0.091171,0,0,0,0
session_20260402_133209,C:/Users/josh_fleming/AppData/LocalLow/DefaultCompany/DJI Drone Sim\BenchmarkRuns\session_20260402_133209,20260402_133301_run008,8,yaw_right,yaw_right,7,Normal,settle,1.5,1,1.5,163,3.279997,0,1.959126,40,0,0,0,0,0,0,0,83.63337,0,0,0.074768,0,0,0,0
session_20260402_133209,C:/Users/josh_fleming/AppData/LocalLow/DefaultCompany/DJI Drone Sim\BenchmarkRuns\session_20260402_133209,20260402_133301_run008,8,yaw_right,yaw_right,7,Normal,settle,1.5,1,1.5,164,3.299997,0,1.959126,40,0,0,0,0,0,0,0,83.63461,0,0,0.061798,0,0,0,0
session_20260402_133209,C:/Users/josh_fleming/AppData/LocalLow/DefaultCompany/DJI Drone Sim\BenchmarkRuns\session_20260402_133209,20260402_133301_run008,8,yaw_right,yaw_right,7,Normal,settle,1.5,1,1.5,165,3.319997,0,1.959126,40,0,0,0,0,0,0,0,83.6356,0,0,0.049591,0,0,0,0
session_20260402_133209,C:/Users/josh_fleming/AppData/LocalLow/DefaultCompany/DJI Drone Sim\BenchmarkRuns\session_20260402_133209,20260402_133301_run008,8,yaw_right,yaw_right,7,Normal,settle,1.5,1,1.5,166,3.339997,0,1.959126,40,0,0,0,0,0,0,0,83.63643,0,0,0.04158,0,0,0,0
session_20260402_133209,C:/Users/josh_fleming/AppData/LocalLow/DefaultCompany/DJI Drone Sim\BenchmarkRuns\session_20260402_133209,20260402_133301_run008,8,yaw_right,yaw_right,7,Normal,settle,1.5,1,1.5,167,3.359997,0,1.959126,40,0,0,0,0,0,0,0,83.63709,0,0,0.033188,0,0,0,0
session_20260402_133209,C:/Users/josh_fleming/AppData/LocalLow/DefaultCompany/DJI Drone Sim\BenchmarkRuns\session_20260402_133209,20260402_133301_run008,8,yaw_right,yaw_right,7,Normal,settle,1.5,1,1.5,168,3.379997,0,1.959126,40,0,0,0,0,0,0,0,83.63765,0,0,0.027847,0,0,0,0
session_20260402_133209,C:/Users/josh_fleming/AppData/LocalLow/DefaultCompany/DJI Drone Sim\BenchmarkRuns\session_20260402_133209,20260402_133301_run008,8,yaw_right,yaw_right,7,Normal,settle,1.5,1,1.5,169,3.399997,0,1.959126,40,0,0,0,0,0,0,0,83.6381,0,0,0.022507,0,0,0,0
session_20260402_133209,C:/Users/josh_fleming/AppData/LocalLow/DefaultCompany/DJI Drone Sim\BenchmarkRuns\session_20260402_133209,20260402_133301_run008,8,yaw_right,yaw_right,7,Normal,settle,1.5,1,1.5,170,3.419997,0,1.959126,40,0,0,0,0,0,0,0,83.63847,0,0,0.018311,0,0,0,0
session_20260402_133209,C:/Users/josh_fleming/AppData/LocalLow/DefaultCompany/DJI Drone Sim\BenchmarkRuns\session_20260402_133209,20260402_133301_run008,8,yaw_right,yaw_right,7,Normal,settle,1.5,1,1.5,171,3.439997,0,1.959126,40,0,0,0,0,0,0,0,83.63877,0,0,0.015259,0,0,0,0
session_20260402_133209,C:/Users/josh_fleming/AppData/LocalLow/DefaultCompany/DJI Drone Sim\BenchmarkRuns\session_20260402_133209,20260402_133301_run008,8,yaw_right,yaw_right,7,Normal,settle,1.5,1,1.5,172,3.459997,0,1.959126,40,0,0,0,0,0,0,0,83.63902,0,0,0.012207,0,0,0,0
session_20260402_133209,C:/Users/josh_fleming/AppData/LocalLow/DefaultCompany/DJI Drone Sim\BenchmarkRuns\session_20260402_133209,20260402_133301_run008,8,yaw_right,yaw_right,7,Normal,settle,1.5,1,1.5,173,3.479997,0,1.959126,40,0,0,0,0,0,0,0,83.63921,0,0,0.009918,0,0,0,0
session_20260402_133209,C:/Users/josh_fleming/AppData/LocalLow/DefaultCompany/DJI Drone Sim\BenchmarkRuns\session_20260402_133209,20260402_133301_run008,8,yaw_right,yaw_right,7,Normal,settle,1.5,1,1.5,174,3.499997,0,1.959126,40,0,0,0,0,0,0,0,83.63937,0,0,0.008011,0,0,0,0
session_20260402_133209,C:/Users/josh_fleming/AppData/LocalLow/DefaultCompany/DJI Drone Sim\BenchmarkRuns\session_20260402_133209,20260402_133301_run008,8,yaw_right,yaw_right,7,Normal,settle,1.5,1,1.5,175,3.519997,0,1.959126,40,0,0,0,0,0,0,0,83.63951,0,0,0.006866,0,0,0,0
session_20260402_133209,C:/Users/josh_fleming/AppData/LocalLow/DefaultCompany/DJI Drone Sim\BenchmarkRuns\session_20260402_133209,20260402_133301_run008,8,yaw_right,yaw_right,7,Normal,settle,1.5,1,1.5,176,3.539997,0,1.959126,40,0,0,0,0,0,0,0,83.63963,0,0,0.005722,0,0,0,0
session_20260402_133209,C:/Users/josh_fleming/AppData/LocalLow/DefaultCompany/DJI Drone Sim\BenchmarkRuns\session_20260402_133209,20260402_133301_run008,8,yaw_right,yaw_right,7,Normal,settle,1.5,1,1.5,177,3.559997,0,1.959126,40,0,0,0,0,0,0,0,83.63972,0,0,0.004578,0,0,0,0
session_20260402_133209,C:/Users/josh_fleming/AppData/LocalLow/DefaultCompany/DJI Drone Sim\BenchmarkRuns\session_20260402_133209,20260402_133301_run008,8,yaw_right,yaw_right,7,Normal,settle,1.5,1,1.5,178,3.579997,0,1.959126,40,0,0,0,0,0,0,0,83.63979,0,0,0.003815,0,0,0,0
session_20260402_133209,C:/Users/josh_fleming/AppData/LocalLow/DefaultCompany/DJI Drone Sim\BenchmarkRuns\session_20260402_133209,20260402_133301_run008,8,yaw_right,yaw_right,7,Normal,settle,1.5,1,1.5,179,3.599997,0,1.959126,40,0,0,0,0,0,0,0,83.63985,0,0,0.003052,0,0,0,0
session_20260402_133209,C:/Users/josh_fleming/AppData/LocalLow/DefaultCompany/DJI Drone Sim\BenchmarkRuns\session_20260402_133209,20260402_133301_run008,8,yaw_right,yaw_right,7,Normal,settle,1.5,1,1.5,180,3.619997,0,1.959126,40,0,0,0,0,0,0,0,83.6399,0,0,0.002289,0,0,0,0
session_20260402_133209,C:/Users/josh_fleming/AppData/LocalLow/DefaultCompany/DJI Drone Sim\BenchmarkRuns\session_20260402_133209,20260402_133301_run008,8,yaw_right,yaw_right,7,Normal,settle,1.5,1,1.5,181,3.639997,0,1.959126,40,0,0,0,0,0,0,0,83.63994,0,0,0.001907,0,0,0,0
session_20260402_133209,C:/Users/josh_fleming/AppData/LocalLow/DefaultCompany/DJI Drone Sim\BenchmarkRuns\session_20260402_133209,20260402_133301_run008,8,yaw_right,yaw_right,7,Normal,settle,1.5,1,1.5,182,3.659997,0,1.959126,40,0,0,0,0,0,0,0,83.63998,0,0,0.001907,0,0,0,0
session_20260402_133209,C:/Users/josh_fleming/AppData/LocalLow/DefaultCompany/DJI Drone Sim\BenchmarkRuns\session_20260402_133209,20260402_133301_run008,8,yaw_right,yaw_right,7,Normal,settle,1.5,1,1.5,183,3.679997,0,1.959126,40,0,0,0,0,0,0,0,83.64001,0,0,0.001526,0,0,0,0
session_20260402_133209,C:/Users/josh_fleming/AppData/LocalLow/DefaultCompany/DJI Drone Sim\BenchmarkRuns\session_20260402_133209,20260402_133301_run008,8,yaw_right,yaw_right,7,Normal,settle,1.5,1,1.5,184,3.699997,0,1.959126,40,0,0,0,0,0,0,0,83.64001,0,0,0.000381,0,0,0,0
session_20260402_133209,C:/Users/josh_fleming/AppData/LocalLow/DefaultCompany/DJI Drone Sim\BenchmarkRuns\session_20260402_133209,20260402_133301_run008,8,yaw_right,yaw_right,7,Normal,settle,1.5,1,1.5,185,3.719997,0,1.959126,40,0,0,0,0,0,0,0,83.64004,0,0,0.001144,0,0,0,0
session_20260402_133209,C:/Users/josh_fleming/AppData/LocalLow/DefaultCompany/DJI Drone Sim\BenchmarkRuns\session_20260402_133209,20260402_133301_run008,8,yaw_right,yaw_right,7,Normal,settle,1.5,1,1.5,186,3.739997,0,1.959126,40,0,0,0,0,0,0,0,83.64006,0,0,0.001144,0,0,0,0
session_20260402_133209,C:/Users/josh_fleming/AppData/LocalLow/DefaultCompany/DJI Drone Sim\BenchmarkRuns\session_20260402_133209,20260402_133301_run008,8,yaw_right,yaw_right,7,Normal,settle,1.5,1,1.5,187,3.759997,0,1.959126,40,0,0,0,0,0,0,0,83.64007,0,0,0.000381,0,0,0,0
session_20260402_133209,C:/Users/josh_fleming/AppData/LocalLow/DefaultCompany/DJI Drone Sim\BenchmarkRuns\session_20260402_133209,20260402_133301_run008,8,yaw_right,yaw_right,7,Normal,settle,1.5,1,1.5,188,3.779997,0,1.959126,40,0,0,0,0,0,0,0,83.64008,0,0,0.000763,0,0,0,0
session_20260402_133209,C:/Users/josh_fleming/AppData/LocalLow/DefaultCompany/DJI Drone Sim\BenchmarkRuns\session_20260402_133209,20260402_133301_run008,8,yaw_right,yaw_right,7,Normal,settle,1.5,1,1.5,189,3.799997,0,1.959126,40,0,0,0,0,0,0,0,83.64008,0,0,0,0,0,0,0
session_20260402_133209,C:/Users/josh_fleming/AppData/LocalLow/DefaultCompany/DJI Drone Sim\BenchmarkRuns\session_20260402_133209,20260402_133301_run008,8,yaw_right,yaw_right,7,Normal,settle,1.5,1,1.5,190,3.819997,0,1.959126,40,0,0,0,0,0,0,0,83.64009,0,0,0.000381,0,0,0,0
session_20260402_133209,C:/Users/josh_fleming/AppData/LocalLow/DefaultCompany/DJI Drone Sim\BenchmarkRuns\session_20260402_133209,20260402_133301_run008,8,yaw_right,yaw_right,7,Normal,settle,1.5,1,1.5,191,3.839997,0,1.959126,40,0,0,0,0,0,0,0,83.6401,0,0,0.000381,0,0,0,0
session_20260402_133209,C:/Users/josh_fleming/AppData/LocalLow/DefaultCompany/DJI Drone Sim\BenchmarkRuns\session_20260402_133209,20260402_133301_run008,8,yaw_right,yaw_right,7,Normal,settle,1.5,1,1.5,192,3.859997,0,1.959126,40,0,0,0,0,0,0,0,83.6401,0,0,0,0,0,0,0
session_20260402_133209,C:/Users/josh_fleming/AppData/LocalLow/DefaultCompany/DJI Drone Sim\BenchmarkRuns\session_20260402_133209,20260402_133301_run008,8,yaw_right,yaw_right,7,Normal,settle,1.5,1,1.5,193,3.879997,0,1.959126,40,0,0,0,0,0,0,0,83.6401,0,0,0,0,0,0,0
session_20260402_133209,C:/Users/josh_fleming/AppData/LocalLow/DefaultCompany/DJI Drone Sim\BenchmarkRuns\session_20260402_133209,20260402_133301_run008,8,yaw_right,yaw_right,7,Normal,settle,1.5,1,1.5,194,3.899997,0,1.959126,40,0,0,0,0,0,0,0,83.6401,0,0,0,0,0,0,0
session_20260402_133209,C:/Users/josh_fleming/AppData/LocalLow/DefaultCompany/DJI Drone Sim\BenchmarkRuns\session_20260402_133209,20260402_133301_run008,8,yaw_right,yaw_right,7,Normal,settle,1.5,1,1.5,195,3.919997,0,1.959126,40,0,0,0,0,0,0,0,83.6401,0,0,0,0,0,0,0
session_20260402_133209,C:/Users/josh_fleming/AppData/LocalLow/DefaultCompany/DJI Drone Sim\BenchmarkRuns\session_20260402_133209,20260402_133301_run008,8,yaw_right,yaw_right,7,Normal,settle,1.5,1,1.5,196,3.939996,0,1.959126,40,0,0,0,0,0,0,0,83.6401,0,0,0,0,0,0,0
session_20260402_133209,C:/Users/josh_fleming/AppData/LocalLow/DefaultCompany/DJI Drone Sim\BenchmarkRuns\session_20260402_133209,20260402_133301_run008,8,yaw_right,yaw_right,7,Normal,settle,1.5,1,1.5,197,3.959996,0,1.959126,40,0,0,0,0,0,0,0,83.6401,0,0,0,0,0,0,0
session_20260402_133209,C:/Users/josh_fleming/AppData/LocalLow/DefaultCompany/DJI Drone Sim\BenchmarkRuns\session_20260402_133209,20260402_133301_run008,8,yaw_right,yaw_right,7,Normal,settle,1.5,1,1.5,198,3.979996,0,1.959126,40,0,0,0,0,0,0,0,83.6401,0,0,0,0,0,0,0
session_20260402_133209,C:/Users/josh_fleming/AppData/LocalLow/DefaultCompany/DJI Drone Sim\BenchmarkRuns\session_20260402_133209,20260402_133301_run008,8,yaw_right,yaw_right,7,Normal,settle,1.5,1,1.5,199,3.999996,0,1.959126,40,0,0,0,0,0,0,0,83.6401,0,0,0,0,0,0,0
session_20260402_133209,C:/Users/josh_fleming/AppData/LocalLow/DefaultCompany/DJI Drone Sim\BenchmarkRuns\session_20260402_133209,20260402_133301_run008,8,yaw_right,yaw_right,7,Normal,settle,1.5,1,1.5,200,4.019997,0,1.959126,40,0,0,0,0,0,0,0,83.6401,0,0,0,0,0,0,0
session_20260402_133209,C:/Users/josh_fleming/AppData/LocalLow/DefaultCompany/DJI Drone Sim\BenchmarkRuns\session_20260402_133209,20260402_133301_run008,8,yaw_right,yaw_right,7,Normal,settle,1.5,1,1.5,201,4.039997,0,1.959126,40,0,0,0,0,0,0,0,83.6401,0,0,0,0,0,0,0
session_20260402_133209,C:/Users/josh_fleming/AppData/LocalLow/DefaultCompany/DJI Drone Sim\BenchmarkRuns\session_20260402_133209,20260402_133301_run008,8,yaw_right,yaw_right,7,Normal,settle,1.5,1,1.5,202,4.059997,0,1.959126,40,0,0,0,0,0,0,0,83.6401,0,0,0,0,0,0,0
